[{"color":"orange","uf":"ERRO CADASTRO API AL","cidade":"Belém","latitude":"-9.570472","longitude":"-36.490399","name":"Belém, ERRO CADASTRO API AL <br> ERRO na consulta API","tecnologia":"ERRO na consulta API"},{"color":"orange","uf":"ERRO CADASTRO API AL","cidade":"Campo Grande","latitude":"-9.955423","longitude":"-36.792608","name":"Campo Grande, ERRO CADASTRO API AL <br> ERRO na consulta API","tecnologia":"ERRO na consulta API"},{"color":"orange","uf":"ERRO CADASTRO API AL","cidade":"São Sebastião","latitude":"-9.930434","longitude":"-36.558967","name":"São Sebastião, ERRO CADASTRO API AL <br> ERRO na consulta API","tecnologia":"ERRO na consulta API"},{"color":"orange","uf":"ERRO CADASTRO API AL","cidade":"Viçosa","latitude":"-9.367631","longitude":"-36.243107","name":"Viçosa, ERRO CADASTRO API AL <br> ERRO na consulta API","tecnologia":"ERRO na consulta API"},{"color":"orange","uf":"ERRO CADASTRO API BA","cidade":"Maraú","latitude":"-14.103549","longitude":"-39.013656","name":"Maraú, ERRO CADASTRO API BA <br> ERRO na consulta API","tecnologia":"ERRO na consulta API"},{"color":"orange","uf":"ERRO CADASTRO API BA","cidade":"Santa Luzia","latitude":"-15.434188","longitude":"-39.328678","name":"Santa Luzia, ERRO CADASTRO API BA <br> ERRO na consulta API","tecnologia":"ERRO na consulta API"},{"color":"orange","uf":"ERRO CADASTRO API BA","cidade":"Santana","latitude":"-12.979217","longitude":"-44.05064","name":"Santana, ERRO CADASTRO API BA <br> ERRO na consulta API","tecnologia":"ERRO na consulta API"},{"color":"orange","uf":"ERRO CADASTRO API BA","cidade":"São Gabriel","latitude":"-11.217453","longitude":"-41.884267","name":"São Gabriel, ERRO CADASTRO API BA <br> ERRO na consulta API","tecnologia":"ERRO na consulta API"},{"color":"orange","uf":"ERRO CADASTRO API BA","cidade":"Valença","latitude":"-13.366948","longitude":"-39.072953","name":"Valença, ERRO CADASTRO API BA <br> ERRO na consulta API","tecnologia":"ERRO na consulta API"},{"color":"orange","uf":"ERRO CADASTRO API BA","cidade":"Vera Cruz","latitude":"-12.956845","longitude":"-38.615295","name":"Vera Cruz, ERRO CADASTRO API BA <br> ERRO na consulta API","tecnologia":"ERRO na consulta API"},{"color":"orange","uf":"ERRO CADASTRO API CE","cidade":"Cascavel","latitude":"-4.129666","longitude":"-38.241178","name":"Cascavel, ERRO CADASTRO API CE <br> ERRO na consulta API","tecnologia":"ERRO na consulta API"},{"color":"orange","uf":"ERRO CADASTRO API GO","cidade":"Lagoa Santa","latitude":"-19.185113","longitude":"-51.399333","name":"Lagoa Santa, ERRO CADASTRO API GO <br> ERRO na consulta API","tecnologia":"ERRO na consulta API"},{"color":"orange","uf":"ERRO CADASTRO API GO","cidade":"Santa Isabel","latitude":"-15.295849","longitude":"-49.425931","name":"Santa Isabel, ERRO CADASTRO API GO <br> ERRO na consulta API","tecnologia":"ERRO na consulta API"},{"color":"orange","uf":"ERRO CADASTRO API MA","cidade":"Santa Luzia","latitude":"-4.068726","longitude":"-45.690026","name":"Santa Luzia, ERRO CADASTRO API MA <br> ERRO na consulta API","tecnologia":"ERRO na consulta API"},{"color":"orange","uf":"ERRO CADASTRO API MG","cidade":"Itapeva","latitude":"-22.766488","longitude":"-46.224053","name":"Itapeva, ERRO CADASTRO API MG <br> ERRO na consulta API","tecnologia":"ERRO na consulta API"},{"color":"orange","uf":"ERRO CADASTRO API MG","cidade":"Mesquita","latitude":"-19.224022","longitude":"-42.607877","name":"Mesquita, ERRO CADASTRO API MG <br> ERRO na consulta API","tecnologia":"ERRO na consulta API"},{"color":"orange","uf":"ERRO CADASTRO API MG","cidade":"Presidente Bernardes","latitude":"-20.76557","longitude":"-43.189532","name":"Presidente Bernardes, ERRO CADASTRO API MG <br> ERRO na consulta API","tecnologia":"ERRO na consulta API"},{"color":"orange","uf":"ERRO CADASTRO API MT","cidade":"Rio Branco","latitude":"-15.248331","longitude":"-58.125892","name":"Rio Branco, ERRO CADASTRO API MT <br> ERRO na consulta API","tecnologia":"ERRO na consulta API"},{"color":"orange","uf":"ERRO CADASTRO API PB","cidade":"Amparo","latitude":"-7.555022","longitude":"-37.062838","name":"Amparo, ERRO CADASTRO API PB <br> ERRO na consulta API","tecnologia":"ERRO na consulta API"},{"color":"orange","uf":"ERRO CADASTRO API PB","cidade":"Aparecida","latitude":"-6.784657","longitude":"-38.080259","name":"Aparecida, ERRO CADASTRO API PB <br> ERRO na consulta API","tecnologia":"ERRO na consulta API"},{"color":"orange","uf":"ERRO CADASTRO API PB","cidade":"Belém","latitude":"-6.742614","longitude":"-35.51658","name":"Belém, ERRO CADASTRO API PB <br> ERRO na consulta API","tecnologia":"ERRO na consulta API"},{"color":"orange","uf":"ERRO CADASTRO API PB","cidade":"Paulista","latitude":"-6.591381","longitude":"-37.618548","name":"Paulista, ERRO CADASTRO API PB <br> ERRO na consulta API","tecnologia":"ERRO na consulta API"},{"color":"orange","uf":"ERRO CADASTRO API PB","cidade":"Santa Luzia","latitude":"-6.860922","longitude":"-36.917792","name":"Santa Luzia, ERRO CADASTRO API PB <br> ERRO na consulta API","tecnologia":"ERRO na consulta API"},{"color":"orange","uf":"ERRO CADASTRO API PB","cidade":"Santo André","latitude":"-7.220157","longitude":"-36.621339","name":"Santo André, ERRO CADASTRO API PB <br> ERRO na consulta API","tecnologia":"ERRO na consulta API"},{"color":"orange","uf":"ERRO CADASTRO API PB","cidade":"Sertãozinho","latitude":"-6.751273","longitude":"-35.437159","name":"Sertãozinho, ERRO CADASTRO API PB <br> ERRO na consulta API","tecnologia":"ERRO na consulta API"},{"color":"orange","uf":"ERRO CADASTRO API PE","cidade":"Cachoeirinha","latitude":"-8.486685","longitude":"-36.240182","name":"Cachoeirinha, ERRO CADASTRO API PE <br> ERRO na consulta API","tecnologia":"ERRO na consulta API"},{"color":"orange","uf":"ERRO CADASTRO API PE","cidade":"Parnamirim","latitude":"-8.087292","longitude":"-39.579547","name":"Parnamirim, ERRO CADASTRO API PE <br> ERRO na consulta API","tecnologia":"ERRO na consulta API"},{"color":"orange","uf":"ERRO CADASTRO API PE","cidade":"Trindade","latitude":"-7.759","longitude":"-40.26472","name":"Trindade, ERRO CADASTRO API PE <br> ERRO na consulta API","tecnologia":"ERRO na consulta API"},{"color":"orange","uf":"ERRO CADASTRO API PI","cidade":"Várzea Grande","latitude":"-6.548993","longitude":"-42.247973","name":"Várzea Grande, ERRO CADASTRO API PI <br> ERRO na consulta API","tecnologia":"ERRO na consulta API"},{"color":"orange","uf":"ERRO CADASTRO API PR","cidade":"Guaíra","latitude":"-24.085005","longitude":"-54.257327","name":"Guaíra, ERRO CADASTRO API PR <br> ERRO na consulta API","tecnologia":"ERRO na consulta API"},{"color":"orange","uf":"ERRO CADASTRO API RJ","cidade":"Rio Claro","latitude":"-22.720001","longitude":"-44.141874","name":"Rio Claro, ERRO CADASTRO API RJ <br> ERRO na consulta API","tecnologia":"ERRO na consulta API"},{"color":"orange","uf":"ERRO CADASTRO API RN","cidade":"Santa Maria","latitude":"-5.838022","longitude":"-35.691409","name":"Santa Maria, ERRO CADASTRO API RN <br> ERRO na consulta API","tecnologia":"ERRO na consulta API"},{"color":"orange","uf":"ERRO CADASTRO API RN","cidade":"São Vicente","latitude":"-6.218931","longitude":"-36.682696","name":"São Vicente, ERRO CADASTRO API RN <br> ERRO na consulta API","tecnologia":"ERRO na consulta API"},{"color":"orange","uf":"ERRO CADASTRO API RN","cidade":"Vera Cruz","latitude":"-6.043989","longitude":"-35.427979","name":"Vera Cruz, ERRO CADASTRO API RN <br> ERRO na consulta API","tecnologia":"ERRO na consulta API"},{"color":"orange","uf":"ERRO CADASTRO API RN","cidade":"Viçosa","latitude":"-5.982529","longitude":"-37.946236","name":"Viçosa, ERRO CADASTRO API RN <br> ERRO na consulta API","tecnologia":"ERRO na consulta API"},{"color":"orange","uf":"ERRO CADASTRO API SC","cidade":"Jardinópolis","latitude":"-26.719136","longitude":"-52.862524","name":"Jardinópolis, ERRO CADASTRO API SC <br> ERRO na consulta API","tecnologia":"ERRO na consulta API"},{"color":"orange","uf":"ERRO CADASTRO API SC","cidade":"Praia Grande","latitude":"-29.191846","longitude":"-49.952503","name":"Praia Grande, ERRO CADASTRO API SC <br> ERRO na consulta API","tecnologia":"ERRO na consulta API"},{"color":"orange","uf":"ERRO CADASTRO API SC","cidade":"São Carlos","latitude":"-27.079757","longitude":"-53.003704","name":"São Carlos, ERRO CADASTRO API SC <br> ERRO na consulta API","tecnologia":"ERRO na consulta API"},{"color":"orange","uf":"ERRO CADASTRO API SP","cidade":"Vera Cruz","latitude":"-22.218308","longitude":"-49.820735","name":"Vera Cruz, ERRO CADASTRO API SP <br> ERRO na consulta API","tecnologia":"ERRO na consulta API"},{"color":"orange","uf":"ERRO CADASTRO API TO","cidade":"Alvorada","latitude":"-12.478465","longitude":"-49.124926","name":"Alvorada, ERRO CADASTRO API TO <br> ERRO na consulta API","tecnologia":"ERRO na consulta API"},{"color":"orange","uf":"ERRO CADASTRO API TO","cidade":"Cachoeirinha","latitude":"-6.115596","longitude":"-47.923399","name":"Cachoeirinha, ERRO CADASTRO API TO <br> ERRO na consulta API","tecnologia":"ERRO na consulta API"},{"color":"orange","uf":"ERRO CADASTRO API TO","cidade":"Lajeado","latitude":"-9.749956","longitude":"-48.356482","name":"Lajeado, ERRO CADASTRO API TO <br> ERRO na consulta API","tecnologia":"ERRO na consulta API"}]
