[{"uf":"ERRO CADASTRO API AL","cidade":"Campo Grande","color":"orange","longitude":"-36.792608","tecnologia":"ERRO na consulta API","latitude":"-9.955423","name":"Campo Grande, ERRO CADASTRO API AL <br> ERRO na consulta API"},{"uf":"ERRO CADASTRO API BA","cidade":"Maraú","color":"orange","longitude":"-39.013656","tecnologia":"ERRO na consulta API","latitude":"-14.103549","name":"Maraú, ERRO CADASTRO API BA <br> ERRO na consulta API"},{"uf":"ERRO CADASTRO API BA","cidade":"Santa Luzia","color":"orange","longitude":"-39.328678","tecnologia":"ERRO na consulta API","latitude":"-15.434188","name":"Santa Luzia, ERRO CADASTRO API BA <br> ERRO na consulta API"},{"uf":"ERRO CADASTRO API BA","cidade":"Santana","color":"orange","longitude":"-44.05064","tecnologia":"ERRO na consulta API","latitude":"-12.979217","name":"Santana, ERRO CADASTRO API BA <br> ERRO na consulta API"},{"uf":"ERRO CADASTRO API BA","cidade":"Vera Cruz","color":"orange","longitude":"-38.615295","tecnologia":"ERRO na consulta API","latitude":"-12.956845","name":"Vera Cruz, ERRO CADASTRO API BA <br> ERRO na consulta API"},{"uf":"ERRO CADASTRO API CE","cidade":"Cascavel","color":"orange","longitude":"-38.241178","tecnologia":"ERRO na consulta API","latitude":"-4.129666","name":"Cascavel, ERRO CADASTRO API CE <br> ERRO na consulta API"},{"uf":"ERRO CADASTRO API GO","cidade":"Lagoa Santa","color":"orange","longitude":"-51.399333","tecnologia":"ERRO na consulta API","latitude":"-19.185113","name":"Lagoa Santa, ERRO CADASTRO API GO <br> ERRO na consulta API"},{"uf":"ERRO CADASTRO API GO","cidade":"Santa Isabel","color":"orange","longitude":"-49.425931","tecnologia":"ERRO na consulta API","latitude":"-15.295849","name":"Santa Isabel, ERRO CADASTRO API GO <br> ERRO na consulta API"},{"uf":"ERRO CADASTRO API MA","cidade":"Santa Luzia","color":"orange","longitude":"-45.690026","tecnologia":"ERRO na consulta API","latitude":"-4.068726","name":"Santa Luzia, ERRO CADASTRO API MA <br> ERRO na consulta API"},{"uf":"ERRO CADASTRO API MG","cidade":"Itapeva","color":"orange","longitude":"-46.224053","tecnologia":"ERRO na consulta API","latitude":"-22.766488","name":"Itapeva, ERRO CADASTRO API MG <br> ERRO na consulta API"},{"uf":"ERRO CADASTRO API MG","cidade":"Mesquita","color":"orange","longitude":"-42.607877","tecnologia":"ERRO na consulta API","latitude":"-19.224022","name":"Mesquita, ERRO CADASTRO API MG <br> ERRO na consulta API"},{"uf":"ERRO CADASTRO API MG","cidade":"Presidente Bernardes","color":"orange","longitude":"-43.189532","tecnologia":"ERRO na consulta API","latitude":"-20.76557","name":"Presidente Bernardes, ERRO CADASTRO API MG <br> ERRO na consulta API"},{"uf":"ERRO CADASTRO API MG","cidade":"Toledo","color":"orange","longitude":"-46.372772","tecnologia":"ERRO na consulta API","latitude":"-22.742133","name":"Toledo, ERRO CADASTRO API MG <br> ERRO na consulta API"},{"uf":"ERRO CADASTRO API MT","cidade":"Rio Branco","color":"orange","longitude":"-58.125892","tecnologia":"ERRO na consulta API","latitude":"-15.248331","name":"Rio Branco, ERRO CADASTRO API MT <br> ERRO na consulta API"},{"uf":"ERRO CADASTRO API PB","cidade":"Amparo","color":"orange","longitude":"-37.062838","tecnologia":"ERRO na consulta API","latitude":"-7.555022","name":"Amparo, ERRO CADASTRO API PB <br> ERRO na consulta API"},{"uf":"ERRO CADASTRO API PB","cidade":"Aparecida","color":"orange","longitude":"-38.080259","tecnologia":"ERRO na consulta API","latitude":"-6.784657","name":"Aparecida, ERRO CADASTRO API PB <br> ERRO na consulta API"},{"uf":"ERRO CADASTRO API PB","cidade":"Paulista","color":"orange","longitude":"-37.618548","tecnologia":"ERRO na consulta API","latitude":"-6.591381","name":"Paulista, ERRO CADASTRO API PB <br> ERRO na consulta API"},{"uf":"ERRO CADASTRO API PB","cidade":"Santa Luzia","color":"orange","longitude":"-36.917792","tecnologia":"ERRO na consulta API","latitude":"-6.860922","name":"Santa Luzia, ERRO CADASTRO API PB <br> ERRO na consulta API"},{"uf":"ERRO CADASTRO API PE","cidade":"Cachoeirinha","color":"orange","longitude":"-36.240182","tecnologia":"ERRO na consulta API","latitude":"-8.486685","name":"Cachoeirinha, ERRO CADASTRO API PE <br> ERRO na consulta API"},{"uf":"ERRO CADASTRO API PE","cidade":"Parnamirim","color":"orange","longitude":"-39.579547","tecnologia":"ERRO na consulta API","latitude":"-8.087292","name":"Parnamirim, ERRO CADASTRO API PE <br> ERRO na consulta API"},{"uf":"ERRO CADASTRO API PE","cidade":"Trindade","color":"orange","longitude":"-40.26472","tecnologia":"ERRO na consulta API","latitude":"-7.759","name":"Trindade, ERRO CADASTRO API PE <br> ERRO na consulta API"},{"uf":"ERRO CADASTRO API PR","cidade":"Londrina","color":"orange","longitude":"-51.1691","tecnologia":"ERRO na consulta API","latitude":"-23.303975","name":"Londrina, ERRO CADASTRO API PR <br> ERRO na consulta API"},{"uf":"ERRO CADASTRO API RJ","cidade":"Rio Claro","color":"orange","longitude":"-44.141874","tecnologia":"ERRO na consulta API","latitude":"-22.720001","name":"Rio Claro, ERRO CADASTRO API RJ <br> ERRO na consulta API"},{"uf":"ERRO CADASTRO API RN","cidade":"Santa Maria","color":"orange","longitude":"-35.691409","tecnologia":"ERRO na consulta API","latitude":"-5.838022","name":"Santa Maria, ERRO CADASTRO API RN <br> ERRO na consulta API"},{"uf":"ERRO CADASTRO API RN","cidade":"Vera Cruz","color":"orange","longitude":"-35.427979","tecnologia":"ERRO na consulta API","latitude":"-6.043989","name":"Vera Cruz, ERRO CADASTRO API RN <br> ERRO na consulta API"},{"uf":"ERRO CADASTRO API RS","cidade":"Sarandi","color":"orange","longitude":"-52.923085","tecnologia":"ERRO na consulta API","latitude":"-27.942","name":"Sarandi, ERRO CADASTRO API RS <br> ERRO na consulta API"},{"uf":"ERRO CADASTRO API SC","cidade":"Praia Grande","color":"orange","longitude":"-49.952503","tecnologia":"ERRO na consulta API","latitude":"-29.191846","name":"Praia Grande, ERRO CADASTRO API SC <br> ERRO na consulta API"},{"uf":"ERRO CADASTRO API SP","cidade":"Vera Cruz","color":"orange","longitude":"-49.820735","tecnologia":"ERRO na consulta API","latitude":"-22.218308","name":"Vera Cruz, ERRO CADASTRO API SP <br> ERRO na consulta API"},{"uf":"ERRO CADASTRO API TO","cidade":"Alvorada","color":"orange","longitude":"-49.124926","tecnologia":"ERRO na consulta API","latitude":"-12.478465","name":"Alvorada, ERRO CADASTRO API TO <br> ERRO na consulta API"},{"uf":"ERRO CADASTRO API TO","cidade":"Cachoeirinha","color":"orange","longitude":"-47.923399","tecnologia":"ERRO na consulta API","latitude":"-6.115596","name":"Cachoeirinha, ERRO CADASTRO API TO <br> ERRO na consulta API"},{"uf":"ERRO CADASTRO API TO","cidade":"Lajeado","color":"orange","longitude":"-48.356482","tecnologia":"ERRO na consulta API","latitude":"-9.749956","name":"Lajeado, ERRO CADASTRO API TO <br> ERRO na consulta API"}]
