[{"longitude":"-43.173463","color":"grey","name":"João Monlevade, MG <br> GPON REDE NEUTRA","tecnologia":"GPON REDE NEUTRA","latitude":"-19.812646","cidade":"João Monlevade","uf":"MG"},{"longitude":"-51.988812","color":"grey","name":"Palmas, PR <br> GPON REDE NEUTRA","tecnologia":"GPON REDE NEUTRA","latitude":"-26.483868","cidade":"Palmas","uf":"PR"},{"longitude":"-49.062411","color":"grey","name":"Piraquara, PR <br> GPON REDE NEUTRA","tecnologia":"GPON REDE NEUTRA","latitude":"-25.442171","cidade":"Piraquara","uf":"PR"},{"longitude":"-45.426793","color":"grey","name":"Formiga, MG <br> GPON REDE NEUTRA","tecnologia":"GPON REDE NEUTRA","latitude":"-20.461819","cidade":"Formiga","uf":"MG"},{"longitude":"-45.540149","color":"grey","name":"Lagoa da Prata, MG <br> GPON REDE NEUTRA","tecnologia":"GPON REDE NEUTRA","latitude":"-20.023728","cidade":"Lagoa da Prata","uf":"MG"},{"longitude":"-44.086786","color":"grey","name":"Matozinhos, MG <br> GPON REDE NEUTRA","tecnologia":"GPON REDE NEUTRA","latitude":"-19.554318","cidade":"Matozinhos","uf":"MG"},{"longitude":"-44.038258","color":"grey","name":"Pedro Leopoldo, MG <br> GPON REDE NEUTRA","tecnologia":"GPON REDE NEUTRA","latitude":"-19.630811","cidade":"Pedro Leopoldo","uf":"MG"},{"longitude":"-54.582689","color":"grey","name":"Foz do Iguaçu, PR <br> GPON REDE NEUTRA","tecnologia":"GPON REDE NEUTRA","latitude":"-25.542748","cidade":"Foz do Iguaçu","uf":"PR"},{"longitude":"-48.575223","color":"grey","name":"Guaratuba, PR <br> GPON REDE NEUTRA","tecnologia":"GPON REDE NEUTRA","latitude":"-25.881672","cidade":"Guaratuba","uf":"PR"},{"longitude":"-51.052243","color":"grey","name":"Ibiporã, PR <br> GPON REDE NEUTRA","tecnologia":"GPON REDE NEUTRA","latitude":"-23.265941","cidade":"Ibiporã","uf":"PR"},{"longitude":"-54.056115","color":"grey","name":"Marechal Cândido Rondon, PR <br> GPON REDE NEUTRA","tecnologia":"GPON REDE NEUTRA","latitude":"-24.557891","cidade":"Marechal Cândido Rondon","uf":"PR"},{"longitude":"-54.094308","color":"grey","name":"Medianeira, PR <br> GPON REDE NEUTRA","tecnologia":"GPON REDE NEUTRA","latitude":"-25.297665","cidade":"Medianeira","uf":"PR"},{"longitude":"-52.046013","color":"grey","name":"Paiçandu, PR <br> GPON REDE NEUTRA","tecnologia":"GPON REDE NEUTRA","latitude":"-23.455534","cidade":"Paiçandu","uf":"PR"},{"longitude":"-49.076306","color":"grey","name":"Quatro Barras, PR <br> GPON REDE NEUTRA","tecnologia":"GPON REDE NEUTRA","latitude":"-25.367317","cidade":"Quatro Barras","uf":"PR"},{"longitude":"-50.617585","color":"grey","name":"Telêmaco Borba, PR <br> GPON REDE NEUTRA","tecnologia":"GPON REDE NEUTRA","latitude":"-24.32452","cidade":"Telêmaco Borba","uf":"PR"},{"longitude":"-51.087313","color":"grey","name":"União da Vitória, PR <br> GPON REDE NEUTRA","tecnologia":"GPON REDE NEUTRA","latitude":"-26.227319","cidade":"União da Vitória","uf":"PR"}]
