[{"uf":"AL","cidade":"Arapiraca","color":"green","longitude":"-36.661471","tecnologia":"GPON","latitude":"-9.754866","name":"Arapiraca, AL <br> GPON"},{"uf":"GO","cidade":"Trindade","color":"green","longitude":"-49.492667","tecnologia":"GPON","latitude":"-16.651708","name":"Trindade, GO <br> GPON"},{"uf":"MG","cidade":"Araxá","color":"green","longitude":"-46.943804","tecnologia":"GPON","latitude":"-19.590176","name":"Araxá, MG <br> GPON"},{"uf":"MG","cidade":"Itajubá","color":"green","longitude":"-45.459818","tecnologia":"GPON","latitude":"-22.422481","name":"Itajubá, MG <br> GPON"},{"uf":"RJ","cidade":"Paraíba Do Sul","color":"green","longitude":"-43.304004","tecnologia":"GPON","latitude":"-22.158462","name":"Paraíba Do Sul, RJ <br> GPON"},{"uf":"RO","cidade":"Ji-Paraná","color":"green","longitude":"-61.932152","tecnologia":"GPON","latitude":"-10.877741","name":"Ji-Paraná, RO <br> GPON"},{"uf":"RS","cidade":"Camaquã","color":"green","longitude":"-51.80431","tecnologia":"GPON","latitude":"-30.848897","name":"Camaquã, RS <br> GPON"},{"uf":"RS","cidade":"Dois Irmãos","color":"green","longitude":"-51.089776","tecnologia":"GPON","latitude":"-29.58356","name":"Dois Irmãos, RS <br> GPON"},{"uf":"RS","cidade":"Marau","color":"green","longitude":"-52.198625","tecnologia":"GPON","latitude":"-28.449754","name":"Marau, RS <br> GPON"},{"uf":"RS","cidade":"Vacaria","color":"green","longitude":"-50.941791","tecnologia":"GPON","latitude":"-28.507868","name":"Vacaria, RS <br> GPON"},{"uf":"SC","cidade":"Içara","color":"green","longitude":"-49.308654","tecnologia":"GPON","latitude":"-28.713206","name":"Içara, SC <br> GPON"},{"uf":"SP","cidade":"Agudos","color":"green","longitude":"-48.98632","tecnologia":"GPON","latitude":"-22.469433","name":"Agudos, SP <br> GPON"},{"uf":"SP","cidade":"Casa Branca","color":"green","longitude":"-47.085245","tecnologia":"GPON","latitude":"-21.77081","name":"Casa Branca, SP <br> GPON"},{"uf":"SP","cidade":"Ibaté","color":"green","longitude":"-47.988211","tecnologia":"GPON","latitude":"-21.958358","name":"Ibaté, SP <br> GPON"},{"uf":"SP","cidade":"Jaguariúna","color":"green","longitude":"-46.985062","tecnologia":"GPON","latitude":"-22.70374","name":"Jaguariúna, SP <br> GPON"},{"uf":"SP","cidade":"Piedade","color":"green","longitude":"-47.425572","tecnologia":"GPON","latitude":"-23.713941","name":"Piedade, SP <br> GPON"},{"uf":"SP","cidade":"Santa Cruz das Palmeiras","color":"green","longitude":"-47.248023","tecnologia":"GPON","latitude":"-21.823475","name":"Santa Cruz das Palmeiras, SP <br> GPON"},{"uf":"SP","cidade":"Tambaú","color":"green","longitude":"-47.270344","tecnologia":"GPON","latitude":"-21.70292","name":"Tambaú, SP <br> GPON"},{"uf":"TO","cidade":"Araguaína","color":"green","longitude":"-48.204402","tecnologia":"GPON","latitude":"-7.192375","name":"Araguaína, TO <br> GPON"},{"uf":"TO","cidade":"Gurupi","color":"green","longitude":"-49.068046","tecnologia":"GPON","latitude":"-11.72794","name":"Gurupi, TO <br> GPON"},{"uf":"AP","cidade":"Santana","color":"green","longitude":"-51.172924","tecnologia":"GPON","latitude":"-0.045434","name":"Santana, AP <br> GPON"},{"uf":"BA","cidade":"Alagoinhas","color":"green","longitude":"-38.420772","tecnologia":"GPON","latitude":"-12.133526","name":"Alagoinhas, BA <br> GPON"},{"uf":"BA","cidade":"Barreiras","color":"green","longitude":"-44.996838","tecnologia":"GPON","latitude":"-12.143864","name":"Barreiras, BA <br> GPON"},{"uf":"BA","cidade":"Feira de Santana","color":"green","longitude":"-38.966293","tecnologia":"GPON","latitude":"-12.266429","name":"Feira de Santana, BA <br> GPON"},{"uf":"BA","cidade":"Itabuna","color":"green","longitude":"-39.278056","tecnologia":"GPON","latitude":"-14.787573","name":"Itabuna, BA <br> GPON"},{"uf":"BA","cidade":"Juazeiro","color":"green","longitude":"-40.503251","tecnologia":"GPON","latitude":"-9.416217","name":"Juazeiro, BA <br> GPON"},{"uf":"BA","cidade":"Porto Seguro","color":"green","longitude":"-39.064251","tecnologia":"GPON","latitude":"-16.443473","name":"Porto Seguro, BA <br> GPON"},{"uf":"BA","cidade":"Teixeira de Freitas","color":"green","longitude":"-39.739962","tecnologia":"GPON","latitude":"-17.539915","name":"Teixeira de Freitas, BA <br> GPON"},{"uf":"CE","cidade":"Aquiraz","color":"green","longitude":"-38.389563","tecnologia":"GPON","latitude":"-3.899293","name":"Aquiraz, CE <br> GPON"},{"uf":"CE","cidade":"Juazeiro do Norte","color":"green","longitude":"-39.307593","tecnologia":"GPON","latitude":"-7.196207","name":"Juazeiro do Norte, CE <br> GPON"},{"uf":"CE","cidade":"Sobral","color":"green","longitude":"-40.34821","tecnologia":"GPON","latitude":"-3.689133","name":"Sobral, CE <br> GPON"},{"uf":"ES","cidade":"Aracruz","color":"green","longitude":"-40.276441","tecnologia":"GPON","latitude":"-19.820045","name":"Aracruz, ES <br> GPON"},{"uf":"ES","cidade":"Colatina","color":"green","longitude":"-40.626898","tecnologia":"GPON","latitude":"-19.549316","name":"Colatina, ES <br> GPON"},{"uf":"GO","cidade":"Caldas Novas","color":"green","longitude":"-48.624579","tecnologia":"GPON","latitude":"-17.74406","name":"Caldas Novas, GO <br> GPON"},{"uf":"GO","cidade":"Formosa","color":"green","longitude":"-47.336999","tecnologia":"GPON","latitude":"-15.539991","name":"Formosa, GO <br> GPON"},{"uf":"GO","cidade":"Itumbiara","color":"green","longitude":"-49.215845","tecnologia":"GPON","latitude":"-18.409267","name":"Itumbiara, GO <br> GPON"},{"uf":"GO","cidade":"Rio Verde","color":"green","longitude":"-50.919195","tecnologia":"GPON","latitude":"-17.792266","name":"Rio Verde, GO <br> GPON"},{"uf":"GO","cidade":"Senador Canedo","color":"green","longitude":"-49.091398","tecnologia":"GPON","latitude":"-16.708401","name":"Senador Canedo, GO <br> GPON"},{"uf":"MA","cidade":"Caxias","color":"green","longitude":"-43.361749","tecnologia":"GPON","latitude":"-4.865053","name":"Caxias, MA <br> GPON"},{"uf":"MA","cidade":"Imperatriz","color":"green","longitude":"-47.477726","tecnologia":"GPON","latitude":"-5.518471","name":"Imperatriz, MA <br> GPON"},{"uf":"MA","cidade":"Timon","color":"green","longitude":"-42.83292","tecnologia":"GPON","latitude":"-5.097692","name":"Timon, MA <br> GPON"},{"uf":"MG","cidade":"Araguari","color":"green","longitude":"-48.193392","tecnologia":"GPON","latitude":"-18.645575","name":"Araguari, MG <br> GPON"},{"uf":"MG","cidade":"Barbacena","color":"green","longitude":"-43.770266","tecnologia":"GPON","latitude":"-21.221446","name":"Barbacena, MG <br> GPON"},{"uf":"MG","cidade":"Cataguases","color":"green","longitude":"-42.689647","tecnologia":"GPON","latitude":"-21.39239","name":"Cataguases, MG <br> GPON"},{"uf":"MG","cidade":"Conselheiro Lafaiete","color":"green","longitude":"-43.784609","tecnologia":"GPON","latitude":"-20.663445","name":"Conselheiro Lafaiete, MG <br> GPON"},{"uf":"MG","cidade":"Coronel Fabriciano","color":"green","longitude":"-42.627585","tecnologia":"GPON","latitude":"-19.517879","name":"Coronel Fabriciano, MG <br> GPON"},{"uf":"MG","cidade":"Itabira","color":"green","longitude":"-43.23123","tecnologia":"GPON","latitude":"-19.623936","name":"Itabira, MG <br> GPON"},{"uf":"MG","cidade":"Ituiutaba","color":"green","longitude":"-49.463945","tecnologia":"GPON","latitude":"-18.977191","name":"Ituiutaba, MG <br> GPON"},{"uf":"MG","cidade":"Lagoa Santa","color":"green","longitude":"-43.893216","tecnologia":"GPON","latitude":"-19.63967","name":"Lagoa Santa, MG <br> GPON"},{"uf":"MG","cidade":"Lavras","color":"green","longitude":"-45.000949","tecnologia":"GPON","latitude":"-21.248002","name":"Lavras, MG <br> GPON"},{"uf":"MG","cidade":"Montes Claros","color":"green","longitude":"-43.857809","tecnologia":"GPON","latitude":"-16.728177","name":"Montes Claros, MG <br> GPON"},{"uf":"MG","cidade":"Passos","color":"green","longitude":"-46.609008","tecnologia":"GPON","latitude":"-20.719271","name":"Passos, MG <br> GPON"},{"uf":"MG","cidade":"Patos de Minas","color":"green","longitude":"-46.501268","tecnologia":"GPON","latitude":"-18.569938","name":"Patos de Minas, MG <br> GPON"},{"uf":"MG","cidade":"Pouso Alegre","color":"green","longitude":"-45.938935","tecnologia":"GPON","latitude":"-22.22659","name":"Pouso Alegre, MG <br> GPON"},{"uf":"MG","cidade":"Santa Luzia","color":"green","longitude":"-43.849658","tecnologia":"GPON","latitude":"-19.754824","name":"Santa Luzia, MG <br> GPON"},{"uf":"MG","cidade":"Vespasiano","color":"green","longitude":"-43.9239","tecnologia":"GPON","latitude":"-19.688326","name":"Vespasiano, MG <br> GPON"},{"uf":"MT","cidade":"Lucas do Rio Verde","color":"green","longitude":"-55.904202","tecnologia":"GPON","latitude":"-13.058796","name":"Lucas do Rio Verde, MT <br> GPON"},{"uf":"MT","cidade":"Nova Mutum","color":"green","longitude":"-56.074316","tecnologia":"GPON","latitude":"-13.837389","name":"Nova Mutum, MT <br> GPON"},{"uf":"MT","cidade":"Sinop","color":"green","longitude":"-55.509062","tecnologia":"GPON","latitude":"-11.86043","name":"Sinop, MT <br> GPON"},{"uf":"MT","cidade":"Sorriso","color":"green","longitude":"-55.721051","tecnologia":"GPON","latitude":"-12.542527","name":"Sorriso, MT <br> GPON"},{"uf":"PA","cidade":"Castanhal","color":"green","longitude":"-47.916742","tecnologia":"GPON","latitude":"-1.297971","name":"Castanhal, PA <br> GPON"},{"uf":"PA","cidade":"Paragominas","color":"green","longitude":"-47.352692","tecnologia":"GPON","latitude":"-3.002116","name":"Paragominas, PA <br> GPON"},{"uf":"PA","cidade":"Parauapebas","color":"green","longitude":"-49.903733","tecnologia":"GPON","latitude":"-6.067812","name":"Parauapebas, PA <br> GPON"},{"uf":"PE","cidade":"Petrolina","color":"green","longitude":"-40.502731","tecnologia":"GPON","latitude":"-9.388662","name":"Petrolina, PE <br> GPON"},{"uf":"PR","cidade":"Apucarana","color":"green","longitude":"-51.463486","tecnologia":"GPON","latitude":"-23.549961","name":"Apucarana, PR <br> GPON"},{"uf":"RJ","cidade":"Cabo Frio","color":"green","longitude":"-42.028595","tecnologia":"GPON","latitude":"-22.88943","name":"Cabo Frio, RJ <br> GPON"},{"uf":"RJ","cidade":"Miguel Pereira","color":"green","longitude":"-43.480275","tecnologia":"GPON","latitude":"-22.457242","name":"Miguel Pereira, RJ <br> GPON"},{"uf":"RJ","cidade":"Nova Friburgo","color":"green","longitude":"-42.537692","tecnologia":"GPON","latitude":"-22.293224","name":"Nova Friburgo, RJ <br> GPON"},{"uf":"RJ","cidade":"Vassouras","color":"green","longitude":"-43.668555","tecnologia":"GPON","latitude":"-22.405889","name":"Vassouras, RJ <br> GPON"},{"uf":"RO","cidade":"Ariquemes","color":"green","longitude":"-63.032516","tecnologia":"GPON","latitude":"-9.905711","name":"Ariquemes, RO <br> GPON"},{"uf":"RO","cidade":"Cacoal","color":"green","longitude":"-61.456167","tecnologia":"GPON","latitude":"-11.434271","name":"Cacoal, RO <br> GPON"},{"uf":"RO","cidade":"Vilhena","color":"green","longitude":"-60.148847","tecnologia":"GPON","latitude":"-12.750183","name":"Vilhena, RO <br> GPON"},{"uf":"RS","cidade":"Alegrete","color":"green","longitude":"-55.794862","tecnologia":"GPON","latitude":"-29.790166","name":"Alegrete, RS <br> GPON"},{"uf":"RS","cidade":"Arroio do Meio","color":"green","longitude":"-51.955735","tecnologia":"GPON","latitude":"-29.401353","name":"Arroio do Meio, RS <br> GPON"},{"uf":"RS","cidade":"Cachoeira do Sul","color":"green","longitude":"-52.892756","tecnologia":"GPON","latitude":"-30.032988","name":"Cachoeira do Sul, RS <br> GPON"},{"uf":"RS","cidade":"Canela","color":"green","longitude":"-50.811921","tecnologia":"GPON","latitude":"-29.355993","name":"Canela, RS <br> GPON"},{"uf":"RS","cidade":"Carazinho","color":"green","longitude":"-52.79326","tecnologia":"GPON","latitude":"-28.295844","name":"Carazinho, RS <br> GPON"},{"uf":"RS","cidade":"Carlos Barbosa","color":"green","longitude":"-51.502847","tecnologia":"GPON","latitude":"-29.296949","name":"Carlos Barbosa, RS <br> GPON"},{"uf":"RS","cidade":"Charqueadas","color":"green","longitude":"-51.628872","tecnologia":"GPON","latitude":"-29.962478","name":"Charqueadas, RS <br> GPON"},{"uf":"RS","cidade":"Eldorado do Sul","color":"green","longitude":"-51.618702","tecnologia":"GPON","latitude":"-30.084676","name":"Eldorado do Sul, RS <br> GPON"},{"uf":"RS","cidade":"Encantado","color":"green","longitude":"-51.870282","tecnologia":"GPON","latitude":"-29.235141","name":"Encantado, RS <br> GPON"},{"uf":"RS","cidade":"Estrela","color":"green","longitude":"-51.949508","tecnologia":"GPON","latitude":"-29.500207","name":"Estrela, RS <br> GPON"},{"uf":"RS","cidade":"Frederico Westphalen","color":"green","longitude":"-53.395824","tecnologia":"GPON","latitude":"-27.358644","name":"Frederico Westphalen, RS <br> GPON"},{"uf":"RS","cidade":"Garibaldi","color":"green","longitude":"-51.535179","tecnologia":"GPON","latitude":"-29.258979","name":"Garibaldi, RS <br> GPON"},{"uf":"RS","cidade":"Gramado","color":"green","longitude":"-50.876164","tecnologia":"GPON","latitude":"-29.373351","name":"Gramado, RS <br> GPON"},{"uf":"RS","cidade":"Igrejinha","color":"green","longitude":"-50.791894","tecnologia":"GPON","latitude":"-29.569318","name":"Igrejinha, RS <br> GPON"},{"uf":"RS","cidade":"Itaqui","color":"green","longitude":"-56.551478","tecnologia":"GPON","latitude":"-29.131051","name":"Itaqui, RS <br> GPON"},{"uf":"RS","cidade":"Ivoti","color":"green","longitude":"-51.153326","tecnologia":"GPON","latitude":"-29.599463","name":"Ivoti, RS <br> GPON"},{"uf":"RS","cidade":"Montenegro","color":"green","longitude":"-51.467903","tecnologia":"GPON","latitude":"-29.682414","name":"Montenegro, RS <br> GPON"},{"uf":"RS","cidade":"Panambi","color":"green","longitude":"-53.502261","tecnologia":"GPON","latitude":"-28.283328","name":"Panambi, RS <br> GPON"},{"uf":"RS","cidade":"Rio Pardo","color":"green","longitude":"-52.37113","tecnologia":"GPON","latitude":"-29.98803","name":"Rio Pardo, RS <br> GPON"},{"uf":"RS","cidade":"Santa Rosa","color":"green","longitude":"-54.479629","tecnologia":"GPON","latitude":"-27.8702","name":"Santa Rosa, RS <br> GPON"},{"uf":"RS","cidade":"Santana do Livramento","color":"green","longitude":"-55.531467","tecnologia":"GPON","latitude":"-30.88772","name":"Santana do Livramento, RS <br> GPON"},{"uf":"RS","cidade":"Taquara","color":"green","longitude":"-50.775278","tecnologia":"GPON","latitude":"-29.650471","name":"Taquara, RS <br> GPON"},{"uf":"RS","cidade":"Torres","color":"green","longitude":"-49.733289","tecnologia":"GPON","latitude":"-29.333438","name":"Torres, RS <br> GPON"},{"uf":"RS","cidade":"Vera Cruz","color":"green","longitude":"-52.515176","tecnologia":"GPON","latitude":"-29.718435","name":"Vera Cruz, RS <br> GPON"},{"uf":"SC","cidade":"Fraiburgo","color":"green","longitude":"-50.919978","tecnologia":"GPON","latitude":"-27.023288","name":"Fraiburgo, SC <br> GPON"},{"uf":"SC","cidade":"Gaspar","color":"green","longitude":"-48.953428","tecnologia":"GPON","latitude":"-26.933597","name":"Gaspar, SC <br> GPON"},{"uf":"SC","cidade":"Guaramirim","color":"green","longitude":"-49.002628","tecnologia":"GPON","latitude":"-26.468753","name":"Guaramirim, SC <br> GPON"},{"uf":"SC","cidade":"Indaial","color":"green","longitude":"-49.235417","tecnologia":"GPON","latitude":"-26.899247","name":"Indaial, SC <br> GPON"},{"uf":"SC","cidade":"Lages","color":"green","longitude":"-50.325862","tecnologia":"GPON","latitude":"-27.814966","name":"Lages, SC <br> GPON"},{"uf":"SC","cidade":"Mafra","color":"green","longitude":"-49.808624","tecnologia":"GPON","latitude":"-26.115935","name":"Mafra, SC <br> GPON"},{"uf":"SC","cidade":"Rio do Sul","color":"green","longitude":"-49.643016","tecnologia":"GPON","latitude":"-27.215596","name":"Rio do Sul, SC <br> GPON"},{"uf":"SC","cidade":"Rio Negrinho","color":"green","longitude":"-49.517746","tecnologia":"GPON","latitude":"-26.259075","name":"Rio Negrinho, SC <br> GPON"},{"uf":"SC","cidade":"Videira","color":"green","longitude":"-51.154274","tecnologia":"GPON","latitude":"-27.008624","name":"Videira, SC <br> GPON"},{"uf":"SC","cidade":"Xaxim","color":"green","longitude":"-52.537446","tecnologia":"GPON","latitude":"-26.959643","name":"Xaxim, SC <br> GPON"},{"uf":"SP","cidade":"Adamantina","color":"green","longitude":"-51.073695","tecnologia":"GPON","latitude":"-21.682012","name":"Adamantina, SP <br> GPON"},{"uf":"SP","cidade":"Amparo","color":"green","longitude":"-46.772022","tecnologia":"GPON","latitude":"-22.70879","name":"Amparo, SP <br> GPON"},{"uf":"SP","cidade":"Andradina","color":"green","longitude":"-51.378568","tecnologia":"GPON","latitude":"-20.894761","name":"Andradina, SP <br> GPON"},{"uf":"SP","cidade":"Bady Bassitt","color":"green","longitude":"-49.4385","tecnologia":"GPON","latitude":"-20.919689","name":"Bady Bassitt, SP <br> GPON"},{"uf":"SP","cidade":"Barretos","color":"green","longitude":"-48.569832","tecnologia":"GPON","latitude":"-20.553146","name":"Barretos, SP <br> GPON"},{"uf":"SP","cidade":"Barrinha","color":"green","longitude":"-48.163614","tecnologia":"GPON","latitude":"-21.186374","name":"Barrinha, SP <br> GPON"},{"uf":"SP","cidade":"Batatais","color":"green","longitude":"-47.592149","tecnologia":"GPON","latitude":"-20.892867","name":"Batatais, SP <br> GPON"},{"uf":"SP","cidade":"Bebedouro","color":"green","longitude":"-48.479083","tecnologia":"GPON","latitude":"-20.949077","name":"Bebedouro, SP <br> GPON"},{"uf":"SP","cidade":"Birigui","color":"green","longitude":"-50.343162","tecnologia":"GPON","latitude":"-21.291034","name":"Birigui, SP <br> GPON"},{"uf":"SP","cidade":"Boituva","color":"green","longitude":"-47.678574","tecnologia":"GPON","latitude":"-23.285531","name":"Boituva, SP <br> GPON"},{"uf":"SP","cidade":"Caieiras","color":"green","longitude":"-46.73974","tecnologia":"GPON","latitude":"-23.360729","name":"Caieiras, SP <br> GPON"},{"uf":"SP","cidade":"Cajamar","color":"green","longitude":"-46.878146","tecnologia":"GPON","latitude":"-23.355014","name":"Cajamar, SP <br> GPON"},{"uf":"SP","cidade":"Campo Limpo Paulista","color":"green","longitude":"-46.788919","tecnologia":"GPON","latitude":"-23.207791","name":"Campo Limpo Paulista, SP <br> GPON"},{"uf":"SP","cidade":"Caraguatatuba","color":"green","longitude":"-45.412533","tecnologia":"GPON","latitude":"-23.612535","name":"Caraguatatuba, SP <br> GPON"},{"uf":"SP","cidade":"Catanduva","color":"green","longitude":"-48.977015","tecnologia":"GPON","latitude":"-21.131381","name":"Catanduva, SP <br> GPON"},{"uf":"SP","cidade":"Cerquilho","color":"green","longitude":"-47.745862","tecnologia":"GPON","latitude":"-23.166487","name":"Cerquilho, SP <br> GPON"},{"uf":"SP","cidade":"Cravinhos","color":"green","longitude":"-47.732427","tecnologia":"GPON","latitude":"-21.337959","name":"Cravinhos, SP <br> GPON"},{"uf":"SP","cidade":"Descalvado","color":"green","longitude":"-47.618105","tecnologia":"GPON","latitude":"-21.900211","name":"Descalvado, SP <br> GPON"},{"uf":"SP","cidade":"Dracena","color":"green","longitude":"-51.535034","tecnologia":"GPON","latitude":"-21.484311","name":"Dracena, SP <br> GPON"},{"uf":"SP","cidade":"Guararapes","color":"green","longitude":"-50.645338","tecnologia":"GPON","latitude":"-21.254431","name":"Guararapes, SP <br> GPON"},{"uf":"SP","cidade":"Itapeva","color":"green","longitude":"-48.876433","tecnologia":"GPON","latitude":"-23.978823","name":"Itapeva, SP <br> GPON"},{"uf":"SP","cidade":"Itapira","color":"green","longitude":"-46.822434","tecnologia":"GPON","latitude":"-22.435731","name":"Itapira, SP <br> GPON"},{"uf":"SP","cidade":"Itaquaquecetuba","color":"green","longitude":"-46.345724","tecnologia":"GPON","latitude":"-23.483481","name":"Itaquaquecetuba, SP <br> GPON"},{"uf":"SP","cidade":"Itatiba","color":"green","longitude":"-46.846353","tecnologia":"GPON","latitude":"-23.003497","name":"Itatiba, SP <br> GPON"},{"uf":"SP","cidade":"Itupeva","color":"green","longitude":"-47.059262","tecnologia":"GPON","latitude":"-23.152635","name":"Itupeva, SP <br> GPON"},{"uf":"SP","cidade":"Ituverava","color":"green","longitude":"-47.790207","tecnologia":"GPON","latitude":"-20.335465","name":"Ituverava, SP <br> GPON"},{"uf":"SP","cidade":"Jaboticabal","color":"green","longitude":"-48.325223","tecnologia":"GPON","latitude":"-21.252037","name":"Jaboticabal, SP <br> GPON"},{"uf":"SP","cidade":"Jales","color":"green","longitude":"-50.549442","tecnologia":"GPON","latitude":"-20.267227","name":"Jales, SP <br> GPON"},{"uf":"SP","cidade":"Jarinu","color":"green","longitude":"-46.728015","tecnologia":"GPON","latitude":"-23.103855","name":"Jarinu, SP <br> GPON"},{"uf":"SP","cidade":"Laranjal Paulista","color":"green","longitude":"-47.837549","tecnologia":"GPON","latitude":"-23.050564","name":"Laranjal Paulista, SP <br> GPON"},{"uf":"SP","cidade":"Leme","color":"green","longitude":"-47.384109","tecnologia":"GPON","latitude":"-22.180857","name":"Leme, SP <br> GPON"},{"uf":"SP","cidade":"Lins","color":"green","longitude":"-49.752555","tecnologia":"GPON","latitude":"-21.67182","name":"Lins, SP <br> GPON"},{"uf":"SP","cidade":"Louveira","color":"green","longitude":"-46.948369","tecnologia":"GPON","latitude":"-23.085572","name":"Louveira, SP <br> GPON"},{"uf":"SP","cidade":"Mairinque","color":"green","longitude":"-47.184995","tecnologia":"GPON","latitude":"-23.539822","name":"Mairinque, SP <br> GPON"},{"uf":"SP","cidade":"Mirassol","color":"green","longitude":"-49.52061","tecnologia":"GPON","latitude":"-20.816874","name":"Mirassol, SP <br> GPON"},{"uf":"SP","cidade":"Mococa","color":"green","longitude":"-47.002405","tecnologia":"GPON","latitude":"-21.464731","name":"Mococa, SP <br> GPON"},{"uf":"SP","cidade":"Monte Alto","color":"green","longitude":"-48.497066","tecnologia":"GPON","latitude":"-21.265545","name":"Monte Alto, SP <br> GPON"},{"uf":"SP","cidade":"Morungaba","color":"green","longitude":"-46.789601","tecnologia":"GPON","latitude":"-22.881071","name":"Morungaba, SP <br> GPON"},{"uf":"SP","cidade":"Ourinhos","color":"green","longitude":"-49.869702","tecnologia":"GPON","latitude":"-22.979695","name":"Ourinhos, SP <br> GPON"},{"uf":"SP","cidade":"Pedreira","color":"green","longitude":"-46.894846","tecnologia":"GPON","latitude":"-22.741347","name":"Pedreira, SP <br> GPON"},{"uf":"SP","cidade":"Piracaia","color":"green","longitude":"-46.359374","tecnologia":"GPON","latitude":"-23.052545","name":"Piracaia, SP <br> GPON"},{"uf":"SP","cidade":"Pirassununga","color":"green","longitude":"-47.425746","tecnologia":"GPON","latitude":"-21.995982","name":"Pirassununga, SP <br> GPON"},{"uf":"SP","cidade":"Pontal","color":"green","longitude":"-48.042261","tecnologia":"GPON","latitude":"-21.021565","name":"Pontal, SP <br> GPON"},{"uf":"SP","cidade":"Porto Ferreira","color":"green","longitude":"-47.487034","tecnologia":"GPON","latitude":"-21.849814","name":"Porto Ferreira, SP <br> GPON"},{"uf":"SP","cidade":"Potirendaba","color":"green","longitude":"-49.381509","tecnologia":"GPON","latitude":"-21.042789","name":"Potirendaba, SP <br> GPON"},{"uf":"SP","cidade":"Presidente Bernardes","color":"green","longitude":"-51.556507","tecnologia":"GPON","latitude":"-22.008198","name":"Presidente Bernardes, SP <br> GPON"},{"uf":"SP","cidade":"Registro","color":"green","longitude":"-47.844895","tecnologia":"GPON","latitude":"-24.497942","name":"Registro, SP <br> GPON"},{"uf":"SP","cidade":"Santa Cruz do Rio Pardo","color":"green","longitude":"-49.635444","tecnologia":"GPON","latitude":"-22.89875","name":"Santa Cruz do Rio Pardo, SP <br> GPON"},{"uf":"SP","cidade":"Santa Gertrudes","color":"green","longitude":"-47.52716","tecnologia":"GPON","latitude":"-22.457229","name":"Santa Gertrudes, SP <br> GPON"},{"uf":"SP","cidade":"Santa Isabel","color":"green","longitude":"-46.223668","tecnologia":"GPON","latitude":"-23.317194","name":"Santa Isabel, SP <br> GPON"},{"uf":"SP","cidade":"Santa Rosa de Viterbo","color":"green","longitude":"-47.362213","tecnologia":"GPON","latitude":"-21.477568","name":"Santa Rosa de Viterbo, SP <br> GPON"},{"uf":"SP","cidade":"Serra Negra","color":"green","longitude":"-46.703271","tecnologia":"GPON","latitude":"-22.613941","name":"Serra Negra, SP <br> GPON"},{"uf":"SP","cidade":"Serrana","color":"green","longitude":"-47.595239","tecnologia":"GPON","latitude":"-21.204336","name":"Serrana, SP <br> GPON"},{"uf":"SP","cidade":"Ubatuba","color":"green","longitude":"-45.083415","tecnologia":"GPON","latitude":"-23.433162","name":"Ubatuba, SP <br> GPON"},{"uf":"SP","cidade":"Votuporanga","color":"green","longitude":"-49.978112","tecnologia":"GPON","latitude":"-20.423659","name":"Votuporanga, SP <br> GPON"}]
