[{"latitude":"-19.812646","uf":"MG","tecnologia":"HFC REDE NEUTRA","name":"João Monlevade, MG <br> HFC REDE NEUTRA","longitude":"-43.173463","cidade":"João Monlevade","color":"violet"},{"latitude":"-26.483868","uf":"PR","tecnologia":"HFC REDE NEUTRA","name":"Palmas, PR <br> HFC REDE NEUTRA","longitude":"-51.988812","cidade":"Palmas","color":"violet"},{"latitude":"-25.442171","uf":"PR","tecnologia":"HFC REDE NEUTRA","name":"Piraquara, PR <br> HFC REDE NEUTRA","longitude":"-49.062411","cidade":"Piraquara","color":"violet"},{"latitude":"-21.425629","uf":"MG","tecnologia":"HFC REDE NEUTRA","name":"Alfenas, MG <br> HFC REDE NEUTRA","longitude":"-45.947727","cidade":"Alfenas","color":"violet"},{"latitude":"-20.286333","uf":"MG","tecnologia":"HFC REDE NEUTRA","name":"Arcos, MG <br> HFC REDE NEUTRA","longitude":"-45.537345","cidade":"Arcos","color":"violet"},{"latitude":"-20.461819","uf":"MG","tecnologia":"HFC REDE NEUTRA","name":"Formiga, MG <br> HFC REDE NEUTRA","longitude":"-45.426793","cidade":"Formiga","color":"violet"},{"latitude":"-20.023728","uf":"MG","tecnologia":"HFC REDE NEUTRA","name":"Lagoa da Prata, MG <br> HFC REDE NEUTRA","longitude":"-45.540149","cidade":"Lagoa da Prata","color":"violet"},{"latitude":"-19.554318","uf":"MG","tecnologia":"HFC REDE NEUTRA","name":"Matozinhos, MG <br> HFC REDE NEUTRA","longitude":"-44.086786","cidade":"Matozinhos","color":"violet"},{"latitude":"-19.871299","uf":"MG","tecnologia":"HFC REDE NEUTRA","name":"Nova Serrana, MG <br> HFC REDE NEUTRA","longitude":"-44.984661","cidade":"Nova Serrana","color":"violet"},{"latitude":"-19.630811","uf":"MG","tecnologia":"HFC REDE NEUTRA","name":"Pedro Leopoldo, MG <br> HFC REDE NEUTRA","longitude":"-44.038258","cidade":"Pedro Leopoldo","color":"violet"},{"latitude":"-20.47623","uf":"MG","tecnologia":"HFC REDE NEUTRA","name":"Piumhi, MG <br> HFC REDE NEUTRA","longitude":"-45.95891","cidade":"Piumhi","color":"violet"},{"latitude":"-21.124148","uf":"MG","tecnologia":"HFC REDE NEUTRA","name":"Santa Cruz de Minas, MG <br> HFC REDE NEUTRA","longitude":"-44.220251","cidade":"Santa Cruz de Minas","color":"violet"},{"latitude":"-25.542748","uf":"PR","tecnologia":"HFC REDE NEUTRA","name":"Foz do Iguaçu, PR <br> HFC REDE NEUTRA","longitude":"-54.582689","cidade":"Foz do Iguaçu","color":"violet"},{"latitude":"-25.881672","uf":"PR","tecnologia":"HFC REDE NEUTRA","name":"Guaratuba, PR <br> HFC REDE NEUTRA","longitude":"-48.575223","cidade":"Guaratuba","color":"violet"},{"latitude":"-23.265941","uf":"PR","tecnologia":"HFC REDE NEUTRA","name":"Ibiporã, PR <br> HFC REDE NEUTRA","longitude":"-51.052243","cidade":"Ibiporã","color":"violet"},{"latitude":"-24.557891","uf":"PR","tecnologia":"HFC REDE NEUTRA","name":"Marechal Cândido Rondon, PR <br> HFC REDE NEUTRA","longitude":"-54.056115","cidade":"Marechal Cândido Rondon","color":"violet"},{"latitude":"-25.297665","uf":"PR","tecnologia":"HFC REDE NEUTRA","name":"Medianeira, PR <br> HFC REDE NEUTRA","longitude":"-54.094308","cidade":"Medianeira","color":"violet"},{"latitude":"-23.455534","uf":"PR","tecnologia":"HFC REDE NEUTRA","name":"Paiçandu, PR <br> HFC REDE NEUTRA","longitude":"-52.046013","cidade":"Paiçandu","color":"violet"},{"latitude":"-25.367317","uf":"PR","tecnologia":"HFC REDE NEUTRA","name":"Quatro Barras, PR <br> HFC REDE NEUTRA","longitude":"-49.076306","cidade":"Quatro Barras","color":"violet"},{"latitude":"-24.32452","uf":"PR","tecnologia":"HFC REDE NEUTRA","name":"Telêmaco Borba, PR <br> HFC REDE NEUTRA","longitude":"-50.617585","cidade":"Telêmaco Borba","color":"violet"},{"latitude":"-26.227319","uf":"PR","tecnologia":"HFC REDE NEUTRA","name":"União da Vitória, PR <br> HFC REDE NEUTRA","longitude":"-51.087313","cidade":"União da Vitória","color":"violet"}]
