[{"latitude":"-9.754866","color":"green","cidade":"Arapiraca","name":"Arapiraca, AL <br> GPON","uf":"AL","longitude":"-36.661471","tecnologia":"GPON"},{"latitude":"-16.651708","color":"green","cidade":"Trindade","name":"Trindade, GO <br> GPON","uf":"GO","longitude":"-49.492667","tecnologia":"GPON"},{"latitude":"-19.590176","color":"green","cidade":"Araxá","name":"Araxá, MG <br> GPON","uf":"MG","longitude":"-46.943804","tecnologia":"GPON"},{"latitude":"-22.422481","color":"green","cidade":"Itajubá","name":"Itajubá, MG <br> GPON","uf":"MG","longitude":"-45.459818","tecnologia":"GPON"},{"latitude":"-22.158462","color":"green","cidade":"Paraíba Do Sul","name":"Paraíba Do Sul, RJ <br> GPON","uf":"RJ","longitude":"-43.304004","tecnologia":"GPON"},{"latitude":"-10.877741","color":"green","cidade":"Ji-Paraná","name":"Ji-Paraná, RO <br> GPON","uf":"RO","longitude":"-61.932152","tecnologia":"GPON"},{"latitude":"-30.848897","color":"green","cidade":"Camaquã","name":"Camaquã, RS <br> GPON","uf":"RS","longitude":"-51.80431","tecnologia":"GPON"},{"latitude":"-29.58356","color":"green","cidade":"Dois Irmãos","name":"Dois Irmãos, RS <br> GPON","uf":"RS","longitude":"-51.089776","tecnologia":"GPON"},{"latitude":"-28.449754","color":"green","cidade":"Marau","name":"Marau, RS <br> GPON","uf":"RS","longitude":"-52.198625","tecnologia":"GPON"},{"latitude":"-28.507868","color":"green","cidade":"Vacaria","name":"Vacaria, RS <br> GPON","uf":"RS","longitude":"-50.941791","tecnologia":"GPON"},{"latitude":"-28.713206","color":"green","cidade":"Içara","name":"Içara, SC <br> GPON","uf":"SC","longitude":"-49.308654","tecnologia":"GPON"},{"latitude":"-22.469433","color":"green","cidade":"Agudos","name":"Agudos, SP <br> GPON","uf":"SP","longitude":"-48.98632","tecnologia":"GPON"},{"latitude":"-21.77081","color":"green","cidade":"Casa Branca","name":"Casa Branca, SP <br> GPON","uf":"SP","longitude":"-47.085245","tecnologia":"GPON"},{"latitude":"-21.958358","color":"green","cidade":"Ibaté","name":"Ibaté, SP <br> GPON","uf":"SP","longitude":"-47.988211","tecnologia":"GPON"},{"latitude":"-22.70374","color":"green","cidade":"Jaguariúna","name":"Jaguariúna, SP <br> GPON","uf":"SP","longitude":"-46.985062","tecnologia":"GPON"},{"latitude":"-23.713941","color":"green","cidade":"Piedade","name":"Piedade, SP <br> GPON","uf":"SP","longitude":"-47.425572","tecnologia":"GPON"},{"latitude":"-21.823475","color":"green","cidade":"Santa Cruz das Palmeiras","name":"Santa Cruz das Palmeiras, SP <br> GPON","uf":"SP","longitude":"-47.248023","tecnologia":"GPON"},{"latitude":"-21.70292","color":"green","cidade":"Tambaú","name":"Tambaú, SP <br> GPON","uf":"SP","longitude":"-47.270344","tecnologia":"GPON"},{"latitude":"-7.192375","color":"green","cidade":"Araguaína","name":"Araguaína, TO <br> GPON","uf":"TO","longitude":"-48.204402","tecnologia":"GPON"},{"latitude":"-11.72794","color":"green","cidade":"Gurupi","name":"Gurupi, TO <br> GPON","uf":"TO","longitude":"-49.068046","tecnologia":"GPON"},{"latitude":"-0.045434","color":"green","cidade":"Santana","name":"Santana, AP <br> GPON","uf":"AP","longitude":"-51.172924","tecnologia":"GPON"},{"latitude":"-12.133526","color":"green","cidade":"Alagoinhas","name":"Alagoinhas, BA <br> GPON","uf":"BA","longitude":"-38.420772","tecnologia":"GPON"},{"latitude":"-12.143864","color":"green","cidade":"Barreiras","name":"Barreiras, BA <br> GPON","uf":"BA","longitude":"-44.996838","tecnologia":"GPON"},{"latitude":"-12.266429","color":"green","cidade":"Feira de Santana","name":"Feira de Santana, BA <br> GPON","uf":"BA","longitude":"-38.966293","tecnologia":"GPON"},{"latitude":"-14.787573","color":"green","cidade":"Itabuna","name":"Itabuna, BA <br> GPON","uf":"BA","longitude":"-39.278056","tecnologia":"GPON"},{"latitude":"-9.416217","color":"green","cidade":"Juazeiro","name":"Juazeiro, BA <br> GPON","uf":"BA","longitude":"-40.503251","tecnologia":"GPON"},{"latitude":"-16.443473","color":"green","cidade":"Porto Seguro","name":"Porto Seguro, BA <br> GPON","uf":"BA","longitude":"-39.064251","tecnologia":"GPON"},{"latitude":"-17.539915","color":"green","cidade":"Teixeira de Freitas","name":"Teixeira de Freitas, BA <br> GPON","uf":"BA","longitude":"-39.739962","tecnologia":"GPON"},{"latitude":"-3.899293","color":"green","cidade":"Aquiraz","name":"Aquiraz, CE <br> GPON","uf":"CE","longitude":"-38.389563","tecnologia":"GPON"},{"latitude":"-7.196207","color":"green","cidade":"Juazeiro do Norte","name":"Juazeiro do Norte, CE <br> GPON","uf":"CE","longitude":"-39.307593","tecnologia":"GPON"},{"latitude":"-3.689133","color":"green","cidade":"Sobral","name":"Sobral, CE <br> GPON","uf":"CE","longitude":"-40.34821","tecnologia":"GPON"},{"latitude":"-19.820045","color":"green","cidade":"Aracruz","name":"Aracruz, ES <br> GPON","uf":"ES","longitude":"-40.276441","tecnologia":"GPON"},{"latitude":"-19.549316","color":"green","cidade":"Colatina","name":"Colatina, ES <br> GPON","uf":"ES","longitude":"-40.626898","tecnologia":"GPON"},{"latitude":"-17.74406","color":"green","cidade":"Caldas Novas","name":"Caldas Novas, GO <br> GPON","uf":"GO","longitude":"-48.624579","tecnologia":"GPON"},{"latitude":"-15.539991","color":"green","cidade":"Formosa","name":"Formosa, GO <br> GPON","uf":"GO","longitude":"-47.336999","tecnologia":"GPON"},{"latitude":"-18.409267","color":"green","cidade":"Itumbiara","name":"Itumbiara, GO <br> GPON","uf":"GO","longitude":"-49.215845","tecnologia":"GPON"},{"latitude":"-17.792266","color":"green","cidade":"Rio Verde","name":"Rio Verde, GO <br> GPON","uf":"GO","longitude":"-50.919195","tecnologia":"GPON"},{"latitude":"-16.708401","color":"green","cidade":"Senador Canedo","name":"Senador Canedo, GO <br> GPON","uf":"GO","longitude":"-49.091398","tecnologia":"GPON"},{"latitude":"-4.865053","color":"green","cidade":"Caxias","name":"Caxias, MA <br> GPON","uf":"MA","longitude":"-43.361749","tecnologia":"GPON"},{"latitude":"-5.518471","color":"green","cidade":"Imperatriz","name":"Imperatriz, MA <br> GPON","uf":"MA","longitude":"-47.477726","tecnologia":"GPON"},{"latitude":"-5.097692","color":"green","cidade":"Timon","name":"Timon, MA <br> GPON","uf":"MA","longitude":"-42.83292","tecnologia":"GPON"},{"latitude":"-18.645575","color":"green","cidade":"Araguari","name":"Araguari, MG <br> GPON","uf":"MG","longitude":"-48.193392","tecnologia":"GPON"},{"latitude":"-21.221446","color":"green","cidade":"Barbacena","name":"Barbacena, MG <br> GPON","uf":"MG","longitude":"-43.770266","tecnologia":"GPON"},{"latitude":"-21.39239","color":"green","cidade":"Cataguases","name":"Cataguases, MG <br> GPON","uf":"MG","longitude":"-42.689647","tecnologia":"GPON"},{"latitude":"-20.663445","color":"green","cidade":"Conselheiro Lafaiete","name":"Conselheiro Lafaiete, MG <br> GPON","uf":"MG","longitude":"-43.784609","tecnologia":"GPON"},{"latitude":"-19.517879","color":"green","cidade":"Coronel Fabriciano","name":"Coronel Fabriciano, MG <br> GPON","uf":"MG","longitude":"-42.627585","tecnologia":"GPON"},{"latitude":"-19.623936","color":"green","cidade":"Itabira","name":"Itabira, MG <br> GPON","uf":"MG","longitude":"-43.23123","tecnologia":"GPON"},{"latitude":"-18.977191","color":"green","cidade":"Ituiutaba","name":"Ituiutaba, MG <br> GPON","uf":"MG","longitude":"-49.463945","tecnologia":"GPON"},{"latitude":"-19.63967","color":"green","cidade":"Lagoa Santa","name":"Lagoa Santa, MG <br> GPON","uf":"MG","longitude":"-43.893216","tecnologia":"GPON"},{"latitude":"-21.248002","color":"green","cidade":"Lavras","name":"Lavras, MG <br> GPON","uf":"MG","longitude":"-45.000949","tecnologia":"GPON"},{"latitude":"-16.728177","color":"green","cidade":"Montes Claros","name":"Montes Claros, MG <br> GPON","uf":"MG","longitude":"-43.857809","tecnologia":"GPON"},{"latitude":"-20.719271","color":"green","cidade":"Passos","name":"Passos, MG <br> GPON","uf":"MG","longitude":"-46.609008","tecnologia":"GPON"},{"latitude":"-18.569938","color":"green","cidade":"Patos de Minas","name":"Patos de Minas, MG <br> GPON","uf":"MG","longitude":"-46.501268","tecnologia":"GPON"},{"latitude":"-22.22659","color":"green","cidade":"Pouso Alegre","name":"Pouso Alegre, MG <br> GPON","uf":"MG","longitude":"-45.938935","tecnologia":"GPON"},{"latitude":"-19.754824","color":"green","cidade":"Santa Luzia","name":"Santa Luzia, MG <br> GPON","uf":"MG","longitude":"-43.849658","tecnologia":"GPON"},{"latitude":"-19.688326","color":"green","cidade":"Vespasiano","name":"Vespasiano, MG <br> GPON","uf":"MG","longitude":"-43.9239","tecnologia":"GPON"},{"latitude":"-13.058796","color":"green","cidade":"Lucas do Rio Verde","name":"Lucas do Rio Verde, MT <br> GPON","uf":"MT","longitude":"-55.904202","tecnologia":"GPON"},{"latitude":"-13.837389","color":"green","cidade":"Nova Mutum","name":"Nova Mutum, MT <br> GPON","uf":"MT","longitude":"-56.074316","tecnologia":"GPON"},{"latitude":"-11.86043","color":"green","cidade":"Sinop","name":"Sinop, MT <br> GPON","uf":"MT","longitude":"-55.509062","tecnologia":"GPON"},{"latitude":"-12.542527","color":"green","cidade":"Sorriso","name":"Sorriso, MT <br> GPON","uf":"MT","longitude":"-55.721051","tecnologia":"GPON"},{"latitude":"-1.297971","color":"green","cidade":"Castanhal","name":"Castanhal, PA <br> GPON","uf":"PA","longitude":"-47.916742","tecnologia":"GPON"},{"latitude":"-3.002116","color":"green","cidade":"Paragominas","name":"Paragominas, PA <br> GPON","uf":"PA","longitude":"-47.352692","tecnologia":"GPON"},{"latitude":"-6.067812","color":"green","cidade":"Parauapebas","name":"Parauapebas, PA <br> GPON","uf":"PA","longitude":"-49.903733","tecnologia":"GPON"},{"latitude":"-9.388662","color":"green","cidade":"Petrolina","name":"Petrolina, PE <br> GPON","uf":"PE","longitude":"-40.502731","tecnologia":"GPON"},{"latitude":"-23.549961","color":"green","cidade":"Apucarana","name":"Apucarana, PR <br> GPON","uf":"PR","longitude":"-51.463486","tecnologia":"GPON"},{"latitude":"-22.88943","color":"green","cidade":"Cabo Frio","name":"Cabo Frio, RJ <br> GPON","uf":"RJ","longitude":"-42.028595","tecnologia":"GPON"},{"latitude":"-22.457242","color":"green","cidade":"Miguel Pereira","name":"Miguel Pereira, RJ <br> GPON","uf":"RJ","longitude":"-43.480275","tecnologia":"GPON"},{"latitude":"-22.293224","color":"green","cidade":"Nova Friburgo","name":"Nova Friburgo, RJ <br> GPON","uf":"RJ","longitude":"-42.537692","tecnologia":"GPON"},{"latitude":"-22.405889","color":"green","cidade":"Vassouras","name":"Vassouras, RJ <br> GPON","uf":"RJ","longitude":"-43.668555","tecnologia":"GPON"},{"latitude":"-9.905711","color":"green","cidade":"Ariquemes","name":"Ariquemes, RO <br> GPON","uf":"RO","longitude":"-63.032516","tecnologia":"GPON"},{"latitude":"-11.434271","color":"green","cidade":"Cacoal","name":"Cacoal, RO <br> GPON","uf":"RO","longitude":"-61.456167","tecnologia":"GPON"},{"latitude":"-12.750183","color":"green","cidade":"Vilhena","name":"Vilhena, RO <br> GPON","uf":"RO","longitude":"-60.148847","tecnologia":"GPON"},{"latitude":"-29.790166","color":"green","cidade":"Alegrete","name":"Alegrete, RS <br> GPON","uf":"RS","longitude":"-55.794862","tecnologia":"GPON"},{"latitude":"-29.401353","color":"green","cidade":"Arroio do Meio","name":"Arroio do Meio, RS <br> GPON","uf":"RS","longitude":"-51.955735","tecnologia":"GPON"},{"latitude":"-30.032988","color":"green","cidade":"Cachoeira do Sul","name":"Cachoeira do Sul, RS <br> GPON","uf":"RS","longitude":"-52.892756","tecnologia":"GPON"},{"latitude":"-29.355993","color":"green","cidade":"Canela","name":"Canela, RS <br> GPON","uf":"RS","longitude":"-50.811921","tecnologia":"GPON"},{"latitude":"-28.295844","color":"green","cidade":"Carazinho","name":"Carazinho, RS <br> GPON","uf":"RS","longitude":"-52.79326","tecnologia":"GPON"},{"latitude":"-29.296949","color":"green","cidade":"Carlos Barbosa","name":"Carlos Barbosa, RS <br> GPON","uf":"RS","longitude":"-51.502847","tecnologia":"GPON"},{"latitude":"-29.962478","color":"green","cidade":"Charqueadas","name":"Charqueadas, RS <br> GPON","uf":"RS","longitude":"-51.628872","tecnologia":"GPON"},{"latitude":"-30.084676","color":"green","cidade":"Eldorado do Sul","name":"Eldorado do Sul, RS <br> GPON","uf":"RS","longitude":"-51.618702","tecnologia":"GPON"},{"latitude":"-29.235141","color":"green","cidade":"Encantado","name":"Encantado, RS <br> GPON","uf":"RS","longitude":"-51.870282","tecnologia":"GPON"},{"latitude":"-29.500207","color":"green","cidade":"Estrela","name":"Estrela, RS <br> GPON","uf":"RS","longitude":"-51.949508","tecnologia":"GPON"},{"latitude":"-27.358644","color":"green","cidade":"Frederico Westphalen","name":"Frederico Westphalen, RS <br> GPON","uf":"RS","longitude":"-53.395824","tecnologia":"GPON"},{"latitude":"-29.258979","color":"green","cidade":"Garibaldi","name":"Garibaldi, RS <br> GPON","uf":"RS","longitude":"-51.535179","tecnologia":"GPON"},{"latitude":"-29.373351","color":"green","cidade":"Gramado","name":"Gramado, RS <br> GPON","uf":"RS","longitude":"-50.876164","tecnologia":"GPON"},{"latitude":"-29.569318","color":"green","cidade":"Igrejinha","name":"Igrejinha, RS <br> GPON","uf":"RS","longitude":"-50.791894","tecnologia":"GPON"},{"latitude":"-29.131051","color":"green","cidade":"Itaqui","name":"Itaqui, RS <br> GPON","uf":"RS","longitude":"-56.551478","tecnologia":"GPON"},{"latitude":"-29.599463","color":"green","cidade":"Ivoti","name":"Ivoti, RS <br> GPON","uf":"RS","longitude":"-51.153326","tecnologia":"GPON"},{"latitude":"-29.682414","color":"green","cidade":"Montenegro","name":"Montenegro, RS <br> GPON","uf":"RS","longitude":"-51.467903","tecnologia":"GPON"},{"latitude":"-28.283328","color":"green","cidade":"Panambi","name":"Panambi, RS <br> GPON","uf":"RS","longitude":"-53.502261","tecnologia":"GPON"},{"latitude":"-29.98803","color":"green","cidade":"Rio Pardo","name":"Rio Pardo, RS <br> GPON","uf":"RS","longitude":"-52.37113","tecnologia":"GPON"},{"latitude":"-27.8702","color":"green","cidade":"Santa Rosa","name":"Santa Rosa, RS <br> GPON","uf":"RS","longitude":"-54.479629","tecnologia":"GPON"},{"latitude":"-30.88772","color":"green","cidade":"Santana do Livramento","name":"Santana do Livramento, RS <br> GPON","uf":"RS","longitude":"-55.531467","tecnologia":"GPON"},{"latitude":"-29.650471","color":"green","cidade":"Taquara","name":"Taquara, RS <br> GPON","uf":"RS","longitude":"-50.775278","tecnologia":"GPON"},{"latitude":"-29.333438","color":"green","cidade":"Torres","name":"Torres, RS <br> GPON","uf":"RS","longitude":"-49.733289","tecnologia":"GPON"},{"latitude":"-29.718435","color":"green","cidade":"Vera Cruz","name":"Vera Cruz, RS <br> GPON","uf":"RS","longitude":"-52.515176","tecnologia":"GPON"},{"latitude":"-27.023288","color":"green","cidade":"Fraiburgo","name":"Fraiburgo, SC <br> GPON","uf":"SC","longitude":"-50.919978","tecnologia":"GPON"},{"latitude":"-26.933597","color":"green","cidade":"Gaspar","name":"Gaspar, SC <br> GPON","uf":"SC","longitude":"-48.953428","tecnologia":"GPON"},{"latitude":"-26.468753","color":"green","cidade":"Guaramirim","name":"Guaramirim, SC <br> GPON","uf":"SC","longitude":"-49.002628","tecnologia":"GPON"},{"latitude":"-26.899247","color":"green","cidade":"Indaial","name":"Indaial, SC <br> GPON","uf":"SC","longitude":"-49.235417","tecnologia":"GPON"},{"latitude":"-27.814966","color":"green","cidade":"Lages","name":"Lages, SC <br> GPON","uf":"SC","longitude":"-50.325862","tecnologia":"GPON"},{"latitude":"-26.115935","color":"green","cidade":"Mafra","name":"Mafra, SC <br> GPON","uf":"SC","longitude":"-49.808624","tecnologia":"GPON"},{"latitude":"-27.215596","color":"green","cidade":"Rio do Sul","name":"Rio do Sul, SC <br> GPON","uf":"SC","longitude":"-49.643016","tecnologia":"GPON"},{"latitude":"-26.259075","color":"green","cidade":"Rio Negrinho","name":"Rio Negrinho, SC <br> GPON","uf":"SC","longitude":"-49.517746","tecnologia":"GPON"},{"latitude":"-27.008624","color":"green","cidade":"Videira","name":"Videira, SC <br> GPON","uf":"SC","longitude":"-51.154274","tecnologia":"GPON"},{"latitude":"-26.959643","color":"green","cidade":"Xaxim","name":"Xaxim, SC <br> GPON","uf":"SC","longitude":"-52.537446","tecnologia":"GPON"},{"latitude":"-21.682012","color":"green","cidade":"Adamantina","name":"Adamantina, SP <br> GPON","uf":"SP","longitude":"-51.073695","tecnologia":"GPON"},{"latitude":"-22.70879","color":"green","cidade":"Amparo","name":"Amparo, SP <br> GPON","uf":"SP","longitude":"-46.772022","tecnologia":"GPON"},{"latitude":"-20.894761","color":"green","cidade":"Andradina","name":"Andradina, SP <br> GPON","uf":"SP","longitude":"-51.378568","tecnologia":"GPON"},{"latitude":"-20.919689","color":"green","cidade":"Bady Bassitt","name":"Bady Bassitt, SP <br> GPON","uf":"SP","longitude":"-49.4385","tecnologia":"GPON"},{"latitude":"-20.553146","color":"green","cidade":"Barretos","name":"Barretos, SP <br> GPON","uf":"SP","longitude":"-48.569832","tecnologia":"GPON"},{"latitude":"-21.186374","color":"green","cidade":"Barrinha","name":"Barrinha, SP <br> GPON","uf":"SP","longitude":"-48.163614","tecnologia":"GPON"},{"latitude":"-20.892867","color":"green","cidade":"Batatais","name":"Batatais, SP <br> GPON","uf":"SP","longitude":"-47.592149","tecnologia":"GPON"},{"latitude":"-20.949077","color":"green","cidade":"Bebedouro","name":"Bebedouro, SP <br> GPON","uf":"SP","longitude":"-48.479083","tecnologia":"GPON"},{"latitude":"-21.291034","color":"green","cidade":"Birigui","name":"Birigui, SP <br> GPON","uf":"SP","longitude":"-50.343162","tecnologia":"GPON"},{"latitude":"-23.285531","color":"green","cidade":"Boituva","name":"Boituva, SP <br> GPON","uf":"SP","longitude":"-47.678574","tecnologia":"GPON"},{"latitude":"-23.360729","color":"green","cidade":"Caieiras","name":"Caieiras, SP <br> GPON","uf":"SP","longitude":"-46.73974","tecnologia":"GPON"},{"latitude":"-23.355014","color":"green","cidade":"Cajamar","name":"Cajamar, SP <br> GPON","uf":"SP","longitude":"-46.878146","tecnologia":"GPON"},{"latitude":"-23.207791","color":"green","cidade":"Campo Limpo Paulista","name":"Campo Limpo Paulista, SP <br> GPON","uf":"SP","longitude":"-46.788919","tecnologia":"GPON"},{"latitude":"-23.612535","color":"green","cidade":"Caraguatatuba","name":"Caraguatatuba, SP <br> GPON","uf":"SP","longitude":"-45.412533","tecnologia":"GPON"},{"latitude":"-21.131381","color":"green","cidade":"Catanduva","name":"Catanduva, SP <br> GPON","uf":"SP","longitude":"-48.977015","tecnologia":"GPON"},{"latitude":"-23.166487","color":"green","cidade":"Cerquilho","name":"Cerquilho, SP <br> GPON","uf":"SP","longitude":"-47.745862","tecnologia":"GPON"},{"latitude":"-21.337959","color":"green","cidade":"Cravinhos","name":"Cravinhos, SP <br> GPON","uf":"SP","longitude":"-47.732427","tecnologia":"GPON"},{"latitude":"-21.900211","color":"green","cidade":"Descalvado","name":"Descalvado, SP <br> GPON","uf":"SP","longitude":"-47.618105","tecnologia":"GPON"},{"latitude":"-21.484311","color":"green","cidade":"Dracena","name":"Dracena, SP <br> GPON","uf":"SP","longitude":"-51.535034","tecnologia":"GPON"},{"latitude":"-21.254431","color":"green","cidade":"Guararapes","name":"Guararapes, SP <br> GPON","uf":"SP","longitude":"-50.645338","tecnologia":"GPON"},{"latitude":"-23.978823","color":"green","cidade":"Itapeva","name":"Itapeva, SP <br> GPON","uf":"SP","longitude":"-48.876433","tecnologia":"GPON"},{"latitude":"-22.435731","color":"green","cidade":"Itapira","name":"Itapira, SP <br> GPON","uf":"SP","longitude":"-46.822434","tecnologia":"GPON"},{"latitude":"-23.483481","color":"green","cidade":"Itaquaquecetuba","name":"Itaquaquecetuba, SP <br> GPON","uf":"SP","longitude":"-46.345724","tecnologia":"GPON"},{"latitude":"-23.003497","color":"green","cidade":"Itatiba","name":"Itatiba, SP <br> GPON","uf":"SP","longitude":"-46.846353","tecnologia":"GPON"},{"latitude":"-23.152635","color":"green","cidade":"Itupeva","name":"Itupeva, SP <br> GPON","uf":"SP","longitude":"-47.059262","tecnologia":"GPON"},{"latitude":"-20.335465","color":"green","cidade":"Ituverava","name":"Ituverava, SP <br> GPON","uf":"SP","longitude":"-47.790207","tecnologia":"GPON"},{"latitude":"-21.252037","color":"green","cidade":"Jaboticabal","name":"Jaboticabal, SP <br> GPON","uf":"SP","longitude":"-48.325223","tecnologia":"GPON"},{"latitude":"-20.267227","color":"green","cidade":"Jales","name":"Jales, SP <br> GPON","uf":"SP","longitude":"-50.549442","tecnologia":"GPON"},{"latitude":"-23.103855","color":"green","cidade":"Jarinu","name":"Jarinu, SP <br> GPON","uf":"SP","longitude":"-46.728015","tecnologia":"GPON"},{"latitude":"-23.050564","color":"green","cidade":"Laranjal Paulista","name":"Laranjal Paulista, SP <br> GPON","uf":"SP","longitude":"-47.837549","tecnologia":"GPON"},{"latitude":"-22.180857","color":"green","cidade":"Leme","name":"Leme, SP <br> GPON","uf":"SP","longitude":"-47.384109","tecnologia":"GPON"},{"latitude":"-21.67182","color":"green","cidade":"Lins","name":"Lins, SP <br> GPON","uf":"SP","longitude":"-49.752555","tecnologia":"GPON"},{"latitude":"-23.085572","color":"green","cidade":"Louveira","name":"Louveira, SP <br> GPON","uf":"SP","longitude":"-46.948369","tecnologia":"GPON"},{"latitude":"-23.539822","color":"green","cidade":"Mairinque","name":"Mairinque, SP <br> GPON","uf":"SP","longitude":"-47.184995","tecnologia":"GPON"},{"latitude":"-20.816874","color":"green","cidade":"Mirassol","name":"Mirassol, SP <br> GPON","uf":"SP","longitude":"-49.52061","tecnologia":"GPON"},{"latitude":"-21.464731","color":"green","cidade":"Mococa","name":"Mococa, SP <br> GPON","uf":"SP","longitude":"-47.002405","tecnologia":"GPON"},{"latitude":"-21.265545","color":"green","cidade":"Monte Alto","name":"Monte Alto, SP <br> GPON","uf":"SP","longitude":"-48.497066","tecnologia":"GPON"},{"latitude":"-22.881071","color":"green","cidade":"Morungaba","name":"Morungaba, SP <br> GPON","uf":"SP","longitude":"-46.789601","tecnologia":"GPON"},{"latitude":"-22.979695","color":"green","cidade":"Ourinhos","name":"Ourinhos, SP <br> GPON","uf":"SP","longitude":"-49.869702","tecnologia":"GPON"},{"latitude":"-22.741347","color":"green","cidade":"Pedreira","name":"Pedreira, SP <br> GPON","uf":"SP","longitude":"-46.894846","tecnologia":"GPON"},{"latitude":"-23.052545","color":"green","cidade":"Piracaia","name":"Piracaia, SP <br> GPON","uf":"SP","longitude":"-46.359374","tecnologia":"GPON"},{"latitude":"-21.995982","color":"green","cidade":"Pirassununga","name":"Pirassununga, SP <br> GPON","uf":"SP","longitude":"-47.425746","tecnologia":"GPON"},{"latitude":"-21.021565","color":"green","cidade":"Pontal","name":"Pontal, SP <br> GPON","uf":"SP","longitude":"-48.042261","tecnologia":"GPON"},{"latitude":"-21.849814","color":"green","cidade":"Porto Ferreira","name":"Porto Ferreira, SP <br> GPON","uf":"SP","longitude":"-47.487034","tecnologia":"GPON"},{"latitude":"-21.042789","color":"green","cidade":"Potirendaba","name":"Potirendaba, SP <br> GPON","uf":"SP","longitude":"-49.381509","tecnologia":"GPON"},{"latitude":"-22.008198","color":"green","cidade":"Presidente Bernardes","name":"Presidente Bernardes, SP <br> GPON","uf":"SP","longitude":"-51.556507","tecnologia":"GPON"},{"latitude":"-24.497942","color":"green","cidade":"Registro","name":"Registro, SP <br> GPON","uf":"SP","longitude":"-47.844895","tecnologia":"GPON"},{"latitude":"-22.89875","color":"green","cidade":"Santa Cruz do Rio Pardo","name":"Santa Cruz do Rio Pardo, SP <br> GPON","uf":"SP","longitude":"-49.635444","tecnologia":"GPON"},{"latitude":"-22.457229","color":"green","cidade":"Santa Gertrudes","name":"Santa Gertrudes, SP <br> GPON","uf":"SP","longitude":"-47.52716","tecnologia":"GPON"},{"latitude":"-23.317194","color":"green","cidade":"Santa Isabel","name":"Santa Isabel, SP <br> GPON","uf":"SP","longitude":"-46.223668","tecnologia":"GPON"},{"latitude":"-21.477568","color":"green","cidade":"Santa Rosa de Viterbo","name":"Santa Rosa de Viterbo, SP <br> GPON","uf":"SP","longitude":"-47.362213","tecnologia":"GPON"},{"latitude":"-22.613941","color":"green","cidade":"Serra Negra","name":"Serra Negra, SP <br> GPON","uf":"SP","longitude":"-46.703271","tecnologia":"GPON"},{"latitude":"-21.204336","color":"green","cidade":"Serrana","name":"Serrana, SP <br> GPON","uf":"SP","longitude":"-47.595239","tecnologia":"GPON"},{"latitude":"-23.433162","color":"green","cidade":"Ubatuba","name":"Ubatuba, SP <br> GPON","uf":"SP","longitude":"-45.083415","tecnologia":"GPON"},{"latitude":"-20.423659","color":"green","cidade":"Votuporanga","name":"Votuporanga, SP <br> GPON","uf":"SP","longitude":"-49.978112","tecnologia":"GPON"}]
