[{"longitude":"-36.661471","cidade":"Arapiraca","color":"green","latitude":"-9.754866","uf":"AL","tecnologia":"GPON","name":"Arapiraca, AL <br> GPON"},{"longitude":"-49.492667","cidade":"Trindade","color":"green","latitude":"-16.651708","uf":"GO","tecnologia":"GPON","name":"Trindade, GO <br> GPON"},{"longitude":"-46.943804","cidade":"Araxá","color":"green","latitude":"-19.590176","uf":"MG","tecnologia":"GPON","name":"Araxá, MG <br> GPON"},{"longitude":"-45.459818","cidade":"Itajubá","color":"green","latitude":"-22.422481","uf":"MG","tecnologia":"GPON","name":"Itajubá, MG <br> GPON"},{"longitude":"-43.304004","cidade":"Paraíba Do Sul","color":"green","latitude":"-22.158462","uf":"RJ","tecnologia":"GPON","name":"Paraíba Do Sul, RJ <br> GPON"},{"longitude":"-61.932152","cidade":"Ji-Paraná","color":"green","latitude":"-10.877741","uf":"RO","tecnologia":"GPON","name":"Ji-Paraná, RO <br> GPON"},{"longitude":"-51.80431","cidade":"Camaquã","color":"green","latitude":"-30.848897","uf":"RS","tecnologia":"GPON","name":"Camaquã, RS <br> GPON"},{"longitude":"-51.089776","cidade":"Dois Irmãos","color":"green","latitude":"-29.58356","uf":"RS","tecnologia":"GPON","name":"Dois Irmãos, RS <br> GPON"},{"longitude":"-52.198625","cidade":"Marau","color":"green","latitude":"-28.449754","uf":"RS","tecnologia":"GPON","name":"Marau, RS <br> GPON"},{"longitude":"-50.941791","cidade":"Vacaria","color":"green","latitude":"-28.507868","uf":"RS","tecnologia":"GPON","name":"Vacaria, RS <br> GPON"},{"longitude":"-49.308654","cidade":"Içara","color":"green","latitude":"-28.713206","uf":"SC","tecnologia":"GPON","name":"Içara, SC <br> GPON"},{"longitude":"-48.98632","cidade":"Agudos","color":"green","latitude":"-22.469433","uf":"SP","tecnologia":"GPON","name":"Agudos, SP <br> GPON"},{"longitude":"-47.085245","cidade":"Casa Branca","color":"green","latitude":"-21.77081","uf":"SP","tecnologia":"GPON","name":"Casa Branca, SP <br> GPON"},{"longitude":"-47.988211","cidade":"Ibaté","color":"green","latitude":"-21.958358","uf":"SP","tecnologia":"GPON","name":"Ibaté, SP <br> GPON"},{"longitude":"-46.985062","cidade":"Jaguariúna","color":"green","latitude":"-22.70374","uf":"SP","tecnologia":"GPON","name":"Jaguariúna, SP <br> GPON"},{"longitude":"-47.425572","cidade":"Piedade","color":"green","latitude":"-23.713941","uf":"SP","tecnologia":"GPON","name":"Piedade, SP <br> GPON"},{"longitude":"-47.248023","cidade":"Santa Cruz das Palmeiras","color":"green","latitude":"-21.823475","uf":"SP","tecnologia":"GPON","name":"Santa Cruz das Palmeiras, SP <br> GPON"},{"longitude":"-47.270344","cidade":"Tambaú","color":"green","latitude":"-21.70292","uf":"SP","tecnologia":"GPON","name":"Tambaú, SP <br> GPON"},{"longitude":"-48.204402","cidade":"Araguaína","color":"green","latitude":"-7.192375","uf":"TO","tecnologia":"GPON","name":"Araguaína, TO <br> GPON"},{"longitude":"-49.068046","cidade":"Gurupi","color":"green","latitude":"-11.72794","uf":"TO","tecnologia":"GPON","name":"Gurupi, TO <br> GPON"}]
