[{"uf":"AL","tecnologia":"GPON","cidade":"Arapiraca","name":"Arapiraca, AL <br> GPON","latitude":"-9.754866","color":"green","longitude":"-36.661471"},{"uf":"GO","tecnologia":"GPON","cidade":"Trindade","name":"Trindade, GO <br> GPON","latitude":"-16.651708","color":"green","longitude":"-49.492667"},{"uf":"MG","tecnologia":"GPON","cidade":"Araxá","name":"Araxá, MG <br> GPON","latitude":"-19.590176","color":"green","longitude":"-46.943804"},{"uf":"MG","tecnologia":"GPON","cidade":"Itajubá","name":"Itajubá, MG <br> GPON","latitude":"-22.422481","color":"green","longitude":"-45.459818"},{"uf":"RJ","tecnologia":"GPON","cidade":"Paraíba Do Sul","name":"Paraíba Do Sul, RJ <br> GPON","latitude":"-22.158462","color":"green","longitude":"-43.304004"},{"uf":"RO","tecnologia":"GPON","cidade":"Ji-Paraná","name":"Ji-Paraná, RO <br> GPON","latitude":"-10.877741","color":"green","longitude":"-61.932152"},{"uf":"RS","tecnologia":"GPON","cidade":"Camaquã","name":"Camaquã, RS <br> GPON","latitude":"-30.848897","color":"green","longitude":"-51.80431"},{"uf":"RS","tecnologia":"GPON","cidade":"Dois Irmãos","name":"Dois Irmãos, RS <br> GPON","latitude":"-29.58356","color":"green","longitude":"-51.089776"},{"uf":"RS","tecnologia":"GPON","cidade":"Marau","name":"Marau, RS <br> GPON","latitude":"-28.449754","color":"green","longitude":"-52.198625"},{"uf":"RS","tecnologia":"GPON","cidade":"Vacaria","name":"Vacaria, RS <br> GPON","latitude":"-28.507868","color":"green","longitude":"-50.941791"},{"uf":"SC","tecnologia":"GPON","cidade":"Içara","name":"Içara, SC <br> GPON","latitude":"-28.713206","color":"green","longitude":"-49.308654"},{"uf":"SP","tecnologia":"GPON","cidade":"Agudos","name":"Agudos, SP <br> GPON","latitude":"-22.469433","color":"green","longitude":"-48.98632"},{"uf":"SP","tecnologia":"GPON","cidade":"Casa Branca","name":"Casa Branca, SP <br> GPON","latitude":"-21.77081","color":"green","longitude":"-47.085245"},{"uf":"SP","tecnologia":"GPON","cidade":"Ibaté","name":"Ibaté, SP <br> GPON","latitude":"-21.958358","color":"green","longitude":"-47.988211"},{"uf":"SP","tecnologia":"GPON","cidade":"Jaguariúna","name":"Jaguariúna, SP <br> GPON","latitude":"-22.70374","color":"green","longitude":"-46.985062"},{"uf":"SP","tecnologia":"GPON","cidade":"Piedade","name":"Piedade, SP <br> GPON","latitude":"-23.713941","color":"green","longitude":"-47.425572"},{"uf":"SP","tecnologia":"GPON","cidade":"Santa Cruz das Palmeiras","name":"Santa Cruz das Palmeiras, SP <br> GPON","latitude":"-21.823475","color":"green","longitude":"-47.248023"},{"uf":"SP","tecnologia":"GPON","cidade":"Tambaú","name":"Tambaú, SP <br> GPON","latitude":"-21.70292","color":"green","longitude":"-47.270344"},{"uf":"TO","tecnologia":"GPON","cidade":"Araguaína","name":"Araguaína, TO <br> GPON","latitude":"-7.192375","color":"green","longitude":"-48.204402"},{"uf":"TO","tecnologia":"GPON","cidade":"Gurupi","name":"Gurupi, TO <br> GPON","latitude":"-11.72794","color":"green","longitude":"-49.068046"}]
