[{"cidade":"Arapiraca","tecnologia":"GPON","latitude":"-9.754866","color":"green","longitude":"-36.661471","uf":"AL","name":"Arapiraca, AL <br> GPON"},{"cidade":"Trindade","tecnologia":"GPON","latitude":"-16.651708","color":"green","longitude":"-49.492667","uf":"GO","name":"Trindade, GO <br> GPON"},{"cidade":"Araxá","tecnologia":"GPON","latitude":"-19.590176","color":"green","longitude":"-46.943804","uf":"MG","name":"Araxá, MG <br> GPON"},{"cidade":"Itajubá","tecnologia":"GPON","latitude":"-22.422481","color":"green","longitude":"-45.459818","uf":"MG","name":"Itajubá, MG <br> GPON"},{"cidade":"Paraíba Do Sul","tecnologia":"GPON","latitude":"-22.158462","color":"green","longitude":"-43.304004","uf":"RJ","name":"Paraíba Do Sul, RJ <br> GPON"},{"cidade":"Ji-Paraná","tecnologia":"GPON","latitude":"-10.877741","color":"green","longitude":"-61.932152","uf":"RO","name":"Ji-Paraná, RO <br> GPON"},{"cidade":"Camaquã","tecnologia":"GPON","latitude":"-30.848897","color":"green","longitude":"-51.80431","uf":"RS","name":"Camaquã, RS <br> GPON"},{"cidade":"Dois Irmãos","tecnologia":"GPON","latitude":"-29.58356","color":"green","longitude":"-51.089776","uf":"RS","name":"Dois Irmãos, RS <br> GPON"},{"cidade":"Marau","tecnologia":"GPON","latitude":"-28.449754","color":"green","longitude":"-52.198625","uf":"RS","name":"Marau, RS <br> GPON"},{"cidade":"Vacaria","tecnologia":"GPON","latitude":"-28.507868","color":"green","longitude":"-50.941791","uf":"RS","name":"Vacaria, RS <br> GPON"},{"cidade":"Içara","tecnologia":"GPON","latitude":"-28.713206","color":"green","longitude":"-49.308654","uf":"SC","name":"Içara, SC <br> GPON"},{"cidade":"Agudos","tecnologia":"GPON","latitude":"-22.469433","color":"green","longitude":"-48.98632","uf":"SP","name":"Agudos, SP <br> GPON"},{"cidade":"Casa Branca","tecnologia":"GPON","latitude":"-21.77081","color":"green","longitude":"-47.085245","uf":"SP","name":"Casa Branca, SP <br> GPON"},{"cidade":"Ibaté","tecnologia":"GPON","latitude":"-21.958358","color":"green","longitude":"-47.988211","uf":"SP","name":"Ibaté, SP <br> GPON"},{"cidade":"Jaguariúna","tecnologia":"GPON","latitude":"-22.70374","color":"green","longitude":"-46.985062","uf":"SP","name":"Jaguariúna, SP <br> GPON"},{"cidade":"Piedade","tecnologia":"GPON","latitude":"-23.713941","color":"green","longitude":"-47.425572","uf":"SP","name":"Piedade, SP <br> GPON"},{"cidade":"Santa Cruz das Palmeiras","tecnologia":"GPON","latitude":"-21.823475","color":"green","longitude":"-47.248023","uf":"SP","name":"Santa Cruz das Palmeiras, SP <br> GPON"},{"cidade":"Tambaú","tecnologia":"GPON","latitude":"-21.70292","color":"green","longitude":"-47.270344","uf":"SP","name":"Tambaú, SP <br> GPON"},{"cidade":"Araguaína","tecnologia":"GPON","latitude":"-7.192375","color":"green","longitude":"-48.204402","uf":"TO","name":"Araguaína, TO <br> GPON"},{"cidade":"Gurupi","tecnologia":"GPON","latitude":"-11.72794","color":"green","longitude":"-49.068046","uf":"TO","name":"Gurupi, TO <br> GPON"},{"cidade":"Santana","tecnologia":"GPON","latitude":"-0.045434","color":"green","longitude":"-51.172924","uf":"AP","name":"Santana, AP <br> GPON"},{"cidade":"Alagoinhas","tecnologia":"GPON","latitude":"-12.133526","color":"green","longitude":"-38.420772","uf":"BA","name":"Alagoinhas, BA <br> GPON"},{"cidade":"Barreiras","tecnologia":"GPON","latitude":"-12.143864","color":"green","longitude":"-44.996838","uf":"BA","name":"Barreiras, BA <br> GPON"},{"cidade":"Feira de Santana","tecnologia":"GPON","latitude":"-12.266429","color":"green","longitude":"-38.966293","uf":"BA","name":"Feira de Santana, BA <br> GPON"},{"cidade":"Itabuna","tecnologia":"GPON","latitude":"-14.787573","color":"green","longitude":"-39.278056","uf":"BA","name":"Itabuna, BA <br> GPON"},{"cidade":"Juazeiro","tecnologia":"GPON","latitude":"-9.416217","color":"green","longitude":"-40.503251","uf":"BA","name":"Juazeiro, BA <br> GPON"},{"cidade":"Porto Seguro","tecnologia":"GPON","latitude":"-16.443473","color":"green","longitude":"-39.064251","uf":"BA","name":"Porto Seguro, BA <br> GPON"},{"cidade":"Teixeira de Freitas","tecnologia":"GPON","latitude":"-17.539915","color":"green","longitude":"-39.739962","uf":"BA","name":"Teixeira de Freitas, BA <br> GPON"},{"cidade":"Aquiraz","tecnologia":"GPON","latitude":"-3.899293","color":"green","longitude":"-38.389563","uf":"CE","name":"Aquiraz, CE <br> GPON"},{"cidade":"Juazeiro do Norte","tecnologia":"GPON","latitude":"-7.196207","color":"green","longitude":"-39.307593","uf":"CE","name":"Juazeiro do Norte, CE <br> GPON"},{"cidade":"Sobral","tecnologia":"GPON","latitude":"-3.689133","color":"green","longitude":"-40.34821","uf":"CE","name":"Sobral, CE <br> GPON"},{"cidade":"Aracruz","tecnologia":"GPON","latitude":"-19.820045","color":"green","longitude":"-40.276441","uf":"ES","name":"Aracruz, ES <br> GPON"},{"cidade":"Colatina","tecnologia":"GPON","latitude":"-19.549316","color":"green","longitude":"-40.626898","uf":"ES","name":"Colatina, ES <br> GPON"},{"cidade":"Caldas Novas","tecnologia":"GPON","latitude":"-17.74406","color":"green","longitude":"-48.624579","uf":"GO","name":"Caldas Novas, GO <br> GPON"},{"cidade":"Formosa","tecnologia":"GPON","latitude":"-15.539991","color":"green","longitude":"-47.336999","uf":"GO","name":"Formosa, GO <br> GPON"},{"cidade":"Itumbiara","tecnologia":"GPON","latitude":"-18.409267","color":"green","longitude":"-49.215845","uf":"GO","name":"Itumbiara, GO <br> GPON"},{"cidade":"Rio Verde","tecnologia":"GPON","latitude":"-17.792266","color":"green","longitude":"-50.919195","uf":"GO","name":"Rio Verde, GO <br> GPON"},{"cidade":"Senador Canedo","tecnologia":"GPON","latitude":"-16.708401","color":"green","longitude":"-49.091398","uf":"GO","name":"Senador Canedo, GO <br> GPON"},{"cidade":"Caxias","tecnologia":"GPON","latitude":"-4.865053","color":"green","longitude":"-43.361749","uf":"MA","name":"Caxias, MA <br> GPON"},{"cidade":"Imperatriz","tecnologia":"GPON","latitude":"-5.518471","color":"green","longitude":"-47.477726","uf":"MA","name":"Imperatriz, MA <br> GPON"},{"cidade":"Timon","tecnologia":"GPON","latitude":"-5.097692","color":"green","longitude":"-42.83292","uf":"MA","name":"Timon, MA <br> GPON"},{"cidade":"Araguari","tecnologia":"GPON","latitude":"-18.645575","color":"green","longitude":"-48.193392","uf":"MG","name":"Araguari, MG <br> GPON"},{"cidade":"Barbacena","tecnologia":"GPON","latitude":"-21.221446","color":"green","longitude":"-43.770266","uf":"MG","name":"Barbacena, MG <br> GPON"},{"cidade":"Cataguases","tecnologia":"GPON","latitude":"-21.39239","color":"green","longitude":"-42.689647","uf":"MG","name":"Cataguases, MG <br> GPON"},{"cidade":"Conselheiro Lafaiete","tecnologia":"GPON","latitude":"-20.663445","color":"green","longitude":"-43.784609","uf":"MG","name":"Conselheiro Lafaiete, MG <br> GPON"},{"cidade":"Coronel Fabriciano","tecnologia":"GPON","latitude":"-19.517879","color":"green","longitude":"-42.627585","uf":"MG","name":"Coronel Fabriciano, MG <br> GPON"},{"cidade":"Itabira","tecnologia":"GPON","latitude":"-19.623936","color":"green","longitude":"-43.23123","uf":"MG","name":"Itabira, MG <br> GPON"},{"cidade":"Ituiutaba","tecnologia":"GPON","latitude":"-18.977191","color":"green","longitude":"-49.463945","uf":"MG","name":"Ituiutaba, MG <br> GPON"},{"cidade":"Lagoa Santa","tecnologia":"GPON","latitude":"-19.63967","color":"green","longitude":"-43.893216","uf":"MG","name":"Lagoa Santa, MG <br> GPON"},{"cidade":"Lavras","tecnologia":"GPON","latitude":"-21.248002","color":"green","longitude":"-45.000949","uf":"MG","name":"Lavras, MG <br> GPON"},{"cidade":"Montes Claros","tecnologia":"GPON","latitude":"-16.728177","color":"green","longitude":"-43.857809","uf":"MG","name":"Montes Claros, MG <br> GPON"},{"cidade":"Passos","tecnologia":"GPON","latitude":"-20.719271","color":"green","longitude":"-46.609008","uf":"MG","name":"Passos, MG <br> GPON"},{"cidade":"Patos de Minas","tecnologia":"GPON","latitude":"-18.569938","color":"green","longitude":"-46.501268","uf":"MG","name":"Patos de Minas, MG <br> GPON"},{"cidade":"Pouso Alegre","tecnologia":"GPON","latitude":"-22.22659","color":"green","longitude":"-45.938935","uf":"MG","name":"Pouso Alegre, MG <br> GPON"},{"cidade":"Santa Luzia","tecnologia":"GPON","latitude":"-19.754824","color":"green","longitude":"-43.849658","uf":"MG","name":"Santa Luzia, MG <br> GPON"},{"cidade":"Vespasiano","tecnologia":"GPON","latitude":"-19.688326","color":"green","longitude":"-43.9239","uf":"MG","name":"Vespasiano, MG <br> GPON"},{"cidade":"Lucas do Rio Verde","tecnologia":"GPON","latitude":"-13.058796","color":"green","longitude":"-55.904202","uf":"MT","name":"Lucas do Rio Verde, MT <br> GPON"},{"cidade":"Nova Mutum","tecnologia":"GPON","latitude":"-13.837389","color":"green","longitude":"-56.074316","uf":"MT","name":"Nova Mutum, MT <br> GPON"},{"cidade":"Sinop","tecnologia":"GPON","latitude":"-11.86043","color":"green","longitude":"-55.509062","uf":"MT","name":"Sinop, MT <br> GPON"},{"cidade":"Sorriso","tecnologia":"GPON","latitude":"-12.542527","color":"green","longitude":"-55.721051","uf":"MT","name":"Sorriso, MT <br> GPON"},{"cidade":"Castanhal","tecnologia":"GPON","latitude":"-1.297971","color":"green","longitude":"-47.916742","uf":"PA","name":"Castanhal, PA <br> GPON"},{"cidade":"Paragominas","tecnologia":"GPON","latitude":"-3.002116","color":"green","longitude":"-47.352692","uf":"PA","name":"Paragominas, PA <br> GPON"},{"cidade":"Parauapebas","tecnologia":"GPON","latitude":"-6.067812","color":"green","longitude":"-49.903733","uf":"PA","name":"Parauapebas, PA <br> GPON"},{"cidade":"Petrolina","tecnologia":"GPON","latitude":"-9.388662","color":"green","longitude":"-40.502731","uf":"PE","name":"Petrolina, PE <br> GPON"},{"cidade":"Apucarana","tecnologia":"GPON","latitude":"-23.549961","color":"green","longitude":"-51.463486","uf":"PR","name":"Apucarana, PR <br> GPON"},{"cidade":"Cabo Frio","tecnologia":"GPON","latitude":"-22.88943","color":"green","longitude":"-42.028595","uf":"RJ","name":"Cabo Frio, RJ <br> GPON"},{"cidade":"Miguel Pereira","tecnologia":"GPON","latitude":"-22.457242","color":"green","longitude":"-43.480275","uf":"RJ","name":"Miguel Pereira, RJ <br> GPON"},{"cidade":"Nova Friburgo","tecnologia":"GPON","latitude":"-22.293224","color":"green","longitude":"-42.537692","uf":"RJ","name":"Nova Friburgo, RJ <br> GPON"},{"cidade":"Vassouras","tecnologia":"GPON","latitude":"-22.405889","color":"green","longitude":"-43.668555","uf":"RJ","name":"Vassouras, RJ <br> GPON"},{"cidade":"Ariquemes","tecnologia":"GPON","latitude":"-9.905711","color":"green","longitude":"-63.032516","uf":"RO","name":"Ariquemes, RO <br> GPON"},{"cidade":"Cacoal","tecnologia":"GPON","latitude":"-11.434271","color":"green","longitude":"-61.456167","uf":"RO","name":"Cacoal, RO <br> GPON"},{"cidade":"Vilhena","tecnologia":"GPON","latitude":"-12.750183","color":"green","longitude":"-60.148847","uf":"RO","name":"Vilhena, RO <br> GPON"},{"cidade":"Alegrete","tecnologia":"GPON","latitude":"-29.790166","color":"green","longitude":"-55.794862","uf":"RS","name":"Alegrete, RS <br> GPON"},{"cidade":"Arroio do Meio","tecnologia":"GPON","latitude":"-29.401353","color":"green","longitude":"-51.955735","uf":"RS","name":"Arroio do Meio, RS <br> GPON"},{"cidade":"Cachoeira do Sul","tecnologia":"GPON","latitude":"-30.032988","color":"green","longitude":"-52.892756","uf":"RS","name":"Cachoeira do Sul, RS <br> GPON"},{"cidade":"Canela","tecnologia":"GPON","latitude":"-29.355993","color":"green","longitude":"-50.811921","uf":"RS","name":"Canela, RS <br> GPON"},{"cidade":"Carazinho","tecnologia":"GPON","latitude":"-28.295844","color":"green","longitude":"-52.79326","uf":"RS","name":"Carazinho, RS <br> GPON"},{"cidade":"Carlos Barbosa","tecnologia":"GPON","latitude":"-29.296949","color":"green","longitude":"-51.502847","uf":"RS","name":"Carlos Barbosa, RS <br> GPON"},{"cidade":"Charqueadas","tecnologia":"GPON","latitude":"-29.962478","color":"green","longitude":"-51.628872","uf":"RS","name":"Charqueadas, RS <br> GPON"},{"cidade":"Eldorado do Sul","tecnologia":"GPON","latitude":"-30.084676","color":"green","longitude":"-51.618702","uf":"RS","name":"Eldorado do Sul, RS <br> GPON"},{"cidade":"Encantado","tecnologia":"GPON","latitude":"-29.235141","color":"green","longitude":"-51.870282","uf":"RS","name":"Encantado, RS <br> GPON"},{"cidade":"Estrela","tecnologia":"GPON","latitude":"-29.500207","color":"green","longitude":"-51.949508","uf":"RS","name":"Estrela, RS <br> GPON"},{"cidade":"Frederico Westphalen","tecnologia":"GPON","latitude":"-27.358644","color":"green","longitude":"-53.395824","uf":"RS","name":"Frederico Westphalen, RS <br> GPON"},{"cidade":"Garibaldi","tecnologia":"GPON","latitude":"-29.258979","color":"green","longitude":"-51.535179","uf":"RS","name":"Garibaldi, RS <br> GPON"},{"cidade":"Gramado","tecnologia":"GPON","latitude":"-29.373351","color":"green","longitude":"-50.876164","uf":"RS","name":"Gramado, RS <br> GPON"},{"cidade":"Igrejinha","tecnologia":"GPON","latitude":"-29.569318","color":"green","longitude":"-50.791894","uf":"RS","name":"Igrejinha, RS <br> GPON"},{"cidade":"Itaqui","tecnologia":"GPON","latitude":"-29.131051","color":"green","longitude":"-56.551478","uf":"RS","name":"Itaqui, RS <br> GPON"},{"cidade":"Ivoti","tecnologia":"GPON","latitude":"-29.599463","color":"green","longitude":"-51.153326","uf":"RS","name":"Ivoti, RS <br> GPON"},{"cidade":"Montenegro","tecnologia":"GPON","latitude":"-29.682414","color":"green","longitude":"-51.467903","uf":"RS","name":"Montenegro, RS <br> GPON"},{"cidade":"Panambi","tecnologia":"GPON","latitude":"-28.283328","color":"green","longitude":"-53.502261","uf":"RS","name":"Panambi, RS <br> GPON"},{"cidade":"Rio Pardo","tecnologia":"GPON","latitude":"-29.98803","color":"green","longitude":"-52.37113","uf":"RS","name":"Rio Pardo, RS <br> GPON"},{"cidade":"Santa Rosa","tecnologia":"GPON","latitude":"-27.8702","color":"green","longitude":"-54.479629","uf":"RS","name":"Santa Rosa, RS <br> GPON"},{"cidade":"Santana do Livramento","tecnologia":"GPON","latitude":"-30.88772","color":"green","longitude":"-55.531467","uf":"RS","name":"Santana do Livramento, RS <br> GPON"},{"cidade":"Taquara","tecnologia":"GPON","latitude":"-29.650471","color":"green","longitude":"-50.775278","uf":"RS","name":"Taquara, RS <br> GPON"},{"cidade":"Torres","tecnologia":"GPON","latitude":"-29.333438","color":"green","longitude":"-49.733289","uf":"RS","name":"Torres, RS <br> GPON"},{"cidade":"Vera Cruz","tecnologia":"GPON","latitude":"-29.718435","color":"green","longitude":"-52.515176","uf":"RS","name":"Vera Cruz, RS <br> GPON"},{"cidade":"Fraiburgo","tecnologia":"GPON","latitude":"-27.023288","color":"green","longitude":"-50.919978","uf":"SC","name":"Fraiburgo, SC <br> GPON"},{"cidade":"Gaspar","tecnologia":"GPON","latitude":"-26.933597","color":"green","longitude":"-48.953428","uf":"SC","name":"Gaspar, SC <br> GPON"},{"cidade":"Guaramirim","tecnologia":"GPON","latitude":"-26.468753","color":"green","longitude":"-49.002628","uf":"SC","name":"Guaramirim, SC <br> GPON"},{"cidade":"Indaial","tecnologia":"GPON","latitude":"-26.899247","color":"green","longitude":"-49.235417","uf":"SC","name":"Indaial, SC <br> GPON"},{"cidade":"Lages","tecnologia":"GPON","latitude":"-27.814966","color":"green","longitude":"-50.325862","uf":"SC","name":"Lages, SC <br> GPON"},{"cidade":"Mafra","tecnologia":"GPON","latitude":"-26.115935","color":"green","longitude":"-49.808624","uf":"SC","name":"Mafra, SC <br> GPON"},{"cidade":"Rio do Sul","tecnologia":"GPON","latitude":"-27.215596","color":"green","longitude":"-49.643016","uf":"SC","name":"Rio do Sul, SC <br> GPON"},{"cidade":"Rio Negrinho","tecnologia":"GPON","latitude":"-26.259075","color":"green","longitude":"-49.517746","uf":"SC","name":"Rio Negrinho, SC <br> GPON"},{"cidade":"Videira","tecnologia":"GPON","latitude":"-27.008624","color":"green","longitude":"-51.154274","uf":"SC","name":"Videira, SC <br> GPON"},{"cidade":"Xaxim","tecnologia":"GPON","latitude":"-26.959643","color":"green","longitude":"-52.537446","uf":"SC","name":"Xaxim, SC <br> GPON"},{"cidade":"Adamantina","tecnologia":"GPON","latitude":"-21.682012","color":"green","longitude":"-51.073695","uf":"SP","name":"Adamantina, SP <br> GPON"},{"cidade":"Amparo","tecnologia":"GPON","latitude":"-22.70879","color":"green","longitude":"-46.772022","uf":"SP","name":"Amparo, SP <br> GPON"},{"cidade":"Andradina","tecnologia":"GPON","latitude":"-20.894761","color":"green","longitude":"-51.378568","uf":"SP","name":"Andradina, SP <br> GPON"},{"cidade":"Bady Bassitt","tecnologia":"GPON","latitude":"-20.919689","color":"green","longitude":"-49.4385","uf":"SP","name":"Bady Bassitt, SP <br> GPON"},{"cidade":"Barretos","tecnologia":"GPON","latitude":"-20.553146","color":"green","longitude":"-48.569832","uf":"SP","name":"Barretos, SP <br> GPON"},{"cidade":"Barrinha","tecnologia":"GPON","latitude":"-21.186374","color":"green","longitude":"-48.163614","uf":"SP","name":"Barrinha, SP <br> GPON"},{"cidade":"Batatais","tecnologia":"GPON","latitude":"-20.892867","color":"green","longitude":"-47.592149","uf":"SP","name":"Batatais, SP <br> GPON"},{"cidade":"Bebedouro","tecnologia":"GPON","latitude":"-20.949077","color":"green","longitude":"-48.479083","uf":"SP","name":"Bebedouro, SP <br> GPON"},{"cidade":"Birigui","tecnologia":"GPON","latitude":"-21.291034","color":"green","longitude":"-50.343162","uf":"SP","name":"Birigui, SP <br> GPON"},{"cidade":"Boituva","tecnologia":"GPON","latitude":"-23.285531","color":"green","longitude":"-47.678574","uf":"SP","name":"Boituva, SP <br> GPON"},{"cidade":"Caieiras","tecnologia":"GPON","latitude":"-23.360729","color":"green","longitude":"-46.73974","uf":"SP","name":"Caieiras, SP <br> GPON"},{"cidade":"Cajamar","tecnologia":"GPON","latitude":"-23.355014","color":"green","longitude":"-46.878146","uf":"SP","name":"Cajamar, SP <br> GPON"},{"cidade":"Campo Limpo Paulista","tecnologia":"GPON","latitude":"-23.207791","color":"green","longitude":"-46.788919","uf":"SP","name":"Campo Limpo Paulista, SP <br> GPON"},{"cidade":"Caraguatatuba","tecnologia":"GPON","latitude":"-23.612535","color":"green","longitude":"-45.412533","uf":"SP","name":"Caraguatatuba, SP <br> GPON"},{"cidade":"Catanduva","tecnologia":"GPON","latitude":"-21.131381","color":"green","longitude":"-48.977015","uf":"SP","name":"Catanduva, SP <br> GPON"},{"cidade":"Cerquilho","tecnologia":"GPON","latitude":"-23.166487","color":"green","longitude":"-47.745862","uf":"SP","name":"Cerquilho, SP <br> GPON"},{"cidade":"Cravinhos","tecnologia":"GPON","latitude":"-21.337959","color":"green","longitude":"-47.732427","uf":"SP","name":"Cravinhos, SP <br> GPON"},{"cidade":"Descalvado","tecnologia":"GPON","latitude":"-21.900211","color":"green","longitude":"-47.618105","uf":"SP","name":"Descalvado, SP <br> GPON"},{"cidade":"Dracena","tecnologia":"GPON","latitude":"-21.484311","color":"green","longitude":"-51.535034","uf":"SP","name":"Dracena, SP <br> GPON"},{"cidade":"Guararapes","tecnologia":"GPON","latitude":"-21.254431","color":"green","longitude":"-50.645338","uf":"SP","name":"Guararapes, SP <br> GPON"},{"cidade":"Itapeva","tecnologia":"GPON","latitude":"-23.978823","color":"green","longitude":"-48.876433","uf":"SP","name":"Itapeva, SP <br> GPON"},{"cidade":"Itapira","tecnologia":"GPON","latitude":"-22.435731","color":"green","longitude":"-46.822434","uf":"SP","name":"Itapira, SP <br> GPON"},{"cidade":"Itaquaquecetuba","tecnologia":"GPON","latitude":"-23.483481","color":"green","longitude":"-46.345724","uf":"SP","name":"Itaquaquecetuba, SP <br> GPON"},{"cidade":"Itatiba","tecnologia":"GPON","latitude":"-23.003497","color":"green","longitude":"-46.846353","uf":"SP","name":"Itatiba, SP <br> GPON"},{"cidade":"Itupeva","tecnologia":"GPON","latitude":"-23.152635","color":"green","longitude":"-47.059262","uf":"SP","name":"Itupeva, SP <br> GPON"},{"cidade":"Ituverava","tecnologia":"GPON","latitude":"-20.335465","color":"green","longitude":"-47.790207","uf":"SP","name":"Ituverava, SP <br> GPON"},{"cidade":"Jaboticabal","tecnologia":"GPON","latitude":"-21.252037","color":"green","longitude":"-48.325223","uf":"SP","name":"Jaboticabal, SP <br> GPON"},{"cidade":"Jales","tecnologia":"GPON","latitude":"-20.267227","color":"green","longitude":"-50.549442","uf":"SP","name":"Jales, SP <br> GPON"},{"cidade":"Jarinu","tecnologia":"GPON","latitude":"-23.103855","color":"green","longitude":"-46.728015","uf":"SP","name":"Jarinu, SP <br> GPON"},{"cidade":"Laranjal Paulista","tecnologia":"GPON","latitude":"-23.050564","color":"green","longitude":"-47.837549","uf":"SP","name":"Laranjal Paulista, SP <br> GPON"},{"cidade":"Leme","tecnologia":"GPON","latitude":"-22.180857","color":"green","longitude":"-47.384109","uf":"SP","name":"Leme, SP <br> GPON"},{"cidade":"Lins","tecnologia":"GPON","latitude":"-21.67182","color":"green","longitude":"-49.752555","uf":"SP","name":"Lins, SP <br> GPON"},{"cidade":"Louveira","tecnologia":"GPON","latitude":"-23.085572","color":"green","longitude":"-46.948369","uf":"SP","name":"Louveira, SP <br> GPON"},{"cidade":"Mairinque","tecnologia":"GPON","latitude":"-23.539822","color":"green","longitude":"-47.184995","uf":"SP","name":"Mairinque, SP <br> GPON"},{"cidade":"Mirassol","tecnologia":"GPON","latitude":"-20.816874","color":"green","longitude":"-49.52061","uf":"SP","name":"Mirassol, SP <br> GPON"},{"cidade":"Mococa","tecnologia":"GPON","latitude":"-21.464731","color":"green","longitude":"-47.002405","uf":"SP","name":"Mococa, SP <br> GPON"},{"cidade":"Monte Alto","tecnologia":"GPON","latitude":"-21.265545","color":"green","longitude":"-48.497066","uf":"SP","name":"Monte Alto, SP <br> GPON"},{"cidade":"Morungaba","tecnologia":"GPON","latitude":"-22.881071","color":"green","longitude":"-46.789601","uf":"SP","name":"Morungaba, SP <br> GPON"},{"cidade":"Ourinhos","tecnologia":"GPON","latitude":"-22.979695","color":"green","longitude":"-49.869702","uf":"SP","name":"Ourinhos, SP <br> GPON"},{"cidade":"Pedreira","tecnologia":"GPON","latitude":"-22.741347","color":"green","longitude":"-46.894846","uf":"SP","name":"Pedreira, SP <br> GPON"},{"cidade":"Piracaia","tecnologia":"GPON","latitude":"-23.052545","color":"green","longitude":"-46.359374","uf":"SP","name":"Piracaia, SP <br> GPON"},{"cidade":"Pirassununga","tecnologia":"GPON","latitude":"-21.995982","color":"green","longitude":"-47.425746","uf":"SP","name":"Pirassununga, SP <br> GPON"},{"cidade":"Pontal","tecnologia":"GPON","latitude":"-21.021565","color":"green","longitude":"-48.042261","uf":"SP","name":"Pontal, SP <br> GPON"},{"cidade":"Porto Ferreira","tecnologia":"GPON","latitude":"-21.849814","color":"green","longitude":"-47.487034","uf":"SP","name":"Porto Ferreira, SP <br> GPON"},{"cidade":"Potirendaba","tecnologia":"GPON","latitude":"-21.042789","color":"green","longitude":"-49.381509","uf":"SP","name":"Potirendaba, SP <br> GPON"},{"cidade":"Presidente Bernardes","tecnologia":"GPON","latitude":"-22.008198","color":"green","longitude":"-51.556507","uf":"SP","name":"Presidente Bernardes, SP <br> GPON"},{"cidade":"Registro","tecnologia":"GPON","latitude":"-24.497942","color":"green","longitude":"-47.844895","uf":"SP","name":"Registro, SP <br> GPON"},{"cidade":"Santa Cruz do Rio Pardo","tecnologia":"GPON","latitude":"-22.89875","color":"green","longitude":"-49.635444","uf":"SP","name":"Santa Cruz do Rio Pardo, SP <br> GPON"},{"cidade":"Santa Gertrudes","tecnologia":"GPON","latitude":"-22.457229","color":"green","longitude":"-47.52716","uf":"SP","name":"Santa Gertrudes, SP <br> GPON"},{"cidade":"Santa Isabel","tecnologia":"GPON","latitude":"-23.317194","color":"green","longitude":"-46.223668","uf":"SP","name":"Santa Isabel, SP <br> GPON"},{"cidade":"Santa Rosa de Viterbo","tecnologia":"GPON","latitude":"-21.477568","color":"green","longitude":"-47.362213","uf":"SP","name":"Santa Rosa de Viterbo, SP <br> GPON"},{"cidade":"Serra Negra","tecnologia":"GPON","latitude":"-22.613941","color":"green","longitude":"-46.703271","uf":"SP","name":"Serra Negra, SP <br> GPON"},{"cidade":"Serrana","tecnologia":"GPON","latitude":"-21.204336","color":"green","longitude":"-47.595239","uf":"SP","name":"Serrana, SP <br> GPON"},{"cidade":"Ubatuba","tecnologia":"GPON","latitude":"-23.433162","color":"green","longitude":"-45.083415","uf":"SP","name":"Ubatuba, SP <br> GPON"},{"cidade":"Votuporanga","tecnologia":"GPON","latitude":"-20.423659","color":"green","longitude":"-49.978112","uf":"SP","name":"Votuporanga, SP <br> GPON"}]
