[{"name":"Arapiraca, AL <br> GPON","latitude":"-9.754866","tecnologia":"GPON","uf":"AL","color":"green","longitude":"-36.661471","cidade":"Arapiraca"},{"name":"Trindade, GO <br> GPON","latitude":"-16.651708","tecnologia":"GPON","uf":"GO","color":"green","longitude":"-49.492667","cidade":"Trindade"},{"name":"Araxá, MG <br> GPON","latitude":"-19.590176","tecnologia":"GPON","uf":"MG","color":"green","longitude":"-46.943804","cidade":"Araxá"},{"name":"Itajubá, MG <br> GPON","latitude":"-22.422481","tecnologia":"GPON","uf":"MG","color":"green","longitude":"-45.459818","cidade":"Itajubá"},{"name":"Paraíba Do Sul, RJ <br> GPON","latitude":"-22.158462","tecnologia":"GPON","uf":"RJ","color":"green","longitude":"-43.304004","cidade":"Paraíba Do Sul"},{"name":"Ji-Paraná, RO <br> GPON","latitude":"-10.877741","tecnologia":"GPON","uf":"RO","color":"green","longitude":"-61.932152","cidade":"Ji-Paraná"},{"name":"Camaquã, RS <br> GPON","latitude":"-30.848897","tecnologia":"GPON","uf":"RS","color":"green","longitude":"-51.80431","cidade":"Camaquã"},{"name":"Dois Irmãos, RS <br> GPON","latitude":"-29.58356","tecnologia":"GPON","uf":"RS","color":"green","longitude":"-51.089776","cidade":"Dois Irmãos"},{"name":"Marau, RS <br> GPON","latitude":"-28.449754","tecnologia":"GPON","uf":"RS","color":"green","longitude":"-52.198625","cidade":"Marau"},{"name":"Vacaria, RS <br> GPON","latitude":"-28.507868","tecnologia":"GPON","uf":"RS","color":"green","longitude":"-50.941791","cidade":"Vacaria"},{"name":"Içara, SC <br> GPON","latitude":"-28.713206","tecnologia":"GPON","uf":"SC","color":"green","longitude":"-49.308654","cidade":"Içara"},{"name":"Agudos, SP <br> GPON","latitude":"-22.469433","tecnologia":"GPON","uf":"SP","color":"green","longitude":"-48.98632","cidade":"Agudos"},{"name":"Casa Branca, SP <br> GPON","latitude":"-21.77081","tecnologia":"GPON","uf":"SP","color":"green","longitude":"-47.085245","cidade":"Casa Branca"},{"name":"Ibaté, SP <br> GPON","latitude":"-21.958358","tecnologia":"GPON","uf":"SP","color":"green","longitude":"-47.988211","cidade":"Ibaté"},{"name":"Jaguariúna, SP <br> GPON","latitude":"-22.70374","tecnologia":"GPON","uf":"SP","color":"green","longitude":"-46.985062","cidade":"Jaguariúna"},{"name":"Piedade, SP <br> GPON","latitude":"-23.713941","tecnologia":"GPON","uf":"SP","color":"green","longitude":"-47.425572","cidade":"Piedade"},{"name":"Santa Cruz das Palmeiras, SP <br> GPON","latitude":"-21.823475","tecnologia":"GPON","uf":"SP","color":"green","longitude":"-47.248023","cidade":"Santa Cruz das Palmeiras"},{"name":"Tambaú, SP <br> GPON","latitude":"-21.70292","tecnologia":"GPON","uf":"SP","color":"green","longitude":"-47.270344","cidade":"Tambaú"},{"name":"Araguaína, TO <br> GPON","latitude":"-7.192375","tecnologia":"GPON","uf":"TO","color":"green","longitude":"-48.204402","cidade":"Araguaína"},{"name":"Gurupi, TO <br> GPON","latitude":"-11.72794","tecnologia":"GPON","uf":"TO","color":"green","longitude":"-49.068046","cidade":"Gurupi"},{"name":"Santana, AP <br> GPON","latitude":"-0.045434","tecnologia":"GPON","uf":"AP","color":"green","longitude":"-51.172924","cidade":"Santana"},{"name":"Alagoinhas, BA <br> GPON","latitude":"-12.133526","tecnologia":"GPON","uf":"BA","color":"green","longitude":"-38.420772","cidade":"Alagoinhas"},{"name":"Barreiras, BA <br> GPON","latitude":"-12.143864","tecnologia":"GPON","uf":"BA","color":"green","longitude":"-44.996838","cidade":"Barreiras"},{"name":"Feira de Santana, BA <br> GPON","latitude":"-12.266429","tecnologia":"GPON","uf":"BA","color":"green","longitude":"-38.966293","cidade":"Feira de Santana"},{"name":"Itabuna, BA <br> GPON","latitude":"-14.787573","tecnologia":"GPON","uf":"BA","color":"green","longitude":"-39.278056","cidade":"Itabuna"},{"name":"Juazeiro, BA <br> GPON","latitude":"-9.416217","tecnologia":"GPON","uf":"BA","color":"green","longitude":"-40.503251","cidade":"Juazeiro"},{"name":"Porto Seguro, BA <br> GPON","latitude":"-16.443473","tecnologia":"GPON","uf":"BA","color":"green","longitude":"-39.064251","cidade":"Porto Seguro"},{"name":"Teixeira de Freitas, BA <br> GPON","latitude":"-17.539915","tecnologia":"GPON","uf":"BA","color":"green","longitude":"-39.739962","cidade":"Teixeira de Freitas"},{"name":"Aquiraz, CE <br> GPON","latitude":"-3.899293","tecnologia":"GPON","uf":"CE","color":"green","longitude":"-38.389563","cidade":"Aquiraz"},{"name":"Juazeiro do Norte, CE <br> GPON","latitude":"-7.196207","tecnologia":"GPON","uf":"CE","color":"green","longitude":"-39.307593","cidade":"Juazeiro do Norte"},{"name":"Sobral, CE <br> GPON","latitude":"-3.689133","tecnologia":"GPON","uf":"CE","color":"green","longitude":"-40.34821","cidade":"Sobral"},{"name":"Aracruz, ES <br> GPON","latitude":"-19.820045","tecnologia":"GPON","uf":"ES","color":"green","longitude":"-40.276441","cidade":"Aracruz"},{"name":"Colatina, ES <br> GPON","latitude":"-19.549316","tecnologia":"GPON","uf":"ES","color":"green","longitude":"-40.626898","cidade":"Colatina"},{"name":"Caldas Novas, GO <br> GPON","latitude":"-17.74406","tecnologia":"GPON","uf":"GO","color":"green","longitude":"-48.624579","cidade":"Caldas Novas"},{"name":"Formosa, GO <br> GPON","latitude":"-15.539991","tecnologia":"GPON","uf":"GO","color":"green","longitude":"-47.336999","cidade":"Formosa"},{"name":"Itumbiara, GO <br> GPON","latitude":"-18.409267","tecnologia":"GPON","uf":"GO","color":"green","longitude":"-49.215845","cidade":"Itumbiara"},{"name":"Rio Verde, GO <br> GPON","latitude":"-17.792266","tecnologia":"GPON","uf":"GO","color":"green","longitude":"-50.919195","cidade":"Rio Verde"},{"name":"Senador Canedo, GO <br> GPON","latitude":"-16.708401","tecnologia":"GPON","uf":"GO","color":"green","longitude":"-49.091398","cidade":"Senador Canedo"},{"name":"Caxias, MA <br> GPON","latitude":"-4.865053","tecnologia":"GPON","uf":"MA","color":"green","longitude":"-43.361749","cidade":"Caxias"},{"name":"Imperatriz, MA <br> GPON","latitude":"-5.518471","tecnologia":"GPON","uf":"MA","color":"green","longitude":"-47.477726","cidade":"Imperatriz"},{"name":"Timon, MA <br> GPON","latitude":"-5.097692","tecnologia":"GPON","uf":"MA","color":"green","longitude":"-42.83292","cidade":"Timon"},{"name":"Araguari, MG <br> GPON","latitude":"-18.645575","tecnologia":"GPON","uf":"MG","color":"green","longitude":"-48.193392","cidade":"Araguari"},{"name":"Barbacena, MG <br> GPON","latitude":"-21.221446","tecnologia":"GPON","uf":"MG","color":"green","longitude":"-43.770266","cidade":"Barbacena"},{"name":"Cataguases, MG <br> GPON","latitude":"-21.39239","tecnologia":"GPON","uf":"MG","color":"green","longitude":"-42.689647","cidade":"Cataguases"},{"name":"Conselheiro Lafaiete, MG <br> GPON","latitude":"-20.663445","tecnologia":"GPON","uf":"MG","color":"green","longitude":"-43.784609","cidade":"Conselheiro Lafaiete"},{"name":"Coronel Fabriciano, MG <br> GPON","latitude":"-19.517879","tecnologia":"GPON","uf":"MG","color":"green","longitude":"-42.627585","cidade":"Coronel Fabriciano"},{"name":"Itabira, MG <br> GPON","latitude":"-19.623936","tecnologia":"GPON","uf":"MG","color":"green","longitude":"-43.23123","cidade":"Itabira"},{"name":"Ituiutaba, MG <br> GPON","latitude":"-18.977191","tecnologia":"GPON","uf":"MG","color":"green","longitude":"-49.463945","cidade":"Ituiutaba"},{"name":"Lagoa Santa, MG <br> GPON","latitude":"-19.63967","tecnologia":"GPON","uf":"MG","color":"green","longitude":"-43.893216","cidade":"Lagoa Santa"},{"name":"Lavras, MG <br> GPON","latitude":"-21.248002","tecnologia":"GPON","uf":"MG","color":"green","longitude":"-45.000949","cidade":"Lavras"},{"name":"Montes Claros, MG <br> GPON","latitude":"-16.728177","tecnologia":"GPON","uf":"MG","color":"green","longitude":"-43.857809","cidade":"Montes Claros"},{"name":"Passos, MG <br> GPON","latitude":"-20.719271","tecnologia":"GPON","uf":"MG","color":"green","longitude":"-46.609008","cidade":"Passos"},{"name":"Patos de Minas, MG <br> GPON","latitude":"-18.569938","tecnologia":"GPON","uf":"MG","color":"green","longitude":"-46.501268","cidade":"Patos de Minas"},{"name":"Pouso Alegre, MG <br> GPON","latitude":"-22.22659","tecnologia":"GPON","uf":"MG","color":"green","longitude":"-45.938935","cidade":"Pouso Alegre"},{"name":"Santa Luzia, MG <br> GPON","latitude":"-19.754824","tecnologia":"GPON","uf":"MG","color":"green","longitude":"-43.849658","cidade":"Santa Luzia"},{"name":"Vespasiano, MG <br> GPON","latitude":"-19.688326","tecnologia":"GPON","uf":"MG","color":"green","longitude":"-43.9239","cidade":"Vespasiano"},{"name":"Lucas do Rio Verde, MT <br> GPON","latitude":"-13.058796","tecnologia":"GPON","uf":"MT","color":"green","longitude":"-55.904202","cidade":"Lucas do Rio Verde"},{"name":"Nova Mutum, MT <br> GPON","latitude":"-13.837389","tecnologia":"GPON","uf":"MT","color":"green","longitude":"-56.074316","cidade":"Nova Mutum"},{"name":"Sinop, MT <br> GPON","latitude":"-11.86043","tecnologia":"GPON","uf":"MT","color":"green","longitude":"-55.509062","cidade":"Sinop"},{"name":"Sorriso, MT <br> GPON","latitude":"-12.542527","tecnologia":"GPON","uf":"MT","color":"green","longitude":"-55.721051","cidade":"Sorriso"},{"name":"Castanhal, PA <br> GPON","latitude":"-1.297971","tecnologia":"GPON","uf":"PA","color":"green","longitude":"-47.916742","cidade":"Castanhal"},{"name":"Paragominas, PA <br> GPON","latitude":"-3.002116","tecnologia":"GPON","uf":"PA","color":"green","longitude":"-47.352692","cidade":"Paragominas"},{"name":"Parauapebas, PA <br> GPON","latitude":"-6.067812","tecnologia":"GPON","uf":"PA","color":"green","longitude":"-49.903733","cidade":"Parauapebas"},{"name":"Petrolina, PE <br> GPON","latitude":"-9.388662","tecnologia":"GPON","uf":"PE","color":"green","longitude":"-40.502731","cidade":"Petrolina"},{"name":"Apucarana, PR <br> GPON","latitude":"-23.549961","tecnologia":"GPON","uf":"PR","color":"green","longitude":"-51.463486","cidade":"Apucarana"},{"name":"Cabo Frio, RJ <br> GPON","latitude":"-22.88943","tecnologia":"GPON","uf":"RJ","color":"green","longitude":"-42.028595","cidade":"Cabo Frio"},{"name":"Miguel Pereira, RJ <br> GPON","latitude":"-22.457242","tecnologia":"GPON","uf":"RJ","color":"green","longitude":"-43.480275","cidade":"Miguel Pereira"},{"name":"Nova Friburgo, RJ <br> GPON","latitude":"-22.293224","tecnologia":"GPON","uf":"RJ","color":"green","longitude":"-42.537692","cidade":"Nova Friburgo"},{"name":"Vassouras, RJ <br> GPON","latitude":"-22.405889","tecnologia":"GPON","uf":"RJ","color":"green","longitude":"-43.668555","cidade":"Vassouras"},{"name":"Ariquemes, RO <br> GPON","latitude":"-9.905711","tecnologia":"GPON","uf":"RO","color":"green","longitude":"-63.032516","cidade":"Ariquemes"},{"name":"Cacoal, RO <br> GPON","latitude":"-11.434271","tecnologia":"GPON","uf":"RO","color":"green","longitude":"-61.456167","cidade":"Cacoal"},{"name":"Vilhena, RO <br> GPON","latitude":"-12.750183","tecnologia":"GPON","uf":"RO","color":"green","longitude":"-60.148847","cidade":"Vilhena"},{"name":"Alegrete, RS <br> GPON","latitude":"-29.790166","tecnologia":"GPON","uf":"RS","color":"green","longitude":"-55.794862","cidade":"Alegrete"},{"name":"Arroio do Meio, RS <br> GPON","latitude":"-29.401353","tecnologia":"GPON","uf":"RS","color":"green","longitude":"-51.955735","cidade":"Arroio do Meio"},{"name":"Cachoeira do Sul, RS <br> GPON","latitude":"-30.032988","tecnologia":"GPON","uf":"RS","color":"green","longitude":"-52.892756","cidade":"Cachoeira do Sul"},{"name":"Canela, RS <br> GPON","latitude":"-29.355993","tecnologia":"GPON","uf":"RS","color":"green","longitude":"-50.811921","cidade":"Canela"},{"name":"Carazinho, RS <br> GPON","latitude":"-28.295844","tecnologia":"GPON","uf":"RS","color":"green","longitude":"-52.79326","cidade":"Carazinho"},{"name":"Carlos Barbosa, RS <br> GPON","latitude":"-29.296949","tecnologia":"GPON","uf":"RS","color":"green","longitude":"-51.502847","cidade":"Carlos Barbosa"},{"name":"Charqueadas, RS <br> GPON","latitude":"-29.962478","tecnologia":"GPON","uf":"RS","color":"green","longitude":"-51.628872","cidade":"Charqueadas"},{"name":"Eldorado do Sul, RS <br> GPON","latitude":"-30.084676","tecnologia":"GPON","uf":"RS","color":"green","longitude":"-51.618702","cidade":"Eldorado do Sul"},{"name":"Encantado, RS <br> GPON","latitude":"-29.235141","tecnologia":"GPON","uf":"RS","color":"green","longitude":"-51.870282","cidade":"Encantado"},{"name":"Estrela, RS <br> GPON","latitude":"-29.500207","tecnologia":"GPON","uf":"RS","color":"green","longitude":"-51.949508","cidade":"Estrela"},{"name":"Frederico Westphalen, RS <br> GPON","latitude":"-27.358644","tecnologia":"GPON","uf":"RS","color":"green","longitude":"-53.395824","cidade":"Frederico Westphalen"},{"name":"Garibaldi, RS <br> GPON","latitude":"-29.258979","tecnologia":"GPON","uf":"RS","color":"green","longitude":"-51.535179","cidade":"Garibaldi"},{"name":"Gramado, RS <br> GPON","latitude":"-29.373351","tecnologia":"GPON","uf":"RS","color":"green","longitude":"-50.876164","cidade":"Gramado"},{"name":"Igrejinha, RS <br> GPON","latitude":"-29.569318","tecnologia":"GPON","uf":"RS","color":"green","longitude":"-50.791894","cidade":"Igrejinha"},{"name":"Itaqui, RS <br> GPON","latitude":"-29.131051","tecnologia":"GPON","uf":"RS","color":"green","longitude":"-56.551478","cidade":"Itaqui"},{"name":"Ivoti, RS <br> GPON","latitude":"-29.599463","tecnologia":"GPON","uf":"RS","color":"green","longitude":"-51.153326","cidade":"Ivoti"},{"name":"Montenegro, RS <br> GPON","latitude":"-29.682414","tecnologia":"GPON","uf":"RS","color":"green","longitude":"-51.467903","cidade":"Montenegro"},{"name":"Panambi, RS <br> GPON","latitude":"-28.283328","tecnologia":"GPON","uf":"RS","color":"green","longitude":"-53.502261","cidade":"Panambi"},{"name":"Rio Pardo, RS <br> GPON","latitude":"-29.98803","tecnologia":"GPON","uf":"RS","color":"green","longitude":"-52.37113","cidade":"Rio Pardo"},{"name":"Santa Rosa, RS <br> GPON","latitude":"-27.8702","tecnologia":"GPON","uf":"RS","color":"green","longitude":"-54.479629","cidade":"Santa Rosa"},{"name":"Santana do Livramento, RS <br> GPON","latitude":"-30.88772","tecnologia":"GPON","uf":"RS","color":"green","longitude":"-55.531467","cidade":"Santana do Livramento"},{"name":"Taquara, RS <br> GPON","latitude":"-29.650471","tecnologia":"GPON","uf":"RS","color":"green","longitude":"-50.775278","cidade":"Taquara"},{"name":"Torres, RS <br> GPON","latitude":"-29.333438","tecnologia":"GPON","uf":"RS","color":"green","longitude":"-49.733289","cidade":"Torres"},{"name":"Vera Cruz, RS <br> GPON","latitude":"-29.718435","tecnologia":"GPON","uf":"RS","color":"green","longitude":"-52.515176","cidade":"Vera Cruz"},{"name":"Fraiburgo, SC <br> GPON","latitude":"-27.023288","tecnologia":"GPON","uf":"SC","color":"green","longitude":"-50.919978","cidade":"Fraiburgo"},{"name":"Gaspar, SC <br> GPON","latitude":"-26.933597","tecnologia":"GPON","uf":"SC","color":"green","longitude":"-48.953428","cidade":"Gaspar"},{"name":"Guaramirim, SC <br> GPON","latitude":"-26.468753","tecnologia":"GPON","uf":"SC","color":"green","longitude":"-49.002628","cidade":"Guaramirim"},{"name":"Indaial, SC <br> GPON","latitude":"-26.899247","tecnologia":"GPON","uf":"SC","color":"green","longitude":"-49.235417","cidade":"Indaial"},{"name":"Lages, SC <br> GPON","latitude":"-27.814966","tecnologia":"GPON","uf":"SC","color":"green","longitude":"-50.325862","cidade":"Lages"},{"name":"Mafra, SC <br> GPON","latitude":"-26.115935","tecnologia":"GPON","uf":"SC","color":"green","longitude":"-49.808624","cidade":"Mafra"},{"name":"Rio do Sul, SC <br> GPON","latitude":"-27.215596","tecnologia":"GPON","uf":"SC","color":"green","longitude":"-49.643016","cidade":"Rio do Sul"},{"name":"Rio Negrinho, SC <br> GPON","latitude":"-26.259075","tecnologia":"GPON","uf":"SC","color":"green","longitude":"-49.517746","cidade":"Rio Negrinho"},{"name":"Videira, SC <br> GPON","latitude":"-27.008624","tecnologia":"GPON","uf":"SC","color":"green","longitude":"-51.154274","cidade":"Videira"},{"name":"Xaxim, SC <br> GPON","latitude":"-26.959643","tecnologia":"GPON","uf":"SC","color":"green","longitude":"-52.537446","cidade":"Xaxim"},{"name":"Adamantina, SP <br> GPON","latitude":"-21.682012","tecnologia":"GPON","uf":"SP","color":"green","longitude":"-51.073695","cidade":"Adamantina"},{"name":"Amparo, SP <br> GPON","latitude":"-22.70879","tecnologia":"GPON","uf":"SP","color":"green","longitude":"-46.772022","cidade":"Amparo"},{"name":"Andradina, SP <br> GPON","latitude":"-20.894761","tecnologia":"GPON","uf":"SP","color":"green","longitude":"-51.378568","cidade":"Andradina"},{"name":"Bady Bassitt, SP <br> GPON","latitude":"-20.919689","tecnologia":"GPON","uf":"SP","color":"green","longitude":"-49.4385","cidade":"Bady Bassitt"},{"name":"Barretos, SP <br> GPON","latitude":"-20.553146","tecnologia":"GPON","uf":"SP","color":"green","longitude":"-48.569832","cidade":"Barretos"},{"name":"Barrinha, SP <br> GPON","latitude":"-21.186374","tecnologia":"GPON","uf":"SP","color":"green","longitude":"-48.163614","cidade":"Barrinha"},{"name":"Batatais, SP <br> GPON","latitude":"-20.892867","tecnologia":"GPON","uf":"SP","color":"green","longitude":"-47.592149","cidade":"Batatais"},{"name":"Bebedouro, SP <br> GPON","latitude":"-20.949077","tecnologia":"GPON","uf":"SP","color":"green","longitude":"-48.479083","cidade":"Bebedouro"},{"name":"Birigui, SP <br> GPON","latitude":"-21.291034","tecnologia":"GPON","uf":"SP","color":"green","longitude":"-50.343162","cidade":"Birigui"},{"name":"Boituva, SP <br> GPON","latitude":"-23.285531","tecnologia":"GPON","uf":"SP","color":"green","longitude":"-47.678574","cidade":"Boituva"},{"name":"Caieiras, SP <br> GPON","latitude":"-23.360729","tecnologia":"GPON","uf":"SP","color":"green","longitude":"-46.73974","cidade":"Caieiras"},{"name":"Cajamar, SP <br> GPON","latitude":"-23.355014","tecnologia":"GPON","uf":"SP","color":"green","longitude":"-46.878146","cidade":"Cajamar"},{"name":"Campo Limpo Paulista, SP <br> GPON","latitude":"-23.207791","tecnologia":"GPON","uf":"SP","color":"green","longitude":"-46.788919","cidade":"Campo Limpo Paulista"},{"name":"Caraguatatuba, SP <br> GPON","latitude":"-23.612535","tecnologia":"GPON","uf":"SP","color":"green","longitude":"-45.412533","cidade":"Caraguatatuba"},{"name":"Catanduva, SP <br> GPON","latitude":"-21.131381","tecnologia":"GPON","uf":"SP","color":"green","longitude":"-48.977015","cidade":"Catanduva"},{"name":"Cerquilho, SP <br> GPON","latitude":"-23.166487","tecnologia":"GPON","uf":"SP","color":"green","longitude":"-47.745862","cidade":"Cerquilho"},{"name":"Cravinhos, SP <br> GPON","latitude":"-21.337959","tecnologia":"GPON","uf":"SP","color":"green","longitude":"-47.732427","cidade":"Cravinhos"},{"name":"Descalvado, SP <br> GPON","latitude":"-21.900211","tecnologia":"GPON","uf":"SP","color":"green","longitude":"-47.618105","cidade":"Descalvado"},{"name":"Dracena, SP <br> GPON","latitude":"-21.484311","tecnologia":"GPON","uf":"SP","color":"green","longitude":"-51.535034","cidade":"Dracena"},{"name":"Guararapes, SP <br> GPON","latitude":"-21.254431","tecnologia":"GPON","uf":"SP","color":"green","longitude":"-50.645338","cidade":"Guararapes"},{"name":"Itapeva, SP <br> GPON","latitude":"-23.978823","tecnologia":"GPON","uf":"SP","color":"green","longitude":"-48.876433","cidade":"Itapeva"},{"name":"Itapira, SP <br> GPON","latitude":"-22.435731","tecnologia":"GPON","uf":"SP","color":"green","longitude":"-46.822434","cidade":"Itapira"},{"name":"Itaquaquecetuba, SP <br> GPON","latitude":"-23.483481","tecnologia":"GPON","uf":"SP","color":"green","longitude":"-46.345724","cidade":"Itaquaquecetuba"},{"name":"Itatiba, SP <br> GPON","latitude":"-23.003497","tecnologia":"GPON","uf":"SP","color":"green","longitude":"-46.846353","cidade":"Itatiba"},{"name":"Itupeva, SP <br> GPON","latitude":"-23.152635","tecnologia":"GPON","uf":"SP","color":"green","longitude":"-47.059262","cidade":"Itupeva"},{"name":"Ituverava, SP <br> GPON","latitude":"-20.335465","tecnologia":"GPON","uf":"SP","color":"green","longitude":"-47.790207","cidade":"Ituverava"},{"name":"Jaboticabal, SP <br> GPON","latitude":"-21.252037","tecnologia":"GPON","uf":"SP","color":"green","longitude":"-48.325223","cidade":"Jaboticabal"},{"name":"Jales, SP <br> GPON","latitude":"-20.267227","tecnologia":"GPON","uf":"SP","color":"green","longitude":"-50.549442","cidade":"Jales"},{"name":"Jarinu, SP <br> GPON","latitude":"-23.103855","tecnologia":"GPON","uf":"SP","color":"green","longitude":"-46.728015","cidade":"Jarinu"},{"name":"Laranjal Paulista, SP <br> GPON","latitude":"-23.050564","tecnologia":"GPON","uf":"SP","color":"green","longitude":"-47.837549","cidade":"Laranjal Paulista"},{"name":"Leme, SP <br> GPON","latitude":"-22.180857","tecnologia":"GPON","uf":"SP","color":"green","longitude":"-47.384109","cidade":"Leme"},{"name":"Lins, SP <br> GPON","latitude":"-21.67182","tecnologia":"GPON","uf":"SP","color":"green","longitude":"-49.752555","cidade":"Lins"},{"name":"Louveira, SP <br> GPON","latitude":"-23.085572","tecnologia":"GPON","uf":"SP","color":"green","longitude":"-46.948369","cidade":"Louveira"},{"name":"Mairinque, SP <br> GPON","latitude":"-23.539822","tecnologia":"GPON","uf":"SP","color":"green","longitude":"-47.184995","cidade":"Mairinque"},{"name":"Mirassol, SP <br> GPON","latitude":"-20.816874","tecnologia":"GPON","uf":"SP","color":"green","longitude":"-49.52061","cidade":"Mirassol"},{"name":"Mococa, SP <br> GPON","latitude":"-21.464731","tecnologia":"GPON","uf":"SP","color":"green","longitude":"-47.002405","cidade":"Mococa"},{"name":"Monte Alto, SP <br> GPON","latitude":"-21.265545","tecnologia":"GPON","uf":"SP","color":"green","longitude":"-48.497066","cidade":"Monte Alto"},{"name":"Morungaba, SP <br> GPON","latitude":"-22.881071","tecnologia":"GPON","uf":"SP","color":"green","longitude":"-46.789601","cidade":"Morungaba"},{"name":"Ourinhos, SP <br> GPON","latitude":"-22.979695","tecnologia":"GPON","uf":"SP","color":"green","longitude":"-49.869702","cidade":"Ourinhos"},{"name":"Pedreira, SP <br> GPON","latitude":"-22.741347","tecnologia":"GPON","uf":"SP","color":"green","longitude":"-46.894846","cidade":"Pedreira"},{"name":"Piracaia, SP <br> GPON","latitude":"-23.052545","tecnologia":"GPON","uf":"SP","color":"green","longitude":"-46.359374","cidade":"Piracaia"},{"name":"Pirassununga, SP <br> GPON","latitude":"-21.995982","tecnologia":"GPON","uf":"SP","color":"green","longitude":"-47.425746","cidade":"Pirassununga"},{"name":"Pontal, SP <br> GPON","latitude":"-21.021565","tecnologia":"GPON","uf":"SP","color":"green","longitude":"-48.042261","cidade":"Pontal"},{"name":"Porto Ferreira, SP <br> GPON","latitude":"-21.849814","tecnologia":"GPON","uf":"SP","color":"green","longitude":"-47.487034","cidade":"Porto Ferreira"},{"name":"Potirendaba, SP <br> GPON","latitude":"-21.042789","tecnologia":"GPON","uf":"SP","color":"green","longitude":"-49.381509","cidade":"Potirendaba"},{"name":"Presidente Bernardes, SP <br> GPON","latitude":"-22.008198","tecnologia":"GPON","uf":"SP","color":"green","longitude":"-51.556507","cidade":"Presidente Bernardes"},{"name":"Registro, SP <br> GPON","latitude":"-24.497942","tecnologia":"GPON","uf":"SP","color":"green","longitude":"-47.844895","cidade":"Registro"},{"name":"Santa Cruz do Rio Pardo, SP <br> GPON","latitude":"-22.89875","tecnologia":"GPON","uf":"SP","color":"green","longitude":"-49.635444","cidade":"Santa Cruz do Rio Pardo"},{"name":"Santa Gertrudes, SP <br> GPON","latitude":"-22.457229","tecnologia":"GPON","uf":"SP","color":"green","longitude":"-47.52716","cidade":"Santa Gertrudes"},{"name":"Santa Isabel, SP <br> GPON","latitude":"-23.317194","tecnologia":"GPON","uf":"SP","color":"green","longitude":"-46.223668","cidade":"Santa Isabel"},{"name":"Santa Rosa de Viterbo, SP <br> GPON","latitude":"-21.477568","tecnologia":"GPON","uf":"SP","color":"green","longitude":"-47.362213","cidade":"Santa Rosa de Viterbo"},{"name":"Serra Negra, SP <br> GPON","latitude":"-22.613941","tecnologia":"GPON","uf":"SP","color":"green","longitude":"-46.703271","cidade":"Serra Negra"},{"name":"Serrana, SP <br> GPON","latitude":"-21.204336","tecnologia":"GPON","uf":"SP","color":"green","longitude":"-47.595239","cidade":"Serrana"},{"name":"Ubatuba, SP <br> GPON","latitude":"-23.433162","tecnologia":"GPON","uf":"SP","color":"green","longitude":"-45.083415","cidade":"Ubatuba"},{"name":"Votuporanga, SP <br> GPON","latitude":"-20.423659","tecnologia":"GPON","uf":"SP","color":"green","longitude":"-49.978112","cidade":"Votuporanga"}]
