[{"color":"green","uf":"AL","cidade":"Arapiraca","latitude":"-9.754866","longitude":"-36.661471","name":"Arapiraca, AL <br> GPON","tecnologia":"GPON"},{"color":"green","uf":"GO","cidade":"Trindade","latitude":"-16.651708","longitude":"-49.492667","name":"Trindade, GO <br> GPON","tecnologia":"GPON"},{"color":"green","uf":"MG","cidade":"Araxá","latitude":"-19.590176","longitude":"-46.943804","name":"Araxá, MG <br> GPON","tecnologia":"GPON"},{"color":"green","uf":"MG","cidade":"Itajubá","latitude":"-22.422481","longitude":"-45.459818","name":"Itajubá, MG <br> GPON","tecnologia":"GPON"},{"color":"green","uf":"RJ","cidade":"Paraíba Do Sul","latitude":"-22.158462","longitude":"-43.304004","name":"Paraíba Do Sul, RJ <br> GPON","tecnologia":"GPON"},{"color":"green","uf":"RO","cidade":"Ji-Paraná","latitude":"-10.877741","longitude":"-61.932152","name":"Ji-Paraná, RO <br> GPON","tecnologia":"GPON"},{"color":"green","uf":"RS","cidade":"Camaquã","latitude":"-30.848897","longitude":"-51.80431","name":"Camaquã, RS <br> GPON","tecnologia":"GPON"},{"color":"green","uf":"RS","cidade":"Dois Irmãos","latitude":"-29.58356","longitude":"-51.089776","name":"Dois Irmãos, RS <br> GPON","tecnologia":"GPON"},{"color":"green","uf":"RS","cidade":"Marau","latitude":"-28.449754","longitude":"-52.198625","name":"Marau, RS <br> GPON","tecnologia":"GPON"},{"color":"green","uf":"RS","cidade":"Vacaria","latitude":"-28.507868","longitude":"-50.941791","name":"Vacaria, RS <br> GPON","tecnologia":"GPON"},{"color":"green","uf":"SC","cidade":"Içara","latitude":"-28.713206","longitude":"-49.308654","name":"Içara, SC <br> GPON","tecnologia":"GPON"},{"color":"green","uf":"SP","cidade":"Agudos","latitude":"-22.469433","longitude":"-48.98632","name":"Agudos, SP <br> GPON","tecnologia":"GPON"},{"color":"green","uf":"SP","cidade":"Casa Branca","latitude":"-21.77081","longitude":"-47.085245","name":"Casa Branca, SP <br> GPON","tecnologia":"GPON"},{"color":"green","uf":"SP","cidade":"Ibaté","latitude":"-21.958358","longitude":"-47.988211","name":"Ibaté, SP <br> GPON","tecnologia":"GPON"},{"color":"green","uf":"SP","cidade":"Jaguariúna","latitude":"-22.70374","longitude":"-46.985062","name":"Jaguariúna, SP <br> GPON","tecnologia":"GPON"},{"color":"green","uf":"SP","cidade":"Piedade","latitude":"-23.713941","longitude":"-47.425572","name":"Piedade, SP <br> GPON","tecnologia":"GPON"},{"color":"green","uf":"SP","cidade":"Santa Cruz das Palmeiras","latitude":"-21.823475","longitude":"-47.248023","name":"Santa Cruz das Palmeiras, SP <br> GPON","tecnologia":"GPON"},{"color":"green","uf":"SP","cidade":"Tambaú","latitude":"-21.70292","longitude":"-47.270344","name":"Tambaú, SP <br> GPON","tecnologia":"GPON"},{"color":"green","uf":"TO","cidade":"Araguaína","latitude":"-7.192375","longitude":"-48.204402","name":"Araguaína, TO <br> GPON","tecnologia":"GPON"},{"color":"green","uf":"TO","cidade":"Gurupi","latitude":"-11.72794","longitude":"-49.068046","name":"Gurupi, TO <br> GPON","tecnologia":"GPON"},{"color":"green","uf":"AP","cidade":"Macapá","latitude":"0.034934","longitude":"-51.069395","name":"Macapá, AP <br> GPON","tecnologia":"GPON"},{"color":"green","uf":"AP","cidade":"Santana","latitude":"-0.045434","longitude":"-51.172924","name":"Santana, AP <br> GPON","tecnologia":"GPON"},{"color":"green","uf":"BA","cidade":"Alagoinhas","latitude":"-12.133526","longitude":"-38.420772","name":"Alagoinhas, BA <br> GPON","tecnologia":"GPON"},{"color":"green","uf":"BA","cidade":"Barreiras","latitude":"-12.143864","longitude":"-44.996838","name":"Barreiras, BA <br> GPON","tecnologia":"GPON"},{"color":"green","uf":"BA","cidade":"Camaçari","latitude":"-12.699638","longitude":"-38.326265","name":"Camaçari, BA <br> GPON","tecnologia":"GPON"},{"color":"green","uf":"BA","cidade":"Eunápolis","latitude":"-16.371498","longitude":"-39.582122","name":"Eunápolis, BA <br> GPON","tecnologia":"GPON"},{"color":"green","uf":"BA","cidade":"Feira de Santana","latitude":"-12.266429","longitude":"-38.966293","name":"Feira de Santana, BA <br> GPON","tecnologia":"GPON"},{"color":"green","uf":"BA","cidade":"Ilhéus","latitude":"-14.793045","longitude":"-39.04602","name":"Ilhéus, BA <br> GPON","tecnologia":"GPON"},{"color":"green","uf":"BA","cidade":"Itabuna","latitude":"-14.787573","longitude":"-39.278056","name":"Itabuna, BA <br> GPON","tecnologia":"GPON"},{"color":"green","uf":"BA","cidade":"Jequié","latitude":"-13.850888","longitude":"-40.087704","name":"Jequié, BA <br> GPON","tecnologia":"GPON"},{"color":"green","uf":"BA","cidade":"Juazeiro","latitude":"-9.416217","longitude":"-40.503251","name":"Juazeiro, BA <br> GPON","tecnologia":"GPON"},{"color":"green","uf":"BA","cidade":"Mata de São João","latitude":"-12.530685","longitude":"-38.300898","name":"Mata de São João, BA <br> GPON","tecnologia":"GPON"},{"color":"green","uf":"BA","cidade":"Porto Seguro","latitude":"-16.443473","longitude":"-39.064251","name":"Porto Seguro, BA <br> GPON","tecnologia":"GPON"},{"color":"green","uf":"BA","cidade":"Teixeira de Freitas","latitude":"-17.539915","longitude":"-39.739962","name":"Teixeira de Freitas, BA <br> GPON","tecnologia":"GPON"},{"color":"green","uf":"CE","cidade":"Aquiraz","latitude":"-3.899293","longitude":"-38.389563","name":"Aquiraz, CE <br> GPON","tecnologia":"GPON"},{"color":"green","uf":"CE","cidade":"Eusébio","latitude":"-3.892501","longitude":"-38.455875","name":"Eusébio, CE <br> GPON","tecnologia":"GPON"},{"color":"green","uf":"CE","cidade":"Juazeiro do Norte","latitude":"-7.196207","longitude":"-39.307593","name":"Juazeiro do Norte, CE <br> GPON","tecnologia":"GPON"},{"color":"green","uf":"CE","cidade":"Sobral","latitude":"-3.689133","longitude":"-40.34821","name":"Sobral, CE <br> GPON","tecnologia":"GPON"},{"color":"green","uf":"ES","cidade":"Aracruz","latitude":"-19.820045","longitude":"-40.276441","name":"Aracruz, ES <br> GPON","tecnologia":"GPON"},{"color":"green","uf":"ES","cidade":"Colatina","latitude":"-19.549316","longitude":"-40.626898","name":"Colatina, ES <br> GPON","tecnologia":"GPON"},{"color":"green","uf":"GO","cidade":"Caldas Novas","latitude":"-17.74406","longitude":"-48.624579","name":"Caldas Novas, GO <br> GPON","tecnologia":"GPON"},{"color":"green","uf":"GO","cidade":"Formosa","latitude":"-15.539991","longitude":"-47.336999","name":"Formosa, GO <br> GPON","tecnologia":"GPON"},{"color":"green","uf":"GO","cidade":"Itumbiara","latitude":"-18.409267","longitude":"-49.215845","name":"Itumbiara, GO <br> GPON","tecnologia":"GPON"},{"color":"green","uf":"GO","cidade":"Jataí","latitude":"-17.878383","longitude":"-51.720424","name":"Jataí, GO <br> GPON","tecnologia":"GPON"},{"color":"green","uf":"GO","cidade":"Rio Verde","latitude":"-17.792266","longitude":"-50.919195","name":"Rio Verde, GO <br> GPON","tecnologia":"GPON"},{"color":"green","uf":"GO","cidade":"Santa Helena de Goiás","latitude":"-17.81152","longitude":"-50.597664","name":"Santa Helena de Goiás, GO <br> GPON","tecnologia":"GPON"},{"color":"green","uf":"GO","cidade":"Senador Canedo","latitude":"-16.708401","longitude":"-49.091398","name":"Senador Canedo, GO <br> GPON","tecnologia":"GPON"},{"color":"green","uf":"GO","cidade":"Valparaíso de Goiás","latitude":"-16.065078","longitude":"-47.975675","name":"Valparaíso de Goiás, GO <br> GPON","tecnologia":"GPON"},{"color":"green","uf":"MA","cidade":"Caxias","latitude":"-4.865053","longitude":"-43.361749","name":"Caxias, MA <br> GPON","tecnologia":"GPON"},{"color":"green","uf":"MA","cidade":"Imperatriz","latitude":"-5.518471","longitude":"-47.477726","name":"Imperatriz, MA <br> GPON","tecnologia":"GPON"},{"color":"green","uf":"MA","cidade":"Timon","latitude":"-5.097692","longitude":"-42.83292","name":"Timon, MA <br> GPON","tecnologia":"GPON"},{"color":"green","uf":"MG","cidade":"Araguari","latitude":"-18.645575","longitude":"-48.193392","name":"Araguari, MG <br> GPON","tecnologia":"GPON"},{"color":"green","uf":"MG","cidade":"Barbacena","latitude":"-21.221446","longitude":"-43.770266","name":"Barbacena, MG <br> GPON","tecnologia":"GPON"},{"color":"green","uf":"MG","cidade":"Cataguases","latitude":"-21.39239","longitude":"-42.689647","name":"Cataguases, MG <br> GPON","tecnologia":"GPON"},{"color":"green","uf":"MG","cidade":"Conselheiro Lafaiete","latitude":"-20.663445","longitude":"-43.784609","name":"Conselheiro Lafaiete, MG <br> GPON","tecnologia":"GPON"},{"color":"green","uf":"MG","cidade":"Coronel Fabriciano","latitude":"-19.517879","longitude":"-42.627585","name":"Coronel Fabriciano, MG <br> GPON","tecnologia":"GPON"},{"color":"green","uf":"MG","cidade":"Divinópolis","latitude":"-20.144646","longitude":"-44.891223","name":"Divinópolis, MG <br> GPON","tecnologia":"GPON"},{"color":"green","uf":"MG","cidade":"Itabira","latitude":"-19.623936","longitude":"-43.23123","name":"Itabira, MG <br> GPON","tecnologia":"GPON"},{"color":"green","uf":"MG","cidade":"Itaúna","latitude":"-20.081798","longitude":"-44.580112","name":"Itaúna, MG <br> GPON","tecnologia":"GPON"},{"color":"green","uf":"MG","cidade":"Ituiutaba","latitude":"-18.977191","longitude":"-49.463945","name":"Ituiutaba, MG <br> GPON","tecnologia":"GPON"},{"color":"green","uf":"MG","cidade":"Lagoa Santa","latitude":"-19.63967","longitude":"-43.893216","name":"Lagoa Santa, MG <br> GPON","tecnologia":"GPON"},{"color":"green","uf":"MG","cidade":"Lavras","latitude":"-21.248002","longitude":"-45.000949","name":"Lavras, MG <br> GPON","tecnologia":"GPON"},{"color":"green","uf":"MG","cidade":"Manhuaçu","latitude":"-20.257226","longitude":"-42.027987","name":"Manhuaçu, MG <br> GPON","tecnologia":"GPON"},{"color":"green","uf":"MG","cidade":"Montes Claros","latitude":"-16.728177","longitude":"-43.857809","name":"Montes Claros, MG <br> GPON","tecnologia":"GPON"},{"color":"green","uf":"MG","cidade":"Pará de Minas","latitude":"-19.853441","longitude":"-44.611355","name":"Pará de Minas, MG <br> GPON","tecnologia":"GPON"},{"color":"green","uf":"MG","cidade":"Patos de Minas","latitude":"-18.569938","longitude":"-46.501268","name":"Patos de Minas, MG <br> GPON","tecnologia":"GPON"},{"color":"green","uf":"MG","cidade":"Poços de Caldas","latitude":"-21.779975","longitude":"-46.569184","name":"Poços de Caldas, MG <br> GPON","tecnologia":"GPON"},{"color":"green","uf":"MG","cidade":"Pouso Alegre","latitude":"-22.22659","longitude":"-45.938935","name":"Pouso Alegre, MG <br> GPON","tecnologia":"GPON"},{"color":"green","uf":"MG","cidade":"Santa Luzia","latitude":"-19.754824","longitude":"-43.849658","name":"Santa Luzia, MG <br> GPON","tecnologia":"GPON"},{"color":"green","uf":"MG","cidade":"São João Del Rei","latitude":"-21.131054","longitude":"-44.252646","name":"São João Del Rei, MG <br> GPON","tecnologia":"GPON"},{"color":"green","uf":"MG","cidade":"Timóteo","latitude":"-19.581086","longitude":"-42.64713","name":"Timóteo, MG <br> GPON","tecnologia":"GPON"},{"color":"green","uf":"MG","cidade":"Três Corações","latitude":"-21.692091","longitude":"-45.251117","name":"Três Corações, MG <br> GPON","tecnologia":"GPON"},{"color":"green","uf":"MG","cidade":"Ubá","latitude":"-21.120444","longitude":"-42.935931","name":"Ubá, MG <br> GPON","tecnologia":"GPON"},{"color":"green","uf":"MG","cidade":"Vespasiano","latitude":"-19.688326","longitude":"-43.9239","name":"Vespasiano, MG <br> GPON","tecnologia":"GPON"},{"color":"green","uf":"MG","cidade":"Viçosa","latitude":"-20.755916","longitude":"-42.87417","name":"Viçosa, MG <br> GPON","tecnologia":"GPON"},{"color":"green","uf":"MS","cidade":"Naviraí","latitude":"-23.06181","longitude":"-54.199465","name":"Naviraí, MS <br> GPON","tecnologia":"GPON"},{"color":"green","uf":"MS","cidade":"Ponta Porã","latitude":"-22.529617","longitude":"-55.720326","name":"Ponta Porã, MS <br> GPON","tecnologia":"GPON"},{"color":"green","uf":"MS","cidade":"Três Lagoas","latitude":"-20.784853","longitude":"-51.700731","name":"Três Lagoas, MS <br> GPON","tecnologia":"GPON"},{"color":"green","uf":"MT","cidade":"Lucas do Rio Verde","latitude":"-13.058796","longitude":"-55.904202","name":"Lucas do Rio Verde, MT <br> GPON","tecnologia":"GPON"},{"color":"green","uf":"MT","cidade":"Nova Mutum","latitude":"-13.837389","longitude":"-56.074316","name":"Nova Mutum, MT <br> GPON","tecnologia":"GPON"},{"color":"green","uf":"MT","cidade":"Sinop","latitude":"-11.86043","longitude":"-55.509062","name":"Sinop, MT <br> GPON","tecnologia":"GPON"},{"color":"green","uf":"MT","cidade":"Sorriso","latitude":"-12.542527","longitude":"-55.721051","name":"Sorriso, MT <br> GPON","tecnologia":"GPON"},{"color":"green","uf":"PA","cidade":"Castanhal","latitude":"-1.297971","longitude":"-47.916742","name":"Castanhal, PA <br> GPON","tecnologia":"GPON"},{"color":"green","uf":"PA","cidade":"Marabá","latitude":"-5.38075","longitude":"-49.132672","name":"Marabá, PA <br> GPON","tecnologia":"GPON"},{"color":"green","uf":"PA","cidade":"Paragominas","latitude":"-3.002116","longitude":"-47.352692","name":"Paragominas, PA <br> GPON","tecnologia":"GPON"},{"color":"green","uf":"PA","cidade":"Parauapebas","latitude":"-6.067812","longitude":"-49.903733","name":"Parauapebas, PA <br> GPON","tecnologia":"GPON"},{"color":"green","uf":"PE","cidade":"Petrolina","latitude":"-9.388662","longitude":"-40.502731","name":"Petrolina, PE <br> GPON","tecnologia":"GPON"},{"color":"green","uf":"PI","cidade":"Parnaíba","latitude":"-2.905847","longitude":"-41.775388","name":"Parnaíba, PI <br> GPON","tecnologia":"GPON"},{"color":"green","uf":"PR","cidade":"Apucarana","latitude":"-23.549961","longitude":"-51.463486","name":"Apucarana, PR <br> GPON","tecnologia":"GPON"},{"color":"green","uf":"PR","cidade":"Cambé","latitude":"-23.276575","longitude":"-51.279832","name":"Cambé, PR <br> GPON","tecnologia":"GPON"},{"color":"green","uf":"PR","cidade":"Paranaguá","latitude":"-25.516078","longitude":"-48.522528","name":"Paranaguá, PR <br> GPON","tecnologia":"GPON"},{"color":"green","uf":"PR","cidade":"Rolândia","latitude":"-23.31012","longitude":"-51.365928","name":"Rolândia, PR <br> GPON","tecnologia":"GPON"},{"color":"green","uf":"RJ","cidade":"Armação Dos Búzios","latitude":"-22.752846","longitude":"-41.884559","name":"Armação Dos Búzios, RJ <br> GPON","tecnologia":"GPON"},{"color":"green","uf":"RJ","cidade":"Cabo Frio","latitude":"-22.88943","longitude":"-42.028595","name":"Cabo Frio, RJ <br> GPON","tecnologia":"GPON"},{"color":"green","uf":"RJ","cidade":"Itaguaí","latitude":"-22.863566","longitude":"-43.779821","name":"Itaguaí, RJ <br> GPON","tecnologia":"GPON"},{"color":"green","uf":"RJ","cidade":"Miguel Pereira","latitude":"-22.457242","longitude":"-43.480275","name":"Miguel Pereira, RJ <br> GPON","tecnologia":"GPON"},{"color":"green","uf":"RJ","cidade":"Nova Friburgo","latitude":"-22.293224","longitude":"-42.537692","name":"Nova Friburgo, RJ <br> GPON","tecnologia":"GPON"},{"color":"green","uf":"RJ","cidade":"São Pedro da Aldeia","latitude":"-22.842859","longitude":"-42.102596","name":"São Pedro da Aldeia, RJ <br> GPON","tecnologia":"GPON"},{"color":"green","uf":"RJ","cidade":"Três Rios","latitude":"-22.11651","longitude":"-43.218533","name":"Três Rios, RJ <br> GPON","tecnologia":"GPON"},{"color":"green","uf":"RJ","cidade":"Valença","latitude":"-22.244496","longitude":"-43.71288","name":"Valença, RJ <br> GPON","tecnologia":"GPON"},{"color":"green","uf":"RJ","cidade":"Vassouras","latitude":"-22.405889","longitude":"-43.668555","name":"Vassouras, RJ <br> GPON","tecnologia":"GPON"},{"color":"green","uf":"RN","cidade":"Mossoró","latitude":"-5.183737","longitude":"-37.347446","name":"Mossoró, RN <br> GPON","tecnologia":"GPON"},{"color":"green","uf":"RO","cidade":"Ariquemes","latitude":"-9.905711","longitude":"-63.032516","name":"Ariquemes, RO <br> GPON","tecnologia":"GPON"},{"color":"green","uf":"RO","cidade":"Cacoal","latitude":"-11.434271","longitude":"-61.456167","name":"Cacoal, RO <br> GPON","tecnologia":"GPON"},{"color":"green","uf":"RO","cidade":"Vilhena","latitude":"-12.750183","longitude":"-60.148847","name":"Vilhena, RO <br> GPON","tecnologia":"GPON"},{"color":"green","uf":"RS","cidade":"Alegrete","latitude":"-29.790166","longitude":"-55.794862","name":"Alegrete, RS <br> GPON","tecnologia":"GPON"},{"color":"green","uf":"RS","cidade":"Arroio do Meio","latitude":"-29.401353","longitude":"-51.955735","name":"Arroio do Meio, RS <br> GPON","tecnologia":"GPON"},{"color":"green","uf":"RS","cidade":"Cachoeira do Sul","latitude":"-30.032988","longitude":"-52.892756","name":"Cachoeira do Sul, RS <br> GPON","tecnologia":"GPON"},{"color":"green","uf":"RS","cidade":"Canela","latitude":"-29.355993","longitude":"-50.811921","name":"Canela, RS <br> GPON","tecnologia":"GPON"},{"color":"green","uf":"RS","cidade":"Carazinho","latitude":"-28.295844","longitude":"-52.79326","name":"Carazinho, RS <br> GPON","tecnologia":"GPON"},{"color":"green","uf":"RS","cidade":"Carlos Barbosa","latitude":"-29.296949","longitude":"-51.502847","name":"Carlos Barbosa, RS <br> GPON","tecnologia":"GPON"},{"color":"green","uf":"RS","cidade":"Charqueadas","latitude":"-29.962478","longitude":"-51.628872","name":"Charqueadas, RS <br> GPON","tecnologia":"GPON"},{"color":"green","uf":"RS","cidade":"Eldorado do Sul","latitude":"-30.084676","longitude":"-51.618702","name":"Eldorado do Sul, RS <br> GPON","tecnologia":"GPON"},{"color":"green","uf":"RS","cidade":"Encantado","latitude":"-29.235141","longitude":"-51.870282","name":"Encantado, RS <br> GPON","tecnologia":"GPON"},{"color":"green","uf":"RS","cidade":"Estrela","latitude":"-29.500207","longitude":"-51.949508","name":"Estrela, RS <br> GPON","tecnologia":"GPON"},{"color":"green","uf":"RS","cidade":"Frederico Westphalen","latitude":"-27.358644","longitude":"-53.395824","name":"Frederico Westphalen, RS <br> GPON","tecnologia":"GPON"},{"color":"green","uf":"RS","cidade":"Garibaldi","latitude":"-29.258979","longitude":"-51.535179","name":"Garibaldi, RS <br> GPON","tecnologia":"GPON"},{"color":"green","uf":"RS","cidade":"Gramado","latitude":"-29.373351","longitude":"-50.876164","name":"Gramado, RS <br> GPON","tecnologia":"GPON"},{"color":"green","uf":"RS","cidade":"Guaíba","latitude":"-30.108592","longitude":"-51.323314","name":"Guaíba, RS <br> GPON","tecnologia":"GPON"},{"color":"green","uf":"RS","cidade":"Igrejinha","latitude":"-29.569318","longitude":"-50.791894","name":"Igrejinha, RS <br> GPON","tecnologia":"GPON"},{"color":"green","uf":"RS","cidade":"Imbé","latitude":"-29.975269","longitude":"-50.128068","name":"Imbé, RS <br> GPON","tecnologia":"GPON"},{"color":"green","uf":"RS","cidade":"Itaqui","latitude":"-29.131051","longitude":"-56.551478","name":"Itaqui, RS <br> GPON","tecnologia":"GPON"},{"color":"green","uf":"RS","cidade":"Ivoti","latitude":"-29.599463","longitude":"-51.153326","name":"Ivoti, RS <br> GPON","tecnologia":"GPON"},{"color":"green","uf":"RS","cidade":"Montenegro","latitude":"-29.682414","longitude":"-51.467903","name":"Montenegro, RS <br> GPON","tecnologia":"GPON"},{"color":"green","uf":"RS","cidade":"Nova Petrópolis","latitude":"-29.374112","longitude":"-51.113552","name":"Nova Petrópolis, RS <br> GPON","tecnologia":"GPON"},{"color":"green","uf":"RS","cidade":"Osório","latitude":"-29.888089","longitude":"-50.266713","name":"Osório, RS <br> GPON","tecnologia":"GPON"},{"color":"green","uf":"RS","cidade":"Palmeira Das Missões","latitude":"-27.900652","longitude":"-53.313378","name":"Palmeira Das Missões, RS <br> GPON","tecnologia":"GPON"},{"color":"green","uf":"RS","cidade":"Panambi","latitude":"-28.283328","longitude":"-53.502261","name":"Panambi, RS <br> GPON","tecnologia":"GPON"},{"color":"green","uf":"RS","cidade":"Parobé","latitude":"-29.624257","longitude":"-50.83118","name":"Parobé, RS <br> GPON","tecnologia":"GPON"},{"color":"green","uf":"RS","cidade":"Rio Pardo","latitude":"-29.98803","longitude":"-52.37113","name":"Rio Pardo, RS <br> GPON","tecnologia":"GPON"},{"color":"green","uf":"RS","cidade":"Rosário do Sul","latitude":"-30.251483","longitude":"-54.922106","name":"Rosário do Sul, RS <br> GPON","tecnologia":"GPON"},{"color":"green","uf":"RS","cidade":"Santa Rosa","latitude":"-27.8702","longitude":"-54.479629","name":"Santa Rosa, RS <br> GPON","tecnologia":"GPON"},{"color":"green","uf":"RS","cidade":"Santana do Livramento","latitude":"-30.88772","longitude":"-55.531467","name":"Santana do Livramento, RS <br> GPON","tecnologia":"GPON"},{"color":"green","uf":"RS","cidade":"Santo Ângelo","latitude":"-28.300128","longitude":"-54.266781","name":"Santo Ângelo, RS <br> GPON","tecnologia":"GPON"},{"color":"green","uf":"RS","cidade":"São Borja","latitude":"-28.657828","longitude":"-56.003603","name":"São Borja, RS <br> GPON","tecnologia":"GPON"},{"color":"green","uf":"RS","cidade":"São Gabriel","latitude":"-30.333688","longitude":"-54.321657","name":"São Gabriel, RS <br> GPON","tecnologia":"GPON"},{"color":"green","uf":"RS","cidade":"São Lourenço do Sul","latitude":"-31.356374","longitude":"-51.971531","name":"São Lourenço do Sul, RS <br> GPON","tecnologia":"GPON"},{"color":"green","uf":"RS","cidade":"São Luiz Gonzaga","latitude":"-28.412032","longitude":"-54.955942","name":"São Luiz Gonzaga, RS <br> GPON","tecnologia":"GPON"},{"color":"green","uf":"RS","cidade":"Taquara","latitude":"-29.650471","longitude":"-50.775278","name":"Taquara, RS <br> GPON","tecnologia":"GPON"},{"color":"green","uf":"RS","cidade":"Teutônia","latitude":"-29.448205","longitude":"-51.804375","name":"Teutônia, RS <br> GPON","tecnologia":"GPON"},{"color":"green","uf":"RS","cidade":"Torres","latitude":"-29.333438","longitude":"-49.733289","name":"Torres, RS <br> GPON","tecnologia":"GPON"},{"color":"green","uf":"RS","cidade":"Tramandaí","latitude":"-29.98414","longitude":"-50.132187","name":"Tramandaí, RS <br> GPON","tecnologia":"GPON"},{"color":"green","uf":"RS","cidade":"Três Coroas","latitude":"-29.513719","longitude":"-50.773869","name":"Três Coroas, RS <br> GPON","tecnologia":"GPON"},{"color":"green","uf":"RS","cidade":"Venâncio Aires","latitude":"-29.614306","longitude":"-52.193159","name":"Venâncio Aires, RS <br> GPON","tecnologia":"GPON"},{"color":"green","uf":"RS","cidade":"Vera Cruz","latitude":"-29.718435","longitude":"-52.515176","name":"Vera Cruz, RS <br> GPON","tecnologia":"GPON"},{"color":"green","uf":"RS","cidade":"Veranópolis","latitude":"-28.931197","longitude":"-51.551614","name":"Veranópolis, RS <br> GPON","tecnologia":"GPON"},{"color":"green","uf":"SC","cidade":"Araranguá","latitude":"-28.935615","longitude":"-49.491809","name":"Araranguá, SC <br> GPON","tecnologia":"GPON"},{"color":"green","uf":"SC","cidade":"Biguaçu","latitude":"-27.496004","longitude":"-48.65979","name":"Biguaçu, SC <br> GPON","tecnologia":"GPON"},{"color":"green","uf":"SC","cidade":"Caçador","latitude":"-26.77567","longitude":"-51.012004","name":"Caçador, SC <br> GPON","tecnologia":"GPON"},{"color":"green","uf":"SC","cidade":"Camboriú","latitude":"-27.024078","longitude":"-48.650338","name":"Camboriú, SC <br> GPON","tecnologia":"GPON"},{"color":"green","uf":"SC","cidade":"Concórdia","latitude":"-27.233461","longitude":"-52.025962","name":"Concórdia, SC <br> GPON","tecnologia":"GPON"},{"color":"green","uf":"SC","cidade":"Fraiburgo","latitude":"-27.023288","longitude":"-50.919978","name":"Fraiburgo, SC <br> GPON","tecnologia":"GPON"},{"color":"green","uf":"SC","cidade":"Gaspar","latitude":"-26.933597","longitude":"-48.953428","name":"Gaspar, SC <br> GPON","tecnologia":"GPON"},{"color":"green","uf":"SC","cidade":"Guaramirim","latitude":"-26.468753","longitude":"-49.002628","name":"Guaramirim, SC <br> GPON","tecnologia":"GPON"},{"color":"green","uf":"SC","cidade":"Indaial","latitude":"-26.899247","longitude":"-49.235417","name":"Indaial, SC <br> GPON","tecnologia":"GPON"},{"color":"green","uf":"SC","cidade":"Jaraguá do Sul","latitude":"-26.485083","longitude":"-49.07125","name":"Jaraguá do Sul, SC <br> GPON","tecnologia":"GPON"},{"color":"green","uf":"SC","cidade":"Joaçaba","latitude":"-27.172105","longitude":"-51.510788","name":"Joaçaba, SC <br> GPON","tecnologia":"GPON"},{"color":"green","uf":"SC","cidade":"Lages","latitude":"-27.814966","longitude":"-50.325862","name":"Lages, SC <br> GPON","tecnologia":"GPON"},{"color":"green","uf":"SC","cidade":"Mafra","latitude":"-26.115935","longitude":"-49.808624","name":"Mafra, SC <br> GPON","tecnologia":"GPON"},{"color":"green","uf":"SC","cidade":"Rio do Sul","latitude":"-27.215596","longitude":"-49.643016","name":"Rio do Sul, SC <br> GPON","tecnologia":"GPON"},{"color":"green","uf":"SC","cidade":"Rio Negrinho","latitude":"-26.259075","longitude":"-49.517746","name":"Rio Negrinho, SC <br> GPON","tecnologia":"GPON"},{"color":"green","uf":"SC","cidade":"São Bento do Sul","latitude":"-26.249542","longitude":"-49.383077","name":"São Bento do Sul, SC <br> GPON","tecnologia":"GPON"},{"color":"green","uf":"SC","cidade":"São Francisco do Sul","latitude":"-26.257917","longitude":"-48.634372","name":"São Francisco do Sul, SC <br> GPON","tecnologia":"GPON"},{"color":"green","uf":"SC","cidade":"Timbó","latitude":"-26.82464","longitude":"-49.269039","name":"Timbó, SC <br> GPON","tecnologia":"GPON"},{"color":"green","uf":"SC","cidade":"Tubarão","latitude":"-28.47131","longitude":"-49.014371","name":"Tubarão, SC <br> GPON","tecnologia":"GPON"},{"color":"green","uf":"SC","cidade":"Videira","latitude":"-27.008624","longitude":"-51.154274","name":"Videira, SC <br> GPON","tecnologia":"GPON"},{"color":"green","uf":"SC","cidade":"Xanxerê","latitude":"-26.874694","longitude":"-52.403579","name":"Xanxerê, SC <br> GPON","tecnologia":"GPON"},{"color":"green","uf":"SC","cidade":"Xaxim","latitude":"-26.959643","longitude":"-52.537446","name":"Xaxim, SC <br> GPON","tecnologia":"GPON"},{"color":"green","uf":"SP","cidade":"Adamantina","latitude":"-21.682012","longitude":"-51.073695","name":"Adamantina, SP <br> GPON","tecnologia":"GPON"},{"color":"green","uf":"SP","cidade":"Alumínio","latitude":"-23.530553","longitude":"-47.254571","name":"Alumínio, SP <br> GPON","tecnologia":"GPON"},{"color":"green","uf":"SP","cidade":"Álvares Machado","latitude":"-22.076415","longitude":"-51.47224","name":"Álvares Machado, SP <br> GPON","tecnologia":"GPON"},{"color":"green","uf":"SP","cidade":"Américo Brasiliense","latitude":"-21.728771","longitude":"-48.11467","name":"Américo Brasiliense, SP <br> GPON","tecnologia":"GPON"},{"color":"green","uf":"SP","cidade":"Amparo","latitude":"-22.70879","longitude":"-46.772022","name":"Amparo, SP <br> GPON","tecnologia":"GPON"},{"color":"green","uf":"SP","cidade":"Andradina","latitude":"-20.894761","longitude":"-51.378568","name":"Andradina, SP <br> GPON","tecnologia":"GPON"},{"color":"green","uf":"SP","cidade":"Arujá","latitude":"-23.396476","longitude":"-46.319983","name":"Arujá, SP <br> GPON","tecnologia":"GPON"},{"color":"green","uf":"SP","cidade":"Avaré","latitude":"-23.106732","longitude":"-48.925052","name":"Avaré, SP <br> GPON","tecnologia":"GPON"},{"color":"green","uf":"SP","cidade":"Bady Bassitt","latitude":"-20.919689","longitude":"-49.4385","name":"Bady Bassitt, SP <br> GPON","tecnologia":"GPON"},{"color":"green","uf":"SP","cidade":"Barretos","latitude":"-20.553146","longitude":"-48.569832","name":"Barretos, SP <br> GPON","tecnologia":"GPON"},{"color":"green","uf":"SP","cidade":"Barrinha","latitude":"-21.186374","longitude":"-48.163614","name":"Barrinha, SP <br> GPON","tecnologia":"GPON"},{"color":"green","uf":"SP","cidade":"Batatais","latitude":"-20.892867","longitude":"-47.592149","name":"Batatais, SP <br> GPON","tecnologia":"GPON"},{"color":"green","uf":"SP","cidade":"Bebedouro","latitude":"-20.949077","longitude":"-48.479083","name":"Bebedouro, SP <br> GPON","tecnologia":"GPON"},{"color":"green","uf":"SP","cidade":"Birigui","latitude":"-21.291034","longitude":"-50.343162","name":"Birigui, SP <br> GPON","tecnologia":"GPON"},{"color":"green","uf":"SP","cidade":"Boituva","latitude":"-23.285531","longitude":"-47.678574","name":"Boituva, SP <br> GPON","tecnologia":"GPON"},{"color":"green","uf":"SP","cidade":"Cabreúva","latitude":"-23.30533","longitude":"-47.136251","name":"Cabreúva, SP <br> GPON","tecnologia":"GPON"},{"color":"green","uf":"SP","cidade":"Caieiras","latitude":"-23.360729","longitude":"-46.73974","name":"Caieiras, SP <br> GPON","tecnologia":"GPON"},{"color":"green","uf":"SP","cidade":"Cajamar","latitude":"-23.355014","longitude":"-46.878146","name":"Cajamar, SP <br> GPON","tecnologia":"GPON"},{"color":"green","uf":"SP","cidade":"Campo Limpo Paulista","latitude":"-23.207791","longitude":"-46.788919","name":"Campo Limpo Paulista, SP <br> GPON","tecnologia":"GPON"},{"color":"green","uf":"SP","cidade":"Campos do Jordão","latitude":"-22.729618","longitude":"-45.583337","name":"Campos do Jordão, SP <br> GPON","tecnologia":"GPON"},{"color":"green","uf":"SP","cidade":"Caraguatatuba","latitude":"-23.612535","longitude":"-45.412533","name":"Caraguatatuba, SP <br> GPON","tecnologia":"GPON"},{"color":"green","uf":"SP","cidade":"Catanduva","latitude":"-21.131381","longitude":"-48.977015","name":"Catanduva, SP <br> GPON","tecnologia":"GPON"},{"color":"green","uf":"SP","cidade":"Cerquilho","latitude":"-23.166487","longitude":"-47.745862","name":"Cerquilho, SP <br> GPON","tecnologia":"GPON"},{"color":"green","uf":"SP","cidade":"Cordeirópolis","latitude":"-22.477778","longitude":"-47.451886","name":"Cordeirópolis, SP <br> GPON","tecnologia":"GPON"},{"color":"green","uf":"SP","cidade":"Cravinhos","latitude":"-21.337959","longitude":"-47.732427","name":"Cravinhos, SP <br> GPON","tecnologia":"GPON"},{"color":"green","uf":"SP","cidade":"Descalvado","latitude":"-21.900211","longitude":"-47.618105","name":"Descalvado, SP <br> GPON","tecnologia":"GPON"},{"color":"green","uf":"SP","cidade":"Dracena","latitude":"-21.484311","longitude":"-51.535034","name":"Dracena, SP <br> GPON","tecnologia":"GPON"},{"color":"green","uf":"SP","cidade":"Espírito Santo do Pinhal","latitude":"-22.190871","longitude":"-46.74767","name":"Espírito Santo do Pinhal, SP <br> GPON","tecnologia":"GPON"},{"color":"green","uf":"SP","cidade":"Fernandópolis","latitude":"-20.280556","longitude":"-50.247115","name":"Fernandópolis, SP <br> GPON","tecnologia":"GPON"},{"color":"green","uf":"SP","cidade":"Garça","latitude":"-22.212516","longitude":"-49.654596","name":"Garça, SP <br> GPON","tecnologia":"GPON"},{"color":"green","uf":"SP","cidade":"Guaíra","latitude":"-20.319591","longitude":"-48.31197","name":"Guaíra, SP <br> GPON","tecnologia":"GPON"},{"color":"green","uf":"SP","cidade":"Guapiaçu","latitude":"-20.795885","longitude":"-49.217201","name":"Guapiaçu, SP <br> GPON","tecnologia":"GPON"},{"color":"green","uf":"SP","cidade":"Guararapes","latitude":"-21.254431","longitude":"-50.645338","name":"Guararapes, SP <br> GPON","tecnologia":"GPON"},{"color":"green","uf":"SP","cidade":"Ibiúna","latitude":"-23.65961","longitude":"-47.223037","name":"Ibiúna, SP <br> GPON","tecnologia":"GPON"},{"color":"green","uf":"SP","cidade":"Iperó","latitude":"-23.351296","longitude":"-47.692717","name":"Iperó, SP <br> GPON","tecnologia":"GPON"},{"color":"green","uf":"SP","cidade":"Itanhaém","latitude":"-24.173633","longitude":"-46.787986","name":"Itanhaém, SP <br> GPON","tecnologia":"GPON"},{"color":"green","uf":"SP","cidade":"Itapeva","latitude":"-23.978823","longitude":"-48.876433","name":"Itapeva, SP <br> GPON","tecnologia":"GPON"},{"color":"green","uf":"SP","cidade":"Itapira","latitude":"-22.435731","longitude":"-46.822434","name":"Itapira, SP <br> GPON","tecnologia":"GPON"},{"color":"green","uf":"SP","cidade":"Itaquaquecetuba","latitude":"-23.483481","longitude":"-46.345724","name":"Itaquaquecetuba, SP <br> GPON","tecnologia":"GPON"},{"color":"green","uf":"SP","cidade":"Itatiba","latitude":"-23.003497","longitude":"-46.846353","name":"Itatiba, SP <br> GPON","tecnologia":"GPON"},{"color":"green","uf":"SP","cidade":"Itupeva","latitude":"-23.152635","longitude":"-47.059262","name":"Itupeva, SP <br> GPON","tecnologia":"GPON"},{"color":"green","uf":"SP","cidade":"Ituverava","latitude":"-20.335465","longitude":"-47.790207","name":"Ituverava, SP <br> GPON","tecnologia":"GPON"},{"color":"green","uf":"SP","cidade":"Jaboticabal","latitude":"-21.252037","longitude":"-48.325223","name":"Jaboticabal, SP <br> GPON","tecnologia":"GPON"},{"color":"green","uf":"SP","cidade":"Jales","latitude":"-20.267227","longitude":"-50.549442","name":"Jales, SP <br> GPON","tecnologia":"GPON"},{"color":"green","uf":"SP","cidade":"Jardinópolis","latitude":"-21.017612","longitude":"-47.760583","name":"Jardinópolis, SP <br> GPON","tecnologia":"GPON"},{"color":"green","uf":"SP","cidade":"Jarinu","latitude":"-23.103855","longitude":"-46.728015","name":"Jarinu, SP <br> GPON","tecnologia":"GPON"},{"color":"green","uf":"SP","cidade":"José Bonifácio","latitude":"-21.055062","longitude":"-49.689233","name":"José Bonifácio, SP <br> GPON","tecnologia":"GPON"},{"color":"green","uf":"SP","cidade":"Laranjal Paulista","latitude":"-23.050564","longitude":"-47.837549","name":"Laranjal Paulista, SP <br> GPON","tecnologia":"GPON"},{"color":"green","uf":"SP","cidade":"Leme","latitude":"-22.180857","longitude":"-47.384109","name":"Leme, SP <br> GPON","tecnologia":"GPON"},{"color":"green","uf":"SP","cidade":"Lençóis Paulista","latitude":"-22.602693","longitude":"-48.803683","name":"Lençóis Paulista, SP <br> GPON","tecnologia":"GPON"},{"color":"green","uf":"SP","cidade":"Lins","latitude":"-21.67182","longitude":"-49.752555","name":"Lins, SP <br> GPON","tecnologia":"GPON"},{"color":"green","uf":"SP","cidade":"Louveira","latitude":"-23.085572","longitude":"-46.948369","name":"Louveira, SP <br> GPON","tecnologia":"GPON"},{"color":"green","uf":"SP","cidade":"Mairinque","latitude":"-23.539822","longitude":"-47.184995","name":"Mairinque, SP <br> GPON","tecnologia":"GPON"},{"color":"green","uf":"SP","cidade":"Matão","latitude":"-21.602511","longitude":"-48.363968","name":"Matão, SP <br> GPON","tecnologia":"GPON"},{"color":"green","uf":"SP","cidade":"Mirandópolis","latitude":"-21.131345","longitude":"-51.1035","name":"Mirandópolis, SP <br> GPON","tecnologia":"GPON"},{"color":"green","uf":"SP","cidade":"Mirassol","latitude":"-20.816874","longitude":"-49.52061","name":"Mirassol, SP <br> GPON","tecnologia":"GPON"},{"color":"green","uf":"SP","cidade":"Mococa","latitude":"-21.464731","longitude":"-47.002405","name":"Mococa, SP <br> GPON","tecnologia":"GPON"},{"color":"green","uf":"SP","cidade":"Mongaguá","latitude":"-24.080901","longitude":"-46.626526","name":"Mongaguá, SP <br> GPON","tecnologia":"GPON"},{"color":"green","uf":"SP","cidade":"Monte Alto","latitude":"-21.265545","longitude":"-48.497066","name":"Monte Alto, SP <br> GPON","tecnologia":"GPON"},{"color":"green","uf":"SP","cidade":"Morungaba","latitude":"-22.881071","longitude":"-46.789601","name":"Morungaba, SP <br> GPON","tecnologia":"GPON"},{"color":"green","uf":"SP","cidade":"Orlândia","latitude":"-20.716925","longitude":"-47.885205","name":"Orlândia, SP <br> GPON","tecnologia":"GPON"},{"color":"green","uf":"SP","cidade":"Ourinhos","latitude":"-22.979695","longitude":"-49.869702","name":"Ourinhos, SP <br> GPON","tecnologia":"GPON"},{"color":"green","uf":"SP","cidade":"Pedreira","latitude":"-22.741347","longitude":"-46.894846","name":"Pedreira, SP <br> GPON","tecnologia":"GPON"},{"color":"green","uf":"SP","cidade":"Penápolis","latitude":"-21.414765","longitude":"-50.076855","name":"Penápolis, SP <br> GPON","tecnologia":"GPON"},{"color":"green","uf":"SP","cidade":"Peruíbe","latitude":"-24.311974","longitude":"-47.0012","name":"Peruíbe, SP <br> GPON","tecnologia":"GPON"},{"color":"green","uf":"SP","cidade":"Piracaia","latitude":"-23.052545","longitude":"-46.359374","name":"Piracaia, SP <br> GPON","tecnologia":"GPON"},{"color":"green","uf":"SP","cidade":"Pirassununga","latitude":"-21.995982","longitude":"-47.425746","name":"Pirassununga, SP <br> GPON","tecnologia":"GPON"},{"color":"green","uf":"SP","cidade":"Pontal","latitude":"-21.021565","longitude":"-48.042261","name":"Pontal, SP <br> GPON","tecnologia":"GPON"},{"color":"green","uf":"SP","cidade":"Porto Ferreira","latitude":"-21.849814","longitude":"-47.487034","name":"Porto Ferreira, SP <br> GPON","tecnologia":"GPON"},{"color":"green","uf":"SP","cidade":"Potirendaba","latitude":"-21.042789","longitude":"-49.381509","name":"Potirendaba, SP <br> GPON","tecnologia":"GPON"},{"color":"green","uf":"SP","cidade":"Presidente Bernardes","latitude":"-22.008198","longitude":"-51.556507","name":"Presidente Bernardes, SP <br> GPON","tecnologia":"GPON"},{"color":"green","uf":"SP","cidade":"Promissão","latitude":"-21.535572","longitude":"-49.85989","name":"Promissão, SP <br> GPON","tecnologia":"GPON"},{"color":"green","uf":"SP","cidade":"Registro","latitude":"-24.497942","longitude":"-47.844895","name":"Registro, SP <br> GPON","tecnologia":"GPON"},{"color":"green","uf":"SP","cidade":"Ribeirão Pires","latitude":"-23.706669","longitude":"-46.405805","name":"Ribeirão Pires, SP <br> GPON","tecnologia":"GPON"},{"color":"green","uf":"SP","cidade":"Santa Cruz do Rio Pardo","latitude":"-22.89875","longitude":"-49.635444","name":"Santa Cruz do Rio Pardo, SP <br> GPON","tecnologia":"GPON"},{"color":"green","uf":"SP","cidade":"Santa Gertrudes","latitude":"-22.457229","longitude":"-47.52716","name":"Santa Gertrudes, SP <br> GPON","tecnologia":"GPON"},{"color":"green","uf":"SP","cidade":"Santa Isabel","latitude":"-23.317194","longitude":"-46.223668","name":"Santa Isabel, SP <br> GPON","tecnologia":"GPON"},{"color":"green","uf":"SP","cidade":"Santa Rosa de Viterbo","latitude":"-21.477568","longitude":"-47.362213","name":"Santa Rosa de Viterbo, SP <br> GPON","tecnologia":"GPON"},{"color":"green","uf":"SP","cidade":"São João da Boa Vista","latitude":"-21.970747","longitude":"-46.794356","name":"São João da Boa Vista, SP <br> GPON","tecnologia":"GPON"},{"color":"green","uf":"SP","cidade":"São Joaquim da Barra","latitude":"-20.581158","longitude":"-47.859316","name":"São Joaquim da Barra, SP <br> GPON","tecnologia":"GPON"},{"color":"green","uf":"SP","cidade":"São José do Rio Pardo","latitude":"-21.595288","longitude":"-46.887303","name":"São José do Rio Pardo, SP <br> GPON","tecnologia":"GPON"},{"color":"green","uf":"SP","cidade":"São Roque","latitude":"-23.522598","longitude":"-47.13567","name":"São Roque, SP <br> GPON","tecnologia":"GPON"},{"color":"green","uf":"SP","cidade":"São Sebastião","latitude":"-23.795059","longitude":"-45.414314","name":"São Sebastião, SP <br> GPON","tecnologia":"GPON"},{"color":"green","uf":"SP","cidade":"Serra Negra","latitude":"-22.613941","longitude":"-46.703271","name":"Serra Negra, SP <br> GPON","tecnologia":"GPON"},{"color":"green","uf":"SP","cidade":"Serrana","latitude":"-21.204336","longitude":"-47.595239","name":"Serrana, SP <br> GPON","tecnologia":"GPON"},{"color":"green","uf":"SP","cidade":"Tatuí","latitude":"-23.348731","longitude":"-47.84612","name":"Tatuí, SP <br> GPON","tecnologia":"GPON"},{"color":"green","uf":"SP","cidade":"Tremembé","latitude":"-22.95714","longitude":"-45.547526","name":"Tremembé, SP <br> GPON","tecnologia":"GPON"},{"color":"green","uf":"SP","cidade":"Ubatuba","latitude":"-23.433162","longitude":"-45.083415","name":"Ubatuba, SP <br> GPON","tecnologia":"GPON"},{"color":"green","uf":"SP","cidade":"Valparaíso","latitude":"-21.222929","longitude":"-50.869874","name":"Valparaíso, SP <br> GPON","tecnologia":"GPON"},{"color":"green","uf":"SP","cidade":"Várzea Paulista","latitude":"-23.213582","longitude":"-46.823444","name":"Várzea Paulista, SP <br> GPON","tecnologia":"GPON"},{"color":"green","uf":"SP","cidade":"Votuporanga","latitude":"-20.423659","longitude":"-49.978112","name":"Votuporanga, SP <br> GPON","tecnologia":"GPON"},{"color":"green","uf":"TO","cidade":"Paraíso do Tocantins","latitude":"-10.174998","longitude":"-48.882269","name":"Paraíso do Tocantins, TO <br> GPON","tecnologia":"GPON"}]
