[{"cidade":"Arapiraca","uf":"AL","name":"Arapiraca, AL <br> GPON","latitude":"-9.754866","longitude":"-36.661471","tecnologia":"GPON","color":"green"},{"cidade":"Trindade","uf":"GO","name":"Trindade, GO <br> GPON","latitude":"-16.651708","longitude":"-49.492667","tecnologia":"GPON","color":"green"},{"cidade":"Araxá","uf":"MG","name":"Araxá, MG <br> GPON","latitude":"-19.590176","longitude":"-46.943804","tecnologia":"GPON","color":"green"},{"cidade":"Itajubá","uf":"MG","name":"Itajubá, MG <br> GPON","latitude":"-22.422481","longitude":"-45.459818","tecnologia":"GPON","color":"green"},{"cidade":"Paraíba Do Sul","uf":"RJ","name":"Paraíba Do Sul, RJ <br> GPON","latitude":"-22.158462","longitude":"-43.304004","tecnologia":"GPON","color":"green"},{"cidade":"Ji-Paraná","uf":"RO","name":"Ji-Paraná, RO <br> GPON","latitude":"-10.877741","longitude":"-61.932152","tecnologia":"GPON","color":"green"},{"cidade":"Camaquã","uf":"RS","name":"Camaquã, RS <br> GPON","latitude":"-30.848897","longitude":"-51.80431","tecnologia":"GPON","color":"green"},{"cidade":"Dois Irmãos","uf":"RS","name":"Dois Irmãos, RS <br> GPON","latitude":"-29.58356","longitude":"-51.089776","tecnologia":"GPON","color":"green"},{"cidade":"Marau","uf":"RS","name":"Marau, RS <br> GPON","latitude":"-28.449754","longitude":"-52.198625","tecnologia":"GPON","color":"green"},{"cidade":"Vacaria","uf":"RS","name":"Vacaria, RS <br> GPON","latitude":"-28.507868","longitude":"-50.941791","tecnologia":"GPON","color":"green"},{"cidade":"Içara","uf":"SC","name":"Içara, SC <br> GPON","latitude":"-28.713206","longitude":"-49.308654","tecnologia":"GPON","color":"green"},{"cidade":"Agudos","uf":"SP","name":"Agudos, SP <br> GPON","latitude":"-22.469433","longitude":"-48.98632","tecnologia":"GPON","color":"green"},{"cidade":"Casa Branca","uf":"SP","name":"Casa Branca, SP <br> GPON","latitude":"-21.77081","longitude":"-47.085245","tecnologia":"GPON","color":"green"},{"cidade":"Ibaté","uf":"SP","name":"Ibaté, SP <br> GPON","latitude":"-21.958358","longitude":"-47.988211","tecnologia":"GPON","color":"green"},{"cidade":"Jaguariúna","uf":"SP","name":"Jaguariúna, SP <br> GPON","latitude":"-22.70374","longitude":"-46.985062","tecnologia":"GPON","color":"green"},{"cidade":"Piedade","uf":"SP","name":"Piedade, SP <br> GPON","latitude":"-23.713941","longitude":"-47.425572","tecnologia":"GPON","color":"green"},{"cidade":"Santa Cruz das Palmeiras","uf":"SP","name":"Santa Cruz das Palmeiras, SP <br> GPON","latitude":"-21.823475","longitude":"-47.248023","tecnologia":"GPON","color":"green"},{"cidade":"Tambaú","uf":"SP","name":"Tambaú, SP <br> GPON","latitude":"-21.70292","longitude":"-47.270344","tecnologia":"GPON","color":"green"},{"cidade":"Araguaína","uf":"TO","name":"Araguaína, TO <br> GPON","latitude":"-7.192375","longitude":"-48.204402","tecnologia":"GPON","color":"green"},{"cidade":"Gurupi","uf":"TO","name":"Gurupi, TO <br> GPON","latitude":"-11.72794","longitude":"-49.068046","tecnologia":"GPON","color":"green"},{"cidade":"Camaçari","uf":"BA","name":"Camaçari, BA <br> GPON","latitude":"-12.699638","longitude":"-38.326265","tecnologia":"GPON","color":"green"},{"cidade":"Mata de São João","uf":"BA","name":"Mata de São João, BA <br> GPON","latitude":"-12.530685","longitude":"-38.300898","tecnologia":"GPON","color":"green"},{"cidade":"Arujá","uf":"SP","name":"Arujá, SP <br> GPON","latitude":"-23.396476","longitude":"-46.319983","tecnologia":"GPON","color":"green"},{"cidade":"Caieiras","uf":"SP","name":"Caieiras, SP <br> GPON","latitude":"-23.360729","longitude":"-46.73974","tecnologia":"GPON","color":"green"},{"cidade":"Itupeva","uf":"SP","name":"Itupeva, SP <br> GPON","latitude":"-23.152635","longitude":"-47.059262","tecnologia":"GPON","color":"green"},{"cidade":"Mairinque","uf":"SP","name":"Mairinque, SP <br> GPON","latitude":"-23.539822","longitude":"-47.184995","tecnologia":"GPON","color":"green"},{"cidade":"Peruíbe","uf":"SP","name":"Peruíbe, SP <br> GPON","latitude":"-24.311974","longitude":"-47.0012","tecnologia":"GPON","color":"green"},{"cidade":"Ribeirão Pires","uf":"SP","name":"Ribeirão Pires, SP <br> GPON","latitude":"-23.706669","longitude":"-46.405805","tecnologia":"GPON","color":"green"},{"cidade":"São Roque","uf":"SP","name":"São Roque, SP <br> GPON","latitude":"-23.522598","longitude":"-47.13567","tecnologia":"GPON","color":"green"}]
