[{"name":"Arapiraca, AL <br> GPON","longitude":"-36.661471","latitude":"-9.754866","tecnologia":"GPON","uf":"AL","color":"green","cidade":"Arapiraca"},{"name":"Trindade, GO <br> GPON","longitude":"-49.492667","latitude":"-16.651708","tecnologia":"GPON","uf":"GO","color":"green","cidade":"Trindade"},{"name":"Araxá, MG <br> GPON","longitude":"-46.943804","latitude":"-19.590176","tecnologia":"GPON","uf":"MG","color":"green","cidade":"Araxá"},{"name":"Itajubá, MG <br> GPON","longitude":"-45.459818","latitude":"-22.422481","tecnologia":"GPON","uf":"MG","color":"green","cidade":"Itajubá"},{"name":"Paraíba Do Sul, RJ <br> GPON","longitude":"-43.304004","latitude":"-22.158462","tecnologia":"GPON","uf":"RJ","color":"green","cidade":"Paraíba Do Sul"},{"name":"Ji-Paraná, RO <br> GPON","longitude":"-61.932152","latitude":"-10.877741","tecnologia":"GPON","uf":"RO","color":"green","cidade":"Ji-Paraná"},{"name":"Camaquã, RS <br> GPON","longitude":"-51.80431","latitude":"-30.848897","tecnologia":"GPON","uf":"RS","color":"green","cidade":"Camaquã"},{"name":"Dois Irmãos, RS <br> GPON","longitude":"-51.089776","latitude":"-29.58356","tecnologia":"GPON","uf":"RS","color":"green","cidade":"Dois Irmãos"},{"name":"Marau, RS <br> GPON","longitude":"-52.198625","latitude":"-28.449754","tecnologia":"GPON","uf":"RS","color":"green","cidade":"Marau"},{"name":"Vacaria, RS <br> GPON","longitude":"-50.941791","latitude":"-28.507868","tecnologia":"GPON","uf":"RS","color":"green","cidade":"Vacaria"},{"name":"Içara, SC <br> GPON","longitude":"-49.308654","latitude":"-28.713206","tecnologia":"GPON","uf":"SC","color":"green","cidade":"Içara"},{"name":"Agudos, SP <br> GPON","longitude":"-48.98632","latitude":"-22.469433","tecnologia":"GPON","uf":"SP","color":"green","cidade":"Agudos"},{"name":"Casa Branca, SP <br> GPON","longitude":"-47.085245","latitude":"-21.77081","tecnologia":"GPON","uf":"SP","color":"green","cidade":"Casa Branca"},{"name":"Ibaté, SP <br> GPON","longitude":"-47.988211","latitude":"-21.958358","tecnologia":"GPON","uf":"SP","color":"green","cidade":"Ibaté"},{"name":"Jaguariúna, SP <br> GPON","longitude":"-46.985062","latitude":"-22.70374","tecnologia":"GPON","uf":"SP","color":"green","cidade":"Jaguariúna"},{"name":"Piedade, SP <br> GPON","longitude":"-47.425572","latitude":"-23.713941","tecnologia":"GPON","uf":"SP","color":"green","cidade":"Piedade"},{"name":"Santa Cruz das Palmeiras, SP <br> GPON","longitude":"-47.248023","latitude":"-21.823475","tecnologia":"GPON","uf":"SP","color":"green","cidade":"Santa Cruz das Palmeiras"},{"name":"Tambaú, SP <br> GPON","longitude":"-47.270344","latitude":"-21.70292","tecnologia":"GPON","uf":"SP","color":"green","cidade":"Tambaú"},{"name":"Araguaína, TO <br> GPON","longitude":"-48.204402","latitude":"-7.192375","tecnologia":"GPON","uf":"TO","color":"green","cidade":"Araguaína"},{"name":"Gurupi, TO <br> GPON","longitude":"-49.068046","latitude":"-11.72794","tecnologia":"GPON","uf":"TO","color":"green","cidade":"Gurupi"},{"name":"Macapá, AP <br> GPON","longitude":"-51.069395","latitude":"0.034934","tecnologia":"GPON","uf":"AP","color":"green","cidade":"Macapá"},{"name":"Santana, AP <br> GPON","longitude":"-51.172924","latitude":"-0.045434","tecnologia":"GPON","uf":"AP","color":"green","cidade":"Santana"},{"name":"Alagoinhas, BA <br> GPON","longitude":"-38.420772","latitude":"-12.133526","tecnologia":"GPON","uf":"BA","color":"green","cidade":"Alagoinhas"},{"name":"Barreiras, BA <br> GPON","longitude":"-44.996838","latitude":"-12.143864","tecnologia":"GPON","uf":"BA","color":"green","cidade":"Barreiras"},{"name":"Camaçari, BA <br> GPON","longitude":"-38.326265","latitude":"-12.699638","tecnologia":"GPON","uf":"BA","color":"green","cidade":"Camaçari"},{"name":"Eunápolis, BA <br> GPON","longitude":"-39.582122","latitude":"-16.371498","tecnologia":"GPON","uf":"BA","color":"green","cidade":"Eunápolis"},{"name":"Feira de Santana, BA <br> GPON","longitude":"-38.966293","latitude":"-12.266429","tecnologia":"GPON","uf":"BA","color":"green","cidade":"Feira de Santana"},{"name":"Ilhéus, BA <br> GPON","longitude":"-39.04602","latitude":"-14.793045","tecnologia":"GPON","uf":"BA","color":"green","cidade":"Ilhéus"},{"name":"Itabuna, BA <br> GPON","longitude":"-39.278056","latitude":"-14.787573","tecnologia":"GPON","uf":"BA","color":"green","cidade":"Itabuna"},{"name":"Jequié, BA <br> GPON","longitude":"-40.087704","latitude":"-13.850888","tecnologia":"GPON","uf":"BA","color":"green","cidade":"Jequié"},{"name":"Juazeiro, BA <br> GPON","longitude":"-40.503251","latitude":"-9.416217","tecnologia":"GPON","uf":"BA","color":"green","cidade":"Juazeiro"},{"name":"Mata de São João, BA <br> GPON","longitude":"-38.300898","latitude":"-12.530685","tecnologia":"GPON","uf":"BA","color":"green","cidade":"Mata de São João"},{"name":"Porto Seguro, BA <br> GPON","longitude":"-39.064251","latitude":"-16.443473","tecnologia":"GPON","uf":"BA","color":"green","cidade":"Porto Seguro"},{"name":"Teixeira de Freitas, BA <br> GPON","longitude":"-39.739962","latitude":"-17.539915","tecnologia":"GPON","uf":"BA","color":"green","cidade":"Teixeira de Freitas"},{"name":"Aquiraz, CE <br> GPON","longitude":"-38.389563","latitude":"-3.899293","tecnologia":"GPON","uf":"CE","color":"green","cidade":"Aquiraz"},{"name":"Eusébio, CE <br> GPON","longitude":"-38.455875","latitude":"-3.892501","tecnologia":"GPON","uf":"CE","color":"green","cidade":"Eusébio"},{"name":"Juazeiro do Norte, CE <br> GPON","longitude":"-39.307593","latitude":"-7.196207","tecnologia":"GPON","uf":"CE","color":"green","cidade":"Juazeiro do Norte"},{"name":"Sobral, CE <br> GPON","longitude":"-40.34821","latitude":"-3.689133","tecnologia":"GPON","uf":"CE","color":"green","cidade":"Sobral"},{"name":"Aracruz, ES <br> GPON","longitude":"-40.276441","latitude":"-19.820045","tecnologia":"GPON","uf":"ES","color":"green","cidade":"Aracruz"},{"name":"Colatina, ES <br> GPON","longitude":"-40.626898","latitude":"-19.549316","tecnologia":"GPON","uf":"ES","color":"green","cidade":"Colatina"},{"name":"Caldas Novas, GO <br> GPON","longitude":"-48.624579","latitude":"-17.74406","tecnologia":"GPON","uf":"GO","color":"green","cidade":"Caldas Novas"},{"name":"Formosa, GO <br> GPON","longitude":"-47.336999","latitude":"-15.539991","tecnologia":"GPON","uf":"GO","color":"green","cidade":"Formosa"},{"name":"Itumbiara, GO <br> GPON","longitude":"-49.215845","latitude":"-18.409267","tecnologia":"GPON","uf":"GO","color":"green","cidade":"Itumbiara"},{"name":"Jataí, GO <br> GPON","longitude":"-51.720424","latitude":"-17.878383","tecnologia":"GPON","uf":"GO","color":"green","cidade":"Jataí"},{"name":"Rio Verde, GO <br> GPON","longitude":"-50.919195","latitude":"-17.792266","tecnologia":"GPON","uf":"GO","color":"green","cidade":"Rio Verde"},{"name":"Santa Helena de Goiás, GO <br> GPON","longitude":"-50.597664","latitude":"-17.81152","tecnologia":"GPON","uf":"GO","color":"green","cidade":"Santa Helena de Goiás"},{"name":"Senador Canedo, GO <br> GPON","longitude":"-49.091398","latitude":"-16.708401","tecnologia":"GPON","uf":"GO","color":"green","cidade":"Senador Canedo"},{"name":"Valparaíso de Goiás, GO <br> GPON","longitude":"-47.975675","latitude":"-16.065078","tecnologia":"GPON","uf":"GO","color":"green","cidade":"Valparaíso de Goiás"},{"name":"Caxias, MA <br> GPON","longitude":"-43.361749","latitude":"-4.865053","tecnologia":"GPON","uf":"MA","color":"green","cidade":"Caxias"},{"name":"Imperatriz, MA <br> GPON","longitude":"-47.477726","latitude":"-5.518471","tecnologia":"GPON","uf":"MA","color":"green","cidade":"Imperatriz"},{"name":"Timon, MA <br> GPON","longitude":"-42.83292","latitude":"-5.097692","tecnologia":"GPON","uf":"MA","color":"green","cidade":"Timon"},{"name":"Araguari, MG <br> GPON","longitude":"-48.193392","latitude":"-18.645575","tecnologia":"GPON","uf":"MG","color":"green","cidade":"Araguari"},{"name":"Barbacena, MG <br> GPON","longitude":"-43.770266","latitude":"-21.221446","tecnologia":"GPON","uf":"MG","color":"green","cidade":"Barbacena"},{"name":"Cataguases, MG <br> GPON","longitude":"-42.689647","latitude":"-21.39239","tecnologia":"GPON","uf":"MG","color":"green","cidade":"Cataguases"},{"name":"Conselheiro Lafaiete, MG <br> GPON","longitude":"-43.784609","latitude":"-20.663445","tecnologia":"GPON","uf":"MG","color":"green","cidade":"Conselheiro Lafaiete"},{"name":"Coronel Fabriciano, MG <br> GPON","longitude":"-42.627585","latitude":"-19.517879","tecnologia":"GPON","uf":"MG","color":"green","cidade":"Coronel Fabriciano"},{"name":"Divinópolis, MG <br> GPON","longitude":"-44.891223","latitude":"-20.144646","tecnologia":"GPON","uf":"MG","color":"green","cidade":"Divinópolis"},{"name":"Itabira, MG <br> GPON","longitude":"-43.23123","latitude":"-19.623936","tecnologia":"GPON","uf":"MG","color":"green","cidade":"Itabira"},{"name":"Itaúna, MG <br> GPON","longitude":"-44.580112","latitude":"-20.081798","tecnologia":"GPON","uf":"MG","color":"green","cidade":"Itaúna"},{"name":"Ituiutaba, MG <br> GPON","longitude":"-49.463945","latitude":"-18.977191","tecnologia":"GPON","uf":"MG","color":"green","cidade":"Ituiutaba"},{"name":"Lagoa Santa, MG <br> GPON","longitude":"-43.893216","latitude":"-19.63967","tecnologia":"GPON","uf":"MG","color":"green","cidade":"Lagoa Santa"},{"name":"Lavras, MG <br> GPON","longitude":"-45.000949","latitude":"-21.248002","tecnologia":"GPON","uf":"MG","color":"green","cidade":"Lavras"},{"name":"Manhuaçu, MG <br> GPON","longitude":"-42.027987","latitude":"-20.257226","tecnologia":"GPON","uf":"MG","color":"green","cidade":"Manhuaçu"},{"name":"Montes Claros, MG <br> GPON","longitude":"-43.857809","latitude":"-16.728177","tecnologia":"GPON","uf":"MG","color":"green","cidade":"Montes Claros"},{"name":"Pará de Minas, MG <br> GPON","longitude":"-44.611355","latitude":"-19.853441","tecnologia":"GPON","uf":"MG","color":"green","cidade":"Pará de Minas"},{"name":"Patos de Minas, MG <br> GPON","longitude":"-46.501268","latitude":"-18.569938","tecnologia":"GPON","uf":"MG","color":"green","cidade":"Patos de Minas"},{"name":"Poços de Caldas, MG <br> GPON","longitude":"-46.569184","latitude":"-21.779975","tecnologia":"GPON","uf":"MG","color":"green","cidade":"Poços de Caldas"},{"name":"Pouso Alegre, MG <br> GPON","longitude":"-45.938935","latitude":"-22.22659","tecnologia":"GPON","uf":"MG","color":"green","cidade":"Pouso Alegre"},{"name":"Santa Luzia, MG <br> GPON","longitude":"-43.849658","latitude":"-19.754824","tecnologia":"GPON","uf":"MG","color":"green","cidade":"Santa Luzia"},{"name":"São João Del Rei, MG <br> GPON","longitude":"-44.252646","latitude":"-21.131054","tecnologia":"GPON","uf":"MG","color":"green","cidade":"São João Del Rei"},{"name":"Timóteo, MG <br> GPON","longitude":"-42.64713","latitude":"-19.581086","tecnologia":"GPON","uf":"MG","color":"green","cidade":"Timóteo"},{"name":"Três Corações, MG <br> GPON","longitude":"-45.251117","latitude":"-21.692091","tecnologia":"GPON","uf":"MG","color":"green","cidade":"Três Corações"},{"name":"Ubá, MG <br> GPON","longitude":"-42.935931","latitude":"-21.120444","tecnologia":"GPON","uf":"MG","color":"green","cidade":"Ubá"},{"name":"Vespasiano, MG <br> GPON","longitude":"-43.9239","latitude":"-19.688326","tecnologia":"GPON","uf":"MG","color":"green","cidade":"Vespasiano"},{"name":"Viçosa, MG <br> GPON","longitude":"-42.87417","latitude":"-20.755916","tecnologia":"GPON","uf":"MG","color":"green","cidade":"Viçosa"},{"name":"Naviraí, MS <br> GPON","longitude":"-54.199465","latitude":"-23.06181","tecnologia":"GPON","uf":"MS","color":"green","cidade":"Naviraí"},{"name":"Ponta Porã, MS <br> GPON","longitude":"-55.720326","latitude":"-22.529617","tecnologia":"GPON","uf":"MS","color":"green","cidade":"Ponta Porã"},{"name":"Três Lagoas, MS <br> GPON","longitude":"-51.700731","latitude":"-20.784853","tecnologia":"GPON","uf":"MS","color":"green","cidade":"Três Lagoas"},{"name":"Lucas do Rio Verde, MT <br> GPON","longitude":"-55.904202","latitude":"-13.058796","tecnologia":"GPON","uf":"MT","color":"green","cidade":"Lucas do Rio Verde"},{"name":"Nova Mutum, MT <br> GPON","longitude":"-56.074316","latitude":"-13.837389","tecnologia":"GPON","uf":"MT","color":"green","cidade":"Nova Mutum"},{"name":"Sinop, MT <br> GPON","longitude":"-55.509062","latitude":"-11.86043","tecnologia":"GPON","uf":"MT","color":"green","cidade":"Sinop"},{"name":"Sorriso, MT <br> GPON","longitude":"-55.721051","latitude":"-12.542527","tecnologia":"GPON","uf":"MT","color":"green","cidade":"Sorriso"},{"name":"Castanhal, PA <br> GPON","longitude":"-47.916742","latitude":"-1.297971","tecnologia":"GPON","uf":"PA","color":"green","cidade":"Castanhal"},{"name":"Marabá, PA <br> GPON","longitude":"-49.132672","latitude":"-5.38075","tecnologia":"GPON","uf":"PA","color":"green","cidade":"Marabá"},{"name":"Paragominas, PA <br> GPON","longitude":"-47.352692","latitude":"-3.002116","tecnologia":"GPON","uf":"PA","color":"green","cidade":"Paragominas"},{"name":"Parauapebas, PA <br> GPON","longitude":"-49.903733","latitude":"-6.067812","tecnologia":"GPON","uf":"PA","color":"green","cidade":"Parauapebas"},{"name":"Petrolina, PE <br> GPON","longitude":"-40.502731","latitude":"-9.388662","tecnologia":"GPON","uf":"PE","color":"green","cidade":"Petrolina"},{"name":"Parnaíba, PI <br> GPON","longitude":"-41.775388","latitude":"-2.905847","tecnologia":"GPON","uf":"PI","color":"green","cidade":"Parnaíba"},{"name":"Apucarana, PR <br> GPON","longitude":"-51.463486","latitude":"-23.549961","tecnologia":"GPON","uf":"PR","color":"green","cidade":"Apucarana"},{"name":"Cambé, PR <br> GPON","longitude":"-51.279832","latitude":"-23.276575","tecnologia":"GPON","uf":"PR","color":"green","cidade":"Cambé"},{"name":"Paranaguá, PR <br> GPON","longitude":"-48.522528","latitude":"-25.516078","tecnologia":"GPON","uf":"PR","color":"green","cidade":"Paranaguá"},{"name":"Rolândia, PR <br> GPON","longitude":"-51.365928","latitude":"-23.31012","tecnologia":"GPON","uf":"PR","color":"green","cidade":"Rolândia"},{"name":"Armação Dos Búzios, RJ <br> GPON","longitude":"-41.884559","latitude":"-22.752846","tecnologia":"GPON","uf":"RJ","color":"green","cidade":"Armação Dos Búzios"},{"name":"Cabo Frio, RJ <br> GPON","longitude":"-42.028595","latitude":"-22.88943","tecnologia":"GPON","uf":"RJ","color":"green","cidade":"Cabo Frio"},{"name":"Itaguaí, RJ <br> GPON","longitude":"-43.779821","latitude":"-22.863566","tecnologia":"GPON","uf":"RJ","color":"green","cidade":"Itaguaí"},{"name":"Miguel Pereira, RJ <br> GPON","longitude":"-43.480275","latitude":"-22.457242","tecnologia":"GPON","uf":"RJ","color":"green","cidade":"Miguel Pereira"},{"name":"Nova Friburgo, RJ <br> GPON","longitude":"-42.537692","latitude":"-22.293224","tecnologia":"GPON","uf":"RJ","color":"green","cidade":"Nova Friburgo"},{"name":"São Pedro da Aldeia, RJ <br> GPON","longitude":"-42.102596","latitude":"-22.842859","tecnologia":"GPON","uf":"RJ","color":"green","cidade":"São Pedro da Aldeia"},{"name":"Três Rios, RJ <br> GPON","longitude":"-43.218533","latitude":"-22.11651","tecnologia":"GPON","uf":"RJ","color":"green","cidade":"Três Rios"},{"name":"Valença, RJ <br> GPON","longitude":"-43.71288","latitude":"-22.244496","tecnologia":"GPON","uf":"RJ","color":"green","cidade":"Valença"},{"name":"Vassouras, RJ <br> GPON","longitude":"-43.668555","latitude":"-22.405889","tecnologia":"GPON","uf":"RJ","color":"green","cidade":"Vassouras"},{"name":"Mossoró, RN <br> GPON","longitude":"-37.347446","latitude":"-5.183737","tecnologia":"GPON","uf":"RN","color":"green","cidade":"Mossoró"},{"name":"Ariquemes, RO <br> GPON","longitude":"-63.032516","latitude":"-9.905711","tecnologia":"GPON","uf":"RO","color":"green","cidade":"Ariquemes"},{"name":"Cacoal, RO <br> GPON","longitude":"-61.456167","latitude":"-11.434271","tecnologia":"GPON","uf":"RO","color":"green","cidade":"Cacoal"},{"name":"Vilhena, RO <br> GPON","longitude":"-60.148847","latitude":"-12.750183","tecnologia":"GPON","uf":"RO","color":"green","cidade":"Vilhena"},{"name":"Alegrete, RS <br> GPON","longitude":"-55.794862","latitude":"-29.790166","tecnologia":"GPON","uf":"RS","color":"green","cidade":"Alegrete"},{"name":"Arroio do Meio, RS <br> GPON","longitude":"-51.955735","latitude":"-29.401353","tecnologia":"GPON","uf":"RS","color":"green","cidade":"Arroio do Meio"},{"name":"Cachoeira do Sul, RS <br> GPON","longitude":"-52.892756","latitude":"-30.032988","tecnologia":"GPON","uf":"RS","color":"green","cidade":"Cachoeira do Sul"},{"name":"Canela, RS <br> GPON","longitude":"-50.811921","latitude":"-29.355993","tecnologia":"GPON","uf":"RS","color":"green","cidade":"Canela"},{"name":"Carazinho, RS <br> GPON","longitude":"-52.79326","latitude":"-28.295844","tecnologia":"GPON","uf":"RS","color":"green","cidade":"Carazinho"},{"name":"Carlos Barbosa, RS <br> GPON","longitude":"-51.502847","latitude":"-29.296949","tecnologia":"GPON","uf":"RS","color":"green","cidade":"Carlos Barbosa"},{"name":"Charqueadas, RS <br> GPON","longitude":"-51.628872","latitude":"-29.962478","tecnologia":"GPON","uf":"RS","color":"green","cidade":"Charqueadas"},{"name":"Eldorado do Sul, RS <br> GPON","longitude":"-51.618702","latitude":"-30.084676","tecnologia":"GPON","uf":"RS","color":"green","cidade":"Eldorado do Sul"},{"name":"Encantado, RS <br> GPON","longitude":"-51.870282","latitude":"-29.235141","tecnologia":"GPON","uf":"RS","color":"green","cidade":"Encantado"},{"name":"Estrela, RS <br> GPON","longitude":"-51.949508","latitude":"-29.500207","tecnologia":"GPON","uf":"RS","color":"green","cidade":"Estrela"},{"name":"Frederico Westphalen, RS <br> GPON","longitude":"-53.395824","latitude":"-27.358644","tecnologia":"GPON","uf":"RS","color":"green","cidade":"Frederico Westphalen"},{"name":"Garibaldi, RS <br> GPON","longitude":"-51.535179","latitude":"-29.258979","tecnologia":"GPON","uf":"RS","color":"green","cidade":"Garibaldi"},{"name":"Gramado, RS <br> GPON","longitude":"-50.876164","latitude":"-29.373351","tecnologia":"GPON","uf":"RS","color":"green","cidade":"Gramado"},{"name":"Guaíba, RS <br> GPON","longitude":"-51.323314","latitude":"-30.108592","tecnologia":"GPON","uf":"RS","color":"green","cidade":"Guaíba"},{"name":"Igrejinha, RS <br> GPON","longitude":"-50.791894","latitude":"-29.569318","tecnologia":"GPON","uf":"RS","color":"green","cidade":"Igrejinha"},{"name":"Imbé, RS <br> GPON","longitude":"-50.128068","latitude":"-29.975269","tecnologia":"GPON","uf":"RS","color":"green","cidade":"Imbé"},{"name":"Itaqui, RS <br> GPON","longitude":"-56.551478","latitude":"-29.131051","tecnologia":"GPON","uf":"RS","color":"green","cidade":"Itaqui"},{"name":"Ivoti, RS <br> GPON","longitude":"-51.153326","latitude":"-29.599463","tecnologia":"GPON","uf":"RS","color":"green","cidade":"Ivoti"},{"name":"Montenegro, RS <br> GPON","longitude":"-51.467903","latitude":"-29.682414","tecnologia":"GPON","uf":"RS","color":"green","cidade":"Montenegro"},{"name":"Nova Petrópolis, RS <br> GPON","longitude":"-51.113552","latitude":"-29.374112","tecnologia":"GPON","uf":"RS","color":"green","cidade":"Nova Petrópolis"},{"name":"Osório, RS <br> GPON","longitude":"-50.266713","latitude":"-29.888089","tecnologia":"GPON","uf":"RS","color":"green","cidade":"Osório"},{"name":"Palmeira Das Missões, RS <br> GPON","longitude":"-53.313378","latitude":"-27.900652","tecnologia":"GPON","uf":"RS","color":"green","cidade":"Palmeira Das Missões"},{"name":"Panambi, RS <br> GPON","longitude":"-53.502261","latitude":"-28.283328","tecnologia":"GPON","uf":"RS","color":"green","cidade":"Panambi"},{"name":"Parobé, RS <br> GPON","longitude":"-50.83118","latitude":"-29.624257","tecnologia":"GPON","uf":"RS","color":"green","cidade":"Parobé"},{"name":"Rio Pardo, RS <br> GPON","longitude":"-52.37113","latitude":"-29.98803","tecnologia":"GPON","uf":"RS","color":"green","cidade":"Rio Pardo"},{"name":"Rosário do Sul, RS <br> GPON","longitude":"-54.922106","latitude":"-30.251483","tecnologia":"GPON","uf":"RS","color":"green","cidade":"Rosário do Sul"},{"name":"Santa Rosa, RS <br> GPON","longitude":"-54.479629","latitude":"-27.8702","tecnologia":"GPON","uf":"RS","color":"green","cidade":"Santa Rosa"},{"name":"Santana do Livramento, RS <br> GPON","longitude":"-55.531467","latitude":"-30.88772","tecnologia":"GPON","uf":"RS","color":"green","cidade":"Santana do Livramento"},{"name":"Santo Ângelo, RS <br> GPON","longitude":"-54.266781","latitude":"-28.300128","tecnologia":"GPON","uf":"RS","color":"green","cidade":"Santo Ângelo"},{"name":"São Borja, RS <br> GPON","longitude":"-56.003603","latitude":"-28.657828","tecnologia":"GPON","uf":"RS","color":"green","cidade":"São Borja"},{"name":"São Gabriel, RS <br> GPON","longitude":"-54.321657","latitude":"-30.333688","tecnologia":"GPON","uf":"RS","color":"green","cidade":"São Gabriel"},{"name":"São Lourenço do Sul, RS <br> GPON","longitude":"-51.971531","latitude":"-31.356374","tecnologia":"GPON","uf":"RS","color":"green","cidade":"São Lourenço do Sul"},{"name":"São Luiz Gonzaga, RS <br> GPON","longitude":"-54.955942","latitude":"-28.412032","tecnologia":"GPON","uf":"RS","color":"green","cidade":"São Luiz Gonzaga"},{"name":"Taquara, RS <br> GPON","longitude":"-50.775278","latitude":"-29.650471","tecnologia":"GPON","uf":"RS","color":"green","cidade":"Taquara"},{"name":"Teutônia, RS <br> GPON","longitude":"-51.804375","latitude":"-29.448205","tecnologia":"GPON","uf":"RS","color":"green","cidade":"Teutônia"},{"name":"Torres, RS <br> GPON","longitude":"-49.733289","latitude":"-29.333438","tecnologia":"GPON","uf":"RS","color":"green","cidade":"Torres"},{"name":"Tramandaí, RS <br> GPON","longitude":"-50.132187","latitude":"-29.98414","tecnologia":"GPON","uf":"RS","color":"green","cidade":"Tramandaí"},{"name":"Três Coroas, RS <br> GPON","longitude":"-50.773869","latitude":"-29.513719","tecnologia":"GPON","uf":"RS","color":"green","cidade":"Três Coroas"},{"name":"Venâncio Aires, RS <br> GPON","longitude":"-52.193159","latitude":"-29.614306","tecnologia":"GPON","uf":"RS","color":"green","cidade":"Venâncio Aires"},{"name":"Vera Cruz, RS <br> GPON","longitude":"-52.515176","latitude":"-29.718435","tecnologia":"GPON","uf":"RS","color":"green","cidade":"Vera Cruz"},{"name":"Veranópolis, RS <br> GPON","longitude":"-51.551614","latitude":"-28.931197","tecnologia":"GPON","uf":"RS","color":"green","cidade":"Veranópolis"},{"name":"Araranguá, SC <br> GPON","longitude":"-49.491809","latitude":"-28.935615","tecnologia":"GPON","uf":"SC","color":"green","cidade":"Araranguá"},{"name":"Biguaçu, SC <br> GPON","longitude":"-48.65979","latitude":"-27.496004","tecnologia":"GPON","uf":"SC","color":"green","cidade":"Biguaçu"},{"name":"Caçador, SC <br> GPON","longitude":"-51.012004","latitude":"-26.77567","tecnologia":"GPON","uf":"SC","color":"green","cidade":"Caçador"},{"name":"Camboriú, SC <br> GPON","longitude":"-48.650338","latitude":"-27.024078","tecnologia":"GPON","uf":"SC","color":"green","cidade":"Camboriú"},{"name":"Concórdia, SC <br> GPON","longitude":"-52.025962","latitude":"-27.233461","tecnologia":"GPON","uf":"SC","color":"green","cidade":"Concórdia"},{"name":"Fraiburgo, SC <br> GPON","longitude":"-50.919978","latitude":"-27.023288","tecnologia":"GPON","uf":"SC","color":"green","cidade":"Fraiburgo"},{"name":"Gaspar, SC <br> GPON","longitude":"-48.953428","latitude":"-26.933597","tecnologia":"GPON","uf":"SC","color":"green","cidade":"Gaspar"},{"name":"Guaramirim, SC <br> GPON","longitude":"-49.002628","latitude":"-26.468753","tecnologia":"GPON","uf":"SC","color":"green","cidade":"Guaramirim"},{"name":"Indaial, SC <br> GPON","longitude":"-49.235417","latitude":"-26.899247","tecnologia":"GPON","uf":"SC","color":"green","cidade":"Indaial"},{"name":"Jaraguá do Sul, SC <br> GPON","longitude":"-49.07125","latitude":"-26.485083","tecnologia":"GPON","uf":"SC","color":"green","cidade":"Jaraguá do Sul"},{"name":"Joaçaba, SC <br> GPON","longitude":"-51.510788","latitude":"-27.172105","tecnologia":"GPON","uf":"SC","color":"green","cidade":"Joaçaba"},{"name":"Lages, SC <br> GPON","longitude":"-50.325862","latitude":"-27.814966","tecnologia":"GPON","uf":"SC","color":"green","cidade":"Lages"},{"name":"Mafra, SC <br> GPON","longitude":"-49.808624","latitude":"-26.115935","tecnologia":"GPON","uf":"SC","color":"green","cidade":"Mafra"},{"name":"Rio do Sul, SC <br> GPON","longitude":"-49.643016","latitude":"-27.215596","tecnologia":"GPON","uf":"SC","color":"green","cidade":"Rio do Sul"},{"name":"Rio Negrinho, SC <br> GPON","longitude":"-49.517746","latitude":"-26.259075","tecnologia":"GPON","uf":"SC","color":"green","cidade":"Rio Negrinho"},{"name":"São Bento do Sul, SC <br> GPON","longitude":"-49.383077","latitude":"-26.249542","tecnologia":"GPON","uf":"SC","color":"green","cidade":"São Bento do Sul"},{"name":"São Francisco do Sul, SC <br> GPON","longitude":"-48.634372","latitude":"-26.257917","tecnologia":"GPON","uf":"SC","color":"green","cidade":"São Francisco do Sul"},{"name":"Timbó, SC <br> GPON","longitude":"-49.269039","latitude":"-26.82464","tecnologia":"GPON","uf":"SC","color":"green","cidade":"Timbó"},{"name":"Tubarão, SC <br> GPON","longitude":"-49.014371","latitude":"-28.47131","tecnologia":"GPON","uf":"SC","color":"green","cidade":"Tubarão"},{"name":"Videira, SC <br> GPON","longitude":"-51.154274","latitude":"-27.008624","tecnologia":"GPON","uf":"SC","color":"green","cidade":"Videira"},{"name":"Xanxerê, SC <br> GPON","longitude":"-52.403579","latitude":"-26.874694","tecnologia":"GPON","uf":"SC","color":"green","cidade":"Xanxerê"},{"name":"Xaxim, SC <br> GPON","longitude":"-52.537446","latitude":"-26.959643","tecnologia":"GPON","uf":"SC","color":"green","cidade":"Xaxim"},{"name":"Adamantina, SP <br> GPON","longitude":"-51.073695","latitude":"-21.682012","tecnologia":"GPON","uf":"SP","color":"green","cidade":"Adamantina"},{"name":"Alumínio, SP <br> GPON","longitude":"-47.254571","latitude":"-23.530553","tecnologia":"GPON","uf":"SP","color":"green","cidade":"Alumínio"},{"name":"Álvares Machado, SP <br> GPON","longitude":"-51.47224","latitude":"-22.076415","tecnologia":"GPON","uf":"SP","color":"green","cidade":"Álvares Machado"},{"name":"Américo Brasiliense, SP <br> GPON","longitude":"-48.11467","latitude":"-21.728771","tecnologia":"GPON","uf":"SP","color":"green","cidade":"Américo Brasiliense"},{"name":"Amparo, SP <br> GPON","longitude":"-46.772022","latitude":"-22.70879","tecnologia":"GPON","uf":"SP","color":"green","cidade":"Amparo"},{"name":"Andradina, SP <br> GPON","longitude":"-51.378568","latitude":"-20.894761","tecnologia":"GPON","uf":"SP","color":"green","cidade":"Andradina"},{"name":"Arujá, SP <br> GPON","longitude":"-46.319983","latitude":"-23.396476","tecnologia":"GPON","uf":"SP","color":"green","cidade":"Arujá"},{"name":"Avaré, SP <br> GPON","longitude":"-48.925052","latitude":"-23.106732","tecnologia":"GPON","uf":"SP","color":"green","cidade":"Avaré"},{"name":"Bady Bassitt, SP <br> GPON","longitude":"-49.4385","latitude":"-20.919689","tecnologia":"GPON","uf":"SP","color":"green","cidade":"Bady Bassitt"},{"name":"Barretos, SP <br> GPON","longitude":"-48.569832","latitude":"-20.553146","tecnologia":"GPON","uf":"SP","color":"green","cidade":"Barretos"},{"name":"Barrinha, SP <br> GPON","longitude":"-48.163614","latitude":"-21.186374","tecnologia":"GPON","uf":"SP","color":"green","cidade":"Barrinha"},{"name":"Batatais, SP <br> GPON","longitude":"-47.592149","latitude":"-20.892867","tecnologia":"GPON","uf":"SP","color":"green","cidade":"Batatais"},{"name":"Bebedouro, SP <br> GPON","longitude":"-48.479083","latitude":"-20.949077","tecnologia":"GPON","uf":"SP","color":"green","cidade":"Bebedouro"},{"name":"Birigui, SP <br> GPON","longitude":"-50.343162","latitude":"-21.291034","tecnologia":"GPON","uf":"SP","color":"green","cidade":"Birigui"},{"name":"Boituva, SP <br> GPON","longitude":"-47.678574","latitude":"-23.285531","tecnologia":"GPON","uf":"SP","color":"green","cidade":"Boituva"},{"name":"Cabreúva, SP <br> GPON","longitude":"-47.136251","latitude":"-23.30533","tecnologia":"GPON","uf":"SP","color":"green","cidade":"Cabreúva"},{"name":"Caieiras, SP <br> GPON","longitude":"-46.73974","latitude":"-23.360729","tecnologia":"GPON","uf":"SP","color":"green","cidade":"Caieiras"},{"name":"Cajamar, SP <br> GPON","longitude":"-46.878146","latitude":"-23.355014","tecnologia":"GPON","uf":"SP","color":"green","cidade":"Cajamar"},{"name":"Campo Limpo Paulista, SP <br> GPON","longitude":"-46.788919","latitude":"-23.207791","tecnologia":"GPON","uf":"SP","color":"green","cidade":"Campo Limpo Paulista"},{"name":"Campos do Jordão, SP <br> GPON","longitude":"-45.583337","latitude":"-22.729618","tecnologia":"GPON","uf":"SP","color":"green","cidade":"Campos do Jordão"},{"name":"Caraguatatuba, SP <br> GPON","longitude":"-45.412533","latitude":"-23.612535","tecnologia":"GPON","uf":"SP","color":"green","cidade":"Caraguatatuba"},{"name":"Catanduva, SP <br> GPON","longitude":"-48.977015","latitude":"-21.131381","tecnologia":"GPON","uf":"SP","color":"green","cidade":"Catanduva"},{"name":"Cerquilho, SP <br> GPON","longitude":"-47.745862","latitude":"-23.166487","tecnologia":"GPON","uf":"SP","color":"green","cidade":"Cerquilho"},{"name":"Cordeirópolis, SP <br> GPON","longitude":"-47.451886","latitude":"-22.477778","tecnologia":"GPON","uf":"SP","color":"green","cidade":"Cordeirópolis"},{"name":"Cravinhos, SP <br> GPON","longitude":"-47.732427","latitude":"-21.337959","tecnologia":"GPON","uf":"SP","color":"green","cidade":"Cravinhos"},{"name":"Descalvado, SP <br> GPON","longitude":"-47.618105","latitude":"-21.900211","tecnologia":"GPON","uf":"SP","color":"green","cidade":"Descalvado"},{"name":"Dracena, SP <br> GPON","longitude":"-51.535034","latitude":"-21.484311","tecnologia":"GPON","uf":"SP","color":"green","cidade":"Dracena"},{"name":"Espírito Santo do Pinhal, SP <br> GPON","longitude":"-46.74767","latitude":"-22.190871","tecnologia":"GPON","uf":"SP","color":"green","cidade":"Espírito Santo do Pinhal"},{"name":"Fernandópolis, SP <br> GPON","longitude":"-50.247115","latitude":"-20.280556","tecnologia":"GPON","uf":"SP","color":"green","cidade":"Fernandópolis"},{"name":"Garça, SP <br> GPON","longitude":"-49.654596","latitude":"-22.212516","tecnologia":"GPON","uf":"SP","color":"green","cidade":"Garça"},{"name":"Guaíra, SP <br> GPON","longitude":"-48.31197","latitude":"-20.319591","tecnologia":"GPON","uf":"SP","color":"green","cidade":"Guaíra"},{"name":"Guapiaçu, SP <br> GPON","longitude":"-49.217201","latitude":"-20.795885","tecnologia":"GPON","uf":"SP","color":"green","cidade":"Guapiaçu"},{"name":"Guararapes, SP <br> GPON","longitude":"-50.645338","latitude":"-21.254431","tecnologia":"GPON","uf":"SP","color":"green","cidade":"Guararapes"},{"name":"Ibiúna, SP <br> GPON","longitude":"-47.223037","latitude":"-23.65961","tecnologia":"GPON","uf":"SP","color":"green","cidade":"Ibiúna"},{"name":"Iperó, SP <br> GPON","longitude":"-47.692717","latitude":"-23.351296","tecnologia":"GPON","uf":"SP","color":"green","cidade":"Iperó"},{"name":"Itanhaém, SP <br> GPON","longitude":"-46.787986","latitude":"-24.173633","tecnologia":"GPON","uf":"SP","color":"green","cidade":"Itanhaém"},{"name":"Itapeva, SP <br> GPON","longitude":"-48.876433","latitude":"-23.978823","tecnologia":"GPON","uf":"SP","color":"green","cidade":"Itapeva"},{"name":"Itapira, SP <br> GPON","longitude":"-46.822434","latitude":"-22.435731","tecnologia":"GPON","uf":"SP","color":"green","cidade":"Itapira"},{"name":"Itaquaquecetuba, SP <br> GPON","longitude":"-46.345724","latitude":"-23.483481","tecnologia":"GPON","uf":"SP","color":"green","cidade":"Itaquaquecetuba"},{"name":"Itatiba, SP <br> GPON","longitude":"-46.846353","latitude":"-23.003497","tecnologia":"GPON","uf":"SP","color":"green","cidade":"Itatiba"},{"name":"Itupeva, SP <br> GPON","longitude":"-47.059262","latitude":"-23.152635","tecnologia":"GPON","uf":"SP","color":"green","cidade":"Itupeva"},{"name":"Ituverava, SP <br> GPON","longitude":"-47.790207","latitude":"-20.335465","tecnologia":"GPON","uf":"SP","color":"green","cidade":"Ituverava"},{"name":"Jaboticabal, SP <br> GPON","longitude":"-48.325223","latitude":"-21.252037","tecnologia":"GPON","uf":"SP","color":"green","cidade":"Jaboticabal"},{"name":"Jales, SP <br> GPON","longitude":"-50.549442","latitude":"-20.267227","tecnologia":"GPON","uf":"SP","color":"green","cidade":"Jales"},{"name":"Jardinópolis, SP <br> GPON","longitude":"-47.760583","latitude":"-21.017612","tecnologia":"GPON","uf":"SP","color":"green","cidade":"Jardinópolis"},{"name":"Jarinu, SP <br> GPON","longitude":"-46.728015","latitude":"-23.103855","tecnologia":"GPON","uf":"SP","color":"green","cidade":"Jarinu"},{"name":"José Bonifácio, SP <br> GPON","longitude":"-49.689233","latitude":"-21.055062","tecnologia":"GPON","uf":"SP","color":"green","cidade":"José Bonifácio"},{"name":"Laranjal Paulista, SP <br> GPON","longitude":"-47.837549","latitude":"-23.050564","tecnologia":"GPON","uf":"SP","color":"green","cidade":"Laranjal Paulista"},{"name":"Leme, SP <br> GPON","longitude":"-47.384109","latitude":"-22.180857","tecnologia":"GPON","uf":"SP","color":"green","cidade":"Leme"},{"name":"Lençóis Paulista, SP <br> GPON","longitude":"-48.803683","latitude":"-22.602693","tecnologia":"GPON","uf":"SP","color":"green","cidade":"Lençóis Paulista"},{"name":"Lins, SP <br> GPON","longitude":"-49.752555","latitude":"-21.67182","tecnologia":"GPON","uf":"SP","color":"green","cidade":"Lins"},{"name":"Louveira, SP <br> GPON","longitude":"-46.948369","latitude":"-23.085572","tecnologia":"GPON","uf":"SP","color":"green","cidade":"Louveira"},{"name":"Mairinque, SP <br> GPON","longitude":"-47.184995","latitude":"-23.539822","tecnologia":"GPON","uf":"SP","color":"green","cidade":"Mairinque"},{"name":"Matão, SP <br> GPON","longitude":"-48.363968","latitude":"-21.602511","tecnologia":"GPON","uf":"SP","color":"green","cidade":"Matão"},{"name":"Mirandópolis, SP <br> GPON","longitude":"-51.1035","latitude":"-21.131345","tecnologia":"GPON","uf":"SP","color":"green","cidade":"Mirandópolis"},{"name":"Mirassol, SP <br> GPON","longitude":"-49.52061","latitude":"-20.816874","tecnologia":"GPON","uf":"SP","color":"green","cidade":"Mirassol"},{"name":"Mococa, SP <br> GPON","longitude":"-47.002405","latitude":"-21.464731","tecnologia":"GPON","uf":"SP","color":"green","cidade":"Mococa"},{"name":"Mongaguá, SP <br> GPON","longitude":"-46.626526","latitude":"-24.080901","tecnologia":"GPON","uf":"SP","color":"green","cidade":"Mongaguá"},{"name":"Monte Alto, SP <br> GPON","longitude":"-48.497066","latitude":"-21.265545","tecnologia":"GPON","uf":"SP","color":"green","cidade":"Monte Alto"},{"name":"Morungaba, SP <br> GPON","longitude":"-46.789601","latitude":"-22.881071","tecnologia":"GPON","uf":"SP","color":"green","cidade":"Morungaba"},{"name":"Orlândia, SP <br> GPON","longitude":"-47.885205","latitude":"-20.716925","tecnologia":"GPON","uf":"SP","color":"green","cidade":"Orlândia"},{"name":"Ourinhos, SP <br> GPON","longitude":"-49.869702","latitude":"-22.979695","tecnologia":"GPON","uf":"SP","color":"green","cidade":"Ourinhos"},{"name":"Pedreira, SP <br> GPON","longitude":"-46.894846","latitude":"-22.741347","tecnologia":"GPON","uf":"SP","color":"green","cidade":"Pedreira"},{"name":"Penápolis, SP <br> GPON","longitude":"-50.076855","latitude":"-21.414765","tecnologia":"GPON","uf":"SP","color":"green","cidade":"Penápolis"},{"name":"Peruíbe, SP <br> GPON","longitude":"-47.0012","latitude":"-24.311974","tecnologia":"GPON","uf":"SP","color":"green","cidade":"Peruíbe"},{"name":"Piracaia, SP <br> GPON","longitude":"-46.359374","latitude":"-23.052545","tecnologia":"GPON","uf":"SP","color":"green","cidade":"Piracaia"},{"name":"Pirassununga, SP <br> GPON","longitude":"-47.425746","latitude":"-21.995982","tecnologia":"GPON","uf":"SP","color":"green","cidade":"Pirassununga"},{"name":"Pontal, SP <br> GPON","longitude":"-48.042261","latitude":"-21.021565","tecnologia":"GPON","uf":"SP","color":"green","cidade":"Pontal"},{"name":"Porto Ferreira, SP <br> GPON","longitude":"-47.487034","latitude":"-21.849814","tecnologia":"GPON","uf":"SP","color":"green","cidade":"Porto Ferreira"},{"name":"Potirendaba, SP <br> GPON","longitude":"-49.381509","latitude":"-21.042789","tecnologia":"GPON","uf":"SP","color":"green","cidade":"Potirendaba"},{"name":"Presidente Bernardes, SP <br> GPON","longitude":"-51.556507","latitude":"-22.008198","tecnologia":"GPON","uf":"SP","color":"green","cidade":"Presidente Bernardes"},{"name":"Promissão, SP <br> GPON","longitude":"-49.85989","latitude":"-21.535572","tecnologia":"GPON","uf":"SP","color":"green","cidade":"Promissão"},{"name":"Registro, SP <br> GPON","longitude":"-47.844895","latitude":"-24.497942","tecnologia":"GPON","uf":"SP","color":"green","cidade":"Registro"},{"name":"Ribeirão Pires, SP <br> GPON","longitude":"-46.405805","latitude":"-23.706669","tecnologia":"GPON","uf":"SP","color":"green","cidade":"Ribeirão Pires"},{"name":"Santa Cruz do Rio Pardo, SP <br> GPON","longitude":"-49.635444","latitude":"-22.89875","tecnologia":"GPON","uf":"SP","color":"green","cidade":"Santa Cruz do Rio Pardo"},{"name":"Santa Gertrudes, SP <br> GPON","longitude":"-47.52716","latitude":"-22.457229","tecnologia":"GPON","uf":"SP","color":"green","cidade":"Santa Gertrudes"},{"name":"Santa Isabel, SP <br> GPON","longitude":"-46.223668","latitude":"-23.317194","tecnologia":"GPON","uf":"SP","color":"green","cidade":"Santa Isabel"},{"name":"Santa Rosa de Viterbo, SP <br> GPON","longitude":"-47.362213","latitude":"-21.477568","tecnologia":"GPON","uf":"SP","color":"green","cidade":"Santa Rosa de Viterbo"},{"name":"São João da Boa Vista, SP <br> GPON","longitude":"-46.794356","latitude":"-21.970747","tecnologia":"GPON","uf":"SP","color":"green","cidade":"São João da Boa Vista"},{"name":"São Joaquim da Barra, SP <br> GPON","longitude":"-47.859316","latitude":"-20.581158","tecnologia":"GPON","uf":"SP","color":"green","cidade":"São Joaquim da Barra"},{"name":"São José do Rio Pardo, SP <br> GPON","longitude":"-46.887303","latitude":"-21.595288","tecnologia":"GPON","uf":"SP","color":"green","cidade":"São José do Rio Pardo"},{"name":"São Roque, SP <br> GPON","longitude":"-47.13567","latitude":"-23.522598","tecnologia":"GPON","uf":"SP","color":"green","cidade":"São Roque"},{"name":"São Sebastião, SP <br> GPON","longitude":"-45.414314","latitude":"-23.795059","tecnologia":"GPON","uf":"SP","color":"green","cidade":"São Sebastião"},{"name":"Serra Negra, SP <br> GPON","longitude":"-46.703271","latitude":"-22.613941","tecnologia":"GPON","uf":"SP","color":"green","cidade":"Serra Negra"},{"name":"Serrana, SP <br> GPON","longitude":"-47.595239","latitude":"-21.204336","tecnologia":"GPON","uf":"SP","color":"green","cidade":"Serrana"},{"name":"Tatuí, SP <br> GPON","longitude":"-47.84612","latitude":"-23.348731","tecnologia":"GPON","uf":"SP","color":"green","cidade":"Tatuí"},{"name":"Tremembé, SP <br> GPON","longitude":"-45.547526","latitude":"-22.95714","tecnologia":"GPON","uf":"SP","color":"green","cidade":"Tremembé"},{"name":"Ubatuba, SP <br> GPON","longitude":"-45.083415","latitude":"-23.433162","tecnologia":"GPON","uf":"SP","color":"green","cidade":"Ubatuba"},{"name":"Valparaíso, SP <br> GPON","longitude":"-50.869874","latitude":"-21.222929","tecnologia":"GPON","uf":"SP","color":"green","cidade":"Valparaíso"},{"name":"Várzea Paulista, SP <br> GPON","longitude":"-46.823444","latitude":"-23.213582","tecnologia":"GPON","uf":"SP","color":"green","cidade":"Várzea Paulista"},{"name":"Votuporanga, SP <br> GPON","longitude":"-49.978112","latitude":"-20.423659","tecnologia":"GPON","uf":"SP","color":"green","cidade":"Votuporanga"},{"name":"Paraíso do Tocantins, TO <br> GPON","longitude":"-48.882269","latitude":"-10.174998","tecnologia":"GPON","uf":"TO","color":"green","cidade":"Paraíso do Tocantins"}]
