[{"uf":"AL","latitude":"-9.754866","color":"green","name":"Arapiraca, AL <br> GPON","longitude":"-36.661471","cidade":"Arapiraca","tecnologia":"GPON"},{"uf":"GO","latitude":"-16.651708","color":"green","name":"Trindade, GO <br> GPON","longitude":"-49.492667","cidade":"Trindade","tecnologia":"GPON"},{"uf":"MG","latitude":"-19.590176","color":"green","name":"Araxá, MG <br> GPON","longitude":"-46.943804","cidade":"Araxá","tecnologia":"GPON"},{"uf":"MG","latitude":"-22.422481","color":"green","name":"Itajubá, MG <br> GPON","longitude":"-45.459818","cidade":"Itajubá","tecnologia":"GPON"},{"uf":"RJ","latitude":"-22.158462","color":"green","name":"Paraíba Do Sul, RJ <br> GPON","longitude":"-43.304004","cidade":"Paraíba Do Sul","tecnologia":"GPON"},{"uf":"RO","latitude":"-10.877741","color":"green","name":"Ji-Paraná, RO <br> GPON","longitude":"-61.932152","cidade":"Ji-Paraná","tecnologia":"GPON"},{"uf":"RS","latitude":"-30.848897","color":"green","name":"Camaquã, RS <br> GPON","longitude":"-51.80431","cidade":"Camaquã","tecnologia":"GPON"},{"uf":"RS","latitude":"-29.58356","color":"green","name":"Dois Irmãos, RS <br> GPON","longitude":"-51.089776","cidade":"Dois Irmãos","tecnologia":"GPON"},{"uf":"RS","latitude":"-28.449754","color":"green","name":"Marau, RS <br> GPON","longitude":"-52.198625","cidade":"Marau","tecnologia":"GPON"},{"uf":"RS","latitude":"-28.507868","color":"green","name":"Vacaria, RS <br> GPON","longitude":"-50.941791","cidade":"Vacaria","tecnologia":"GPON"},{"uf":"SC","latitude":"-28.713206","color":"green","name":"Içara, SC <br> GPON","longitude":"-49.308654","cidade":"Içara","tecnologia":"GPON"},{"uf":"SP","latitude":"-22.469433","color":"green","name":"Agudos, SP <br> GPON","longitude":"-48.98632","cidade":"Agudos","tecnologia":"GPON"},{"uf":"SP","latitude":"-21.77081","color":"green","name":"Casa Branca, SP <br> GPON","longitude":"-47.085245","cidade":"Casa Branca","tecnologia":"GPON"},{"uf":"SP","latitude":"-21.958358","color":"green","name":"Ibaté, SP <br> GPON","longitude":"-47.988211","cidade":"Ibaté","tecnologia":"GPON"},{"uf":"SP","latitude":"-22.70374","color":"green","name":"Jaguariúna, SP <br> GPON","longitude":"-46.985062","cidade":"Jaguariúna","tecnologia":"GPON"},{"uf":"SP","latitude":"-23.713941","color":"green","name":"Piedade, SP <br> GPON","longitude":"-47.425572","cidade":"Piedade","tecnologia":"GPON"},{"uf":"SP","latitude":"-21.823475","color":"green","name":"Santa Cruz das Palmeiras, SP <br> GPON","longitude":"-47.248023","cidade":"Santa Cruz das Palmeiras","tecnologia":"GPON"},{"uf":"SP","latitude":"-21.70292","color":"green","name":"Tambaú, SP <br> GPON","longitude":"-47.270344","cidade":"Tambaú","tecnologia":"GPON"},{"uf":"TO","latitude":"-7.192375","color":"green","name":"Araguaína, TO <br> GPON","longitude":"-48.204402","cidade":"Araguaína","tecnologia":"GPON"},{"uf":"TO","latitude":"-11.72794","color":"green","name":"Gurupi, TO <br> GPON","longitude":"-49.068046","cidade":"Gurupi","tecnologia":"GPON"},{"uf":"BA","latitude":"-12.699638","color":"green","name":"Camaçari, BA <br> GPON","longitude":"-38.326265","cidade":"Camaçari","tecnologia":"GPON"},{"uf":"BA","latitude":"-12.530685","color":"green","name":"Mata de São João, BA <br> GPON","longitude":"-38.300898","cidade":"Mata de São João","tecnologia":"GPON"},{"uf":"SP","latitude":"-23.396476","color":"green","name":"Arujá, SP <br> GPON","longitude":"-46.319983","cidade":"Arujá","tecnologia":"GPON"},{"uf":"SP","latitude":"-23.360729","color":"green","name":"Caieiras, SP <br> GPON","longitude":"-46.73974","cidade":"Caieiras","tecnologia":"GPON"},{"uf":"SP","latitude":"-23.152635","color":"green","name":"Itupeva, SP <br> GPON","longitude":"-47.059262","cidade":"Itupeva","tecnologia":"GPON"},{"uf":"SP","latitude":"-23.539822","color":"green","name":"Mairinque, SP <br> GPON","longitude":"-47.184995","cidade":"Mairinque","tecnologia":"GPON"},{"uf":"SP","latitude":"-24.311974","color":"green","name":"Peruíbe, SP <br> GPON","longitude":"-47.0012","cidade":"Peruíbe","tecnologia":"GPON"},{"uf":"SP","latitude":"-23.706669","color":"green","name":"Ribeirão Pires, SP <br> GPON","longitude":"-46.405805","cidade":"Ribeirão Pires","tecnologia":"GPON"},{"uf":"SP","latitude":"-23.522598","color":"green","name":"São Roque, SP <br> GPON","longitude":"-47.13567","cidade":"São Roque","tecnologia":"GPON"}]
