[{"tecnologia":"HFC REDE NEUTRA","latitude":"-19.812646","cidade":"João Monlevade","longitude":"-43.173463","name":"João Monlevade, MG <br> HFC REDE NEUTRA","color":"violet","uf":"MG"},{"tecnologia":"HFC REDE NEUTRA","latitude":"-26.483868","cidade":"Palmas","longitude":"-51.988812","name":"Palmas, PR <br> HFC REDE NEUTRA","color":"violet","uf":"PR"},{"tecnologia":"HFC REDE NEUTRA","latitude":"-25.442171","cidade":"Piraquara","longitude":"-49.062411","name":"Piraquara, PR <br> HFC REDE NEUTRA","color":"violet","uf":"PR"},{"tecnologia":"HFC REDE NEUTRA","latitude":"-20.461819","cidade":"Formiga","longitude":"-45.426793","name":"Formiga, MG <br> HFC REDE NEUTRA","color":"violet","uf":"MG"},{"tecnologia":"HFC REDE NEUTRA","latitude":"-20.023728","cidade":"Lagoa da Prata","longitude":"-45.540149","name":"Lagoa da Prata, MG <br> HFC REDE NEUTRA","color":"violet","uf":"MG"},{"tecnologia":"HFC REDE NEUTRA","latitude":"-19.554318","cidade":"Matozinhos","longitude":"-44.086786","name":"Matozinhos, MG <br> HFC REDE NEUTRA","color":"violet","uf":"MG"},{"tecnologia":"HFC REDE NEUTRA","latitude":"-19.630811","cidade":"Pedro Leopoldo","longitude":"-44.038258","name":"Pedro Leopoldo, MG <br> HFC REDE NEUTRA","color":"violet","uf":"MG"},{"tecnologia":"HFC REDE NEUTRA","latitude":"-25.542748","cidade":"Foz do Iguaçu","longitude":"-54.582689","name":"Foz do Iguaçu, PR <br> HFC REDE NEUTRA","color":"violet","uf":"PR"},{"tecnologia":"HFC REDE NEUTRA","latitude":"-25.881672","cidade":"Guaratuba","longitude":"-48.575223","name":"Guaratuba, PR <br> HFC REDE NEUTRA","color":"violet","uf":"PR"},{"tecnologia":"HFC REDE NEUTRA","latitude":"-23.265941","cidade":"Ibiporã","longitude":"-51.052243","name":"Ibiporã, PR <br> HFC REDE NEUTRA","color":"violet","uf":"PR"},{"tecnologia":"HFC REDE NEUTRA","latitude":"-24.557891","cidade":"Marechal Cândido Rondon","longitude":"-54.056115","name":"Marechal Cândido Rondon, PR <br> HFC REDE NEUTRA","color":"violet","uf":"PR"},{"tecnologia":"HFC REDE NEUTRA","latitude":"-25.297665","cidade":"Medianeira","longitude":"-54.094308","name":"Medianeira, PR <br> HFC REDE NEUTRA","color":"violet","uf":"PR"},{"tecnologia":"HFC REDE NEUTRA","latitude":"-23.455534","cidade":"Paiçandu","longitude":"-52.046013","name":"Paiçandu, PR <br> HFC REDE NEUTRA","color":"violet","uf":"PR"},{"tecnologia":"HFC REDE NEUTRA","latitude":"-25.367317","cidade":"Quatro Barras","longitude":"-49.076306","name":"Quatro Barras, PR <br> HFC REDE NEUTRA","color":"violet","uf":"PR"},{"tecnologia":"HFC REDE NEUTRA","latitude":"-24.32452","cidade":"Telêmaco Borba","longitude":"-50.617585","name":"Telêmaco Borba, PR <br> HFC REDE NEUTRA","color":"violet","uf":"PR"},{"tecnologia":"HFC REDE NEUTRA","latitude":"-26.227319","cidade":"União da Vitória","longitude":"-51.087313","name":"União da Vitória, PR <br> HFC REDE NEUTRA","color":"violet","uf":"PR"}]
