[{"color":"green","uf":"AL","cidade":"Arapiraca","latitude":"-9.754866","name":"Arapiraca, AL <br> GPON","longitude":"-36.661471","tecnologia":"GPON"},{"color":"green","uf":"GO","cidade":"Trindade","latitude":"-16.651708","name":"Trindade, GO <br> GPON","longitude":"-49.492667","tecnologia":"GPON"},{"color":"green","uf":"MG","cidade":"Araxá","latitude":"-19.590176","name":"Araxá, MG <br> GPON","longitude":"-46.943804","tecnologia":"GPON"},{"color":"green","uf":"MG","cidade":"Itajubá","latitude":"-22.422481","name":"Itajubá, MG <br> GPON","longitude":"-45.459818","tecnologia":"GPON"},{"color":"green","uf":"RJ","cidade":"Paraíba Do Sul","latitude":"-22.158462","name":"Paraíba Do Sul, RJ <br> GPON","longitude":"-43.304004","tecnologia":"GPON"},{"color":"green","uf":"RO","cidade":"Ji-Paraná","latitude":"-10.877741","name":"Ji-Paraná, RO <br> GPON","longitude":"-61.932152","tecnologia":"GPON"},{"color":"green","uf":"RS","cidade":"Camaquã","latitude":"-30.848897","name":"Camaquã, RS <br> GPON","longitude":"-51.80431","tecnologia":"GPON"},{"color":"green","uf":"RS","cidade":"Dois Irmãos","latitude":"-29.58356","name":"Dois Irmãos, RS <br> GPON","longitude":"-51.089776","tecnologia":"GPON"},{"color":"green","uf":"RS","cidade":"Marau","latitude":"-28.449754","name":"Marau, RS <br> GPON","longitude":"-52.198625","tecnologia":"GPON"},{"color":"green","uf":"RS","cidade":"Vacaria","latitude":"-28.507868","name":"Vacaria, RS <br> GPON","longitude":"-50.941791","tecnologia":"GPON"},{"color":"green","uf":"SC","cidade":"Içara","latitude":"-28.713206","name":"Içara, SC <br> GPON","longitude":"-49.308654","tecnologia":"GPON"},{"color":"green","uf":"SP","cidade":"Agudos","latitude":"-22.469433","name":"Agudos, SP <br> GPON","longitude":"-48.98632","tecnologia":"GPON"},{"color":"green","uf":"SP","cidade":"Casa Branca","latitude":"-21.77081","name":"Casa Branca, SP <br> GPON","longitude":"-47.085245","tecnologia":"GPON"},{"color":"green","uf":"SP","cidade":"Ibaté","latitude":"-21.958358","name":"Ibaté, SP <br> GPON","longitude":"-47.988211","tecnologia":"GPON"},{"color":"green","uf":"SP","cidade":"Jaguariúna","latitude":"-22.70374","name":"Jaguariúna, SP <br> GPON","longitude":"-46.985062","tecnologia":"GPON"},{"color":"green","uf":"SP","cidade":"Piedade","latitude":"-23.713941","name":"Piedade, SP <br> GPON","longitude":"-47.425572","tecnologia":"GPON"},{"color":"green","uf":"SP","cidade":"Santa Cruz das Palmeiras","latitude":"-21.823475","name":"Santa Cruz das Palmeiras, SP <br> GPON","longitude":"-47.248023","tecnologia":"GPON"},{"color":"green","uf":"SP","cidade":"Tambaú","latitude":"-21.70292","name":"Tambaú, SP <br> GPON","longitude":"-47.270344","tecnologia":"GPON"},{"color":"green","uf":"TO","cidade":"Araguaína","latitude":"-7.192375","name":"Araguaína, TO <br> GPON","longitude":"-48.204402","tecnologia":"GPON"},{"color":"green","uf":"TO","cidade":"Gurupi","latitude":"-11.72794","name":"Gurupi, TO <br> GPON","longitude":"-49.068046","tecnologia":"GPON"},{"color":"green","uf":"AP","cidade":"Macapá","latitude":"0.034934","name":"Macapá, AP <br> GPON","longitude":"-51.069395","tecnologia":"GPON"},{"color":"green","uf":"AP","cidade":"Santana","latitude":"-0.045434","name":"Santana, AP <br> GPON","longitude":"-51.172924","tecnologia":"GPON"},{"color":"green","uf":"BA","cidade":"Alagoinhas","latitude":"-12.133526","name":"Alagoinhas, BA <br> GPON","longitude":"-38.420772","tecnologia":"GPON"},{"color":"green","uf":"BA","cidade":"Barreiras","latitude":"-12.143864","name":"Barreiras, BA <br> GPON","longitude":"-44.996838","tecnologia":"GPON"},{"color":"green","uf":"BA","cidade":"Camaçari","latitude":"-12.699638","name":"Camaçari, BA <br> GPON","longitude":"-38.326265","tecnologia":"GPON"},{"color":"green","uf":"BA","cidade":"Eunápolis","latitude":"-16.371498","name":"Eunápolis, BA <br> GPON","longitude":"-39.582122","tecnologia":"GPON"},{"color":"green","uf":"BA","cidade":"Feira de Santana","latitude":"-12.266429","name":"Feira de Santana, BA <br> GPON","longitude":"-38.966293","tecnologia":"GPON"},{"color":"green","uf":"BA","cidade":"Ilhéus","latitude":"-14.793045","name":"Ilhéus, BA <br> GPON","longitude":"-39.04602","tecnologia":"GPON"},{"color":"green","uf":"BA","cidade":"Itabuna","latitude":"-14.787573","name":"Itabuna, BA <br> GPON","longitude":"-39.278056","tecnologia":"GPON"},{"color":"green","uf":"BA","cidade":"Jequié","latitude":"-13.850888","name":"Jequié, BA <br> GPON","longitude":"-40.087704","tecnologia":"GPON"},{"color":"green","uf":"BA","cidade":"Juazeiro","latitude":"-9.416217","name":"Juazeiro, BA <br> GPON","longitude":"-40.503251","tecnologia":"GPON"},{"color":"green","uf":"BA","cidade":"Mata de São João","latitude":"-12.530685","name":"Mata de São João, BA <br> GPON","longitude":"-38.300898","tecnologia":"GPON"},{"color":"green","uf":"BA","cidade":"Porto Seguro","latitude":"-16.443473","name":"Porto Seguro, BA <br> GPON","longitude":"-39.064251","tecnologia":"GPON"},{"color":"green","uf":"BA","cidade":"Teixeira de Freitas","latitude":"-17.539915","name":"Teixeira de Freitas, BA <br> GPON","longitude":"-39.739962","tecnologia":"GPON"},{"color":"green","uf":"CE","cidade":"Aquiraz","latitude":"-3.899293","name":"Aquiraz, CE <br> GPON","longitude":"-38.389563","tecnologia":"GPON"},{"color":"green","uf":"CE","cidade":"Eusébio","latitude":"-3.892501","name":"Eusébio, CE <br> GPON","longitude":"-38.455875","tecnologia":"GPON"},{"color":"green","uf":"CE","cidade":"Juazeiro do Norte","latitude":"-7.196207","name":"Juazeiro do Norte, CE <br> GPON","longitude":"-39.307593","tecnologia":"GPON"},{"color":"green","uf":"CE","cidade":"Sobral","latitude":"-3.689133","name":"Sobral, CE <br> GPON","longitude":"-40.34821","tecnologia":"GPON"},{"color":"green","uf":"ES","cidade":"Aracruz","latitude":"-19.820045","name":"Aracruz, ES <br> GPON","longitude":"-40.276441","tecnologia":"GPON"},{"color":"green","uf":"ES","cidade":"Colatina","latitude":"-19.549316","name":"Colatina, ES <br> GPON","longitude":"-40.626898","tecnologia":"GPON"},{"color":"green","uf":"GO","cidade":"Caldas Novas","latitude":"-17.74406","name":"Caldas Novas, GO <br> GPON","longitude":"-48.624579","tecnologia":"GPON"},{"color":"green","uf":"GO","cidade":"Formosa","latitude":"-15.539991","name":"Formosa, GO <br> GPON","longitude":"-47.336999","tecnologia":"GPON"},{"color":"green","uf":"GO","cidade":"Itumbiara","latitude":"-18.409267","name":"Itumbiara, GO <br> GPON","longitude":"-49.215845","tecnologia":"GPON"},{"color":"green","uf":"GO","cidade":"Jataí","latitude":"-17.878383","name":"Jataí, GO <br> GPON","longitude":"-51.720424","tecnologia":"GPON"},{"color":"green","uf":"GO","cidade":"Rio Verde","latitude":"-17.792266","name":"Rio Verde, GO <br> GPON","longitude":"-50.919195","tecnologia":"GPON"},{"color":"green","uf":"GO","cidade":"Santa Helena de Goiás","latitude":"-17.81152","name":"Santa Helena de Goiás, GO <br> GPON","longitude":"-50.597664","tecnologia":"GPON"},{"color":"green","uf":"GO","cidade":"Senador Canedo","latitude":"-16.708401","name":"Senador Canedo, GO <br> GPON","longitude":"-49.091398","tecnologia":"GPON"},{"color":"green","uf":"GO","cidade":"Valparaíso de Goiás","latitude":"-16.065078","name":"Valparaíso de Goiás, GO <br> GPON","longitude":"-47.975675","tecnologia":"GPON"},{"color":"green","uf":"MA","cidade":"Caxias","latitude":"-4.865053","name":"Caxias, MA <br> GPON","longitude":"-43.361749","tecnologia":"GPON"},{"color":"green","uf":"MA","cidade":"Imperatriz","latitude":"-5.518471","name":"Imperatriz, MA <br> GPON","longitude":"-47.477726","tecnologia":"GPON"},{"color":"green","uf":"MA","cidade":"Timon","latitude":"-5.097692","name":"Timon, MA <br> GPON","longitude":"-42.83292","tecnologia":"GPON"},{"color":"green","uf":"MG","cidade":"Araguari","latitude":"-18.645575","name":"Araguari, MG <br> GPON","longitude":"-48.193392","tecnologia":"GPON"},{"color":"green","uf":"MG","cidade":"Barbacena","latitude":"-21.221446","name":"Barbacena, MG <br> GPON","longitude":"-43.770266","tecnologia":"GPON"},{"color":"green","uf":"MG","cidade":"Cataguases","latitude":"-21.39239","name":"Cataguases, MG <br> GPON","longitude":"-42.689647","tecnologia":"GPON"},{"color":"green","uf":"MG","cidade":"Conselheiro Lafaiete","latitude":"-20.663445","name":"Conselheiro Lafaiete, MG <br> GPON","longitude":"-43.784609","tecnologia":"GPON"},{"color":"green","uf":"MG","cidade":"Coronel Fabriciano","latitude":"-19.517879","name":"Coronel Fabriciano, MG <br> GPON","longitude":"-42.627585","tecnologia":"GPON"},{"color":"green","uf":"MG","cidade":"Divinópolis","latitude":"-20.144646","name":"Divinópolis, MG <br> GPON","longitude":"-44.891223","tecnologia":"GPON"},{"color":"green","uf":"MG","cidade":"Itabira","latitude":"-19.623936","name":"Itabira, MG <br> GPON","longitude":"-43.23123","tecnologia":"GPON"},{"color":"green","uf":"MG","cidade":"Itaúna","latitude":"-20.081798","name":"Itaúna, MG <br> GPON","longitude":"-44.580112","tecnologia":"GPON"},{"color":"green","uf":"MG","cidade":"Ituiutaba","latitude":"-18.977191","name":"Ituiutaba, MG <br> GPON","longitude":"-49.463945","tecnologia":"GPON"},{"color":"green","uf":"MG","cidade":"Lagoa Santa","latitude":"-19.63967","name":"Lagoa Santa, MG <br> GPON","longitude":"-43.893216","tecnologia":"GPON"},{"color":"green","uf":"MG","cidade":"Lavras","latitude":"-21.248002","name":"Lavras, MG <br> GPON","longitude":"-45.000949","tecnologia":"GPON"},{"color":"green","uf":"MG","cidade":"Manhuaçu","latitude":"-20.257226","name":"Manhuaçu, MG <br> GPON","longitude":"-42.027987","tecnologia":"GPON"},{"color":"green","uf":"MG","cidade":"Montes Claros","latitude":"-16.728177","name":"Montes Claros, MG <br> GPON","longitude":"-43.857809","tecnologia":"GPON"},{"color":"green","uf":"MG","cidade":"Pará de Minas","latitude":"-19.853441","name":"Pará de Minas, MG <br> GPON","longitude":"-44.611355","tecnologia":"GPON"},{"color":"green","uf":"MG","cidade":"Patos de Minas","latitude":"-18.569938","name":"Patos de Minas, MG <br> GPON","longitude":"-46.501268","tecnologia":"GPON"},{"color":"green","uf":"MG","cidade":"Poços de Caldas","latitude":"-21.779975","name":"Poços de Caldas, MG <br> GPON","longitude":"-46.569184","tecnologia":"GPON"},{"color":"green","uf":"MG","cidade":"Pouso Alegre","latitude":"-22.22659","name":"Pouso Alegre, MG <br> GPON","longitude":"-45.938935","tecnologia":"GPON"},{"color":"green","uf":"MG","cidade":"Santa Luzia","latitude":"-19.754824","name":"Santa Luzia, MG <br> GPON","longitude":"-43.849658","tecnologia":"GPON"},{"color":"green","uf":"MG","cidade":"São João Del Rei","latitude":"-21.131054","name":"São João Del Rei, MG <br> GPON","longitude":"-44.252646","tecnologia":"GPON"},{"color":"green","uf":"MG","cidade":"Timóteo","latitude":"-19.581086","name":"Timóteo, MG <br> GPON","longitude":"-42.64713","tecnologia":"GPON"},{"color":"green","uf":"MG","cidade":"Três Corações","latitude":"-21.692091","name":"Três Corações, MG <br> GPON","longitude":"-45.251117","tecnologia":"GPON"},{"color":"green","uf":"MG","cidade":"Ubá","latitude":"-21.120444","name":"Ubá, MG <br> GPON","longitude":"-42.935931","tecnologia":"GPON"},{"color":"green","uf":"MG","cidade":"Vespasiano","latitude":"-19.688326","name":"Vespasiano, MG <br> GPON","longitude":"-43.9239","tecnologia":"GPON"},{"color":"green","uf":"MG","cidade":"Viçosa","latitude":"-20.755916","name":"Viçosa, MG <br> GPON","longitude":"-42.87417","tecnologia":"GPON"},{"color":"green","uf":"MS","cidade":"Naviraí","latitude":"-23.06181","name":"Naviraí, MS <br> GPON","longitude":"-54.199465","tecnologia":"GPON"},{"color":"green","uf":"MS","cidade":"Ponta Porã","latitude":"-22.529617","name":"Ponta Porã, MS <br> GPON","longitude":"-55.720326","tecnologia":"GPON"},{"color":"green","uf":"MS","cidade":"Três Lagoas","latitude":"-20.784853","name":"Três Lagoas, MS <br> GPON","longitude":"-51.700731","tecnologia":"GPON"},{"color":"green","uf":"MT","cidade":"Lucas do Rio Verde","latitude":"-13.058796","name":"Lucas do Rio Verde, MT <br> GPON","longitude":"-55.904202","tecnologia":"GPON"},{"color":"green","uf":"MT","cidade":"Nova Mutum","latitude":"-13.837389","name":"Nova Mutum, MT <br> GPON","longitude":"-56.074316","tecnologia":"GPON"},{"color":"green","uf":"MT","cidade":"Sinop","latitude":"-11.86043","name":"Sinop, MT <br> GPON","longitude":"-55.509062","tecnologia":"GPON"},{"color":"green","uf":"MT","cidade":"Sorriso","latitude":"-12.542527","name":"Sorriso, MT <br> GPON","longitude":"-55.721051","tecnologia":"GPON"},{"color":"green","uf":"PA","cidade":"Castanhal","latitude":"-1.297971","name":"Castanhal, PA <br> GPON","longitude":"-47.916742","tecnologia":"GPON"},{"color":"green","uf":"PA","cidade":"Marabá","latitude":"-5.38075","name":"Marabá, PA <br> GPON","longitude":"-49.132672","tecnologia":"GPON"},{"color":"green","uf":"PA","cidade":"Paragominas","latitude":"-3.002116","name":"Paragominas, PA <br> GPON","longitude":"-47.352692","tecnologia":"GPON"},{"color":"green","uf":"PA","cidade":"Parauapebas","latitude":"-6.067812","name":"Parauapebas, PA <br> GPON","longitude":"-49.903733","tecnologia":"GPON"},{"color":"green","uf":"PE","cidade":"Petrolina","latitude":"-9.388662","name":"Petrolina, PE <br> GPON","longitude":"-40.502731","tecnologia":"GPON"},{"color":"green","uf":"PI","cidade":"Parnaíba","latitude":"-2.905847","name":"Parnaíba, PI <br> GPON","longitude":"-41.775388","tecnologia":"GPON"},{"color":"green","uf":"PR","cidade":"Apucarana","latitude":"-23.549961","name":"Apucarana, PR <br> GPON","longitude":"-51.463486","tecnologia":"GPON"},{"color":"green","uf":"PR","cidade":"Cambé","latitude":"-23.276575","name":"Cambé, PR <br> GPON","longitude":"-51.279832","tecnologia":"GPON"},{"color":"green","uf":"PR","cidade":"Paranaguá","latitude":"-25.516078","name":"Paranaguá, PR <br> GPON","longitude":"-48.522528","tecnologia":"GPON"},{"color":"green","uf":"PR","cidade":"Rolândia","latitude":"-23.31012","name":"Rolândia, PR <br> GPON","longitude":"-51.365928","tecnologia":"GPON"},{"color":"green","uf":"RJ","cidade":"Armação Dos Búzios","latitude":"-22.752846","name":"Armação Dos Búzios, RJ <br> GPON","longitude":"-41.884559","tecnologia":"GPON"},{"color":"green","uf":"RJ","cidade":"Cabo Frio","latitude":"-22.88943","name":"Cabo Frio, RJ <br> GPON","longitude":"-42.028595","tecnologia":"GPON"},{"color":"green","uf":"RJ","cidade":"Itaguaí","latitude":"-22.863566","name":"Itaguaí, RJ <br> GPON","longitude":"-43.779821","tecnologia":"GPON"},{"color":"green","uf":"RJ","cidade":"Miguel Pereira","latitude":"-22.457242","name":"Miguel Pereira, RJ <br> GPON","longitude":"-43.480275","tecnologia":"GPON"},{"color":"green","uf":"RJ","cidade":"Nova Friburgo","latitude":"-22.293224","name":"Nova Friburgo, RJ <br> GPON","longitude":"-42.537692","tecnologia":"GPON"},{"color":"green","uf":"RJ","cidade":"São Pedro da Aldeia","latitude":"-22.842859","name":"São Pedro da Aldeia, RJ <br> GPON","longitude":"-42.102596","tecnologia":"GPON"},{"color":"green","uf":"RJ","cidade":"Três Rios","latitude":"-22.11651","name":"Três Rios, RJ <br> GPON","longitude":"-43.218533","tecnologia":"GPON"},{"color":"green","uf":"RJ","cidade":"Valença","latitude":"-22.244496","name":"Valença, RJ <br> GPON","longitude":"-43.71288","tecnologia":"GPON"},{"color":"green","uf":"RJ","cidade":"Vassouras","latitude":"-22.405889","name":"Vassouras, RJ <br> GPON","longitude":"-43.668555","tecnologia":"GPON"},{"color":"green","uf":"RN","cidade":"Mossoró","latitude":"-5.183737","name":"Mossoró, RN <br> GPON","longitude":"-37.347446","tecnologia":"GPON"},{"color":"green","uf":"RO","cidade":"Ariquemes","latitude":"-9.905711","name":"Ariquemes, RO <br> GPON","longitude":"-63.032516","tecnologia":"GPON"},{"color":"green","uf":"RO","cidade":"Cacoal","latitude":"-11.434271","name":"Cacoal, RO <br> GPON","longitude":"-61.456167","tecnologia":"GPON"},{"color":"green","uf":"RO","cidade":"Vilhena","latitude":"-12.750183","name":"Vilhena, RO <br> GPON","longitude":"-60.148847","tecnologia":"GPON"},{"color":"green","uf":"RS","cidade":"Alegrete","latitude":"-29.790166","name":"Alegrete, RS <br> GPON","longitude":"-55.794862","tecnologia":"GPON"},{"color":"green","uf":"RS","cidade":"Arroio do Meio","latitude":"-29.401353","name":"Arroio do Meio, RS <br> GPON","longitude":"-51.955735","tecnologia":"GPON"},{"color":"green","uf":"RS","cidade":"Cachoeira do Sul","latitude":"-30.032988","name":"Cachoeira do Sul, RS <br> GPON","longitude":"-52.892756","tecnologia":"GPON"},{"color":"green","uf":"RS","cidade":"Canela","latitude":"-29.355993","name":"Canela, RS <br> GPON","longitude":"-50.811921","tecnologia":"GPON"},{"color":"green","uf":"RS","cidade":"Carazinho","latitude":"-28.295844","name":"Carazinho, RS <br> GPON","longitude":"-52.79326","tecnologia":"GPON"},{"color":"green","uf":"RS","cidade":"Carlos Barbosa","latitude":"-29.296949","name":"Carlos Barbosa, RS <br> GPON","longitude":"-51.502847","tecnologia":"GPON"},{"color":"green","uf":"RS","cidade":"Charqueadas","latitude":"-29.962478","name":"Charqueadas, RS <br> GPON","longitude":"-51.628872","tecnologia":"GPON"},{"color":"green","uf":"RS","cidade":"Eldorado do Sul","latitude":"-30.084676","name":"Eldorado do Sul, RS <br> GPON","longitude":"-51.618702","tecnologia":"GPON"},{"color":"green","uf":"RS","cidade":"Encantado","latitude":"-29.235141","name":"Encantado, RS <br> GPON","longitude":"-51.870282","tecnologia":"GPON"},{"color":"green","uf":"RS","cidade":"Estrela","latitude":"-29.500207","name":"Estrela, RS <br> GPON","longitude":"-51.949508","tecnologia":"GPON"},{"color":"green","uf":"RS","cidade":"Frederico Westphalen","latitude":"-27.358644","name":"Frederico Westphalen, RS <br> GPON","longitude":"-53.395824","tecnologia":"GPON"},{"color":"green","uf":"RS","cidade":"Garibaldi","latitude":"-29.258979","name":"Garibaldi, RS <br> GPON","longitude":"-51.535179","tecnologia":"GPON"},{"color":"green","uf":"RS","cidade":"Gramado","latitude":"-29.373351","name":"Gramado, RS <br> GPON","longitude":"-50.876164","tecnologia":"GPON"},{"color":"green","uf":"RS","cidade":"Guaíba","latitude":"-30.108592","name":"Guaíba, RS <br> GPON","longitude":"-51.323314","tecnologia":"GPON"},{"color":"green","uf":"RS","cidade":"Igrejinha","latitude":"-29.569318","name":"Igrejinha, RS <br> GPON","longitude":"-50.791894","tecnologia":"GPON"},{"color":"green","uf":"RS","cidade":"Imbé","latitude":"-29.975269","name":"Imbé, RS <br> GPON","longitude":"-50.128068","tecnologia":"GPON"},{"color":"green","uf":"RS","cidade":"Itaqui","latitude":"-29.131051","name":"Itaqui, RS <br> GPON","longitude":"-56.551478","tecnologia":"GPON"},{"color":"green","uf":"RS","cidade":"Ivoti","latitude":"-29.599463","name":"Ivoti, RS <br> GPON","longitude":"-51.153326","tecnologia":"GPON"},{"color":"green","uf":"RS","cidade":"Montenegro","latitude":"-29.682414","name":"Montenegro, RS <br> GPON","longitude":"-51.467903","tecnologia":"GPON"},{"color":"green","uf":"RS","cidade":"Nova Petrópolis","latitude":"-29.374112","name":"Nova Petrópolis, RS <br> GPON","longitude":"-51.113552","tecnologia":"GPON"},{"color":"green","uf":"RS","cidade":"Osório","latitude":"-29.888089","name":"Osório, RS <br> GPON","longitude":"-50.266713","tecnologia":"GPON"},{"color":"green","uf":"RS","cidade":"Palmeira Das Missões","latitude":"-27.900652","name":"Palmeira Das Missões, RS <br> GPON","longitude":"-53.313378","tecnologia":"GPON"},{"color":"green","uf":"RS","cidade":"Panambi","latitude":"-28.283328","name":"Panambi, RS <br> GPON","longitude":"-53.502261","tecnologia":"GPON"},{"color":"green","uf":"RS","cidade":"Parobé","latitude":"-29.624257","name":"Parobé, RS <br> GPON","longitude":"-50.83118","tecnologia":"GPON"},{"color":"green","uf":"RS","cidade":"Rio Pardo","latitude":"-29.98803","name":"Rio Pardo, RS <br> GPON","longitude":"-52.37113","tecnologia":"GPON"},{"color":"green","uf":"RS","cidade":"Rosário do Sul","latitude":"-30.251483","name":"Rosário do Sul, RS <br> GPON","longitude":"-54.922106","tecnologia":"GPON"},{"color":"green","uf":"RS","cidade":"Santa Rosa","latitude":"-27.8702","name":"Santa Rosa, RS <br> GPON","longitude":"-54.479629","tecnologia":"GPON"},{"color":"green","uf":"RS","cidade":"Santana do Livramento","latitude":"-30.88772","name":"Santana do Livramento, RS <br> GPON","longitude":"-55.531467","tecnologia":"GPON"},{"color":"green","uf":"RS","cidade":"Santo Ângelo","latitude":"-28.300128","name":"Santo Ângelo, RS <br> GPON","longitude":"-54.266781","tecnologia":"GPON"},{"color":"green","uf":"RS","cidade":"São Borja","latitude":"-28.657828","name":"São Borja, RS <br> GPON","longitude":"-56.003603","tecnologia":"GPON"},{"color":"green","uf":"RS","cidade":"São Gabriel","latitude":"-30.333688","name":"São Gabriel, RS <br> GPON","longitude":"-54.321657","tecnologia":"GPON"},{"color":"green","uf":"RS","cidade":"São Lourenço do Sul","latitude":"-31.356374","name":"São Lourenço do Sul, RS <br> GPON","longitude":"-51.971531","tecnologia":"GPON"},{"color":"green","uf":"RS","cidade":"São Luiz Gonzaga","latitude":"-28.412032","name":"São Luiz Gonzaga, RS <br> GPON","longitude":"-54.955942","tecnologia":"GPON"},{"color":"green","uf":"RS","cidade":"Taquara","latitude":"-29.650471","name":"Taquara, RS <br> GPON","longitude":"-50.775278","tecnologia":"GPON"},{"color":"green","uf":"RS","cidade":"Teutônia","latitude":"-29.448205","name":"Teutônia, RS <br> GPON","longitude":"-51.804375","tecnologia":"GPON"},{"color":"green","uf":"RS","cidade":"Torres","latitude":"-29.333438","name":"Torres, RS <br> GPON","longitude":"-49.733289","tecnologia":"GPON"},{"color":"green","uf":"RS","cidade":"Tramandaí","latitude":"-29.98414","name":"Tramandaí, RS <br> GPON","longitude":"-50.132187","tecnologia":"GPON"},{"color":"green","uf":"RS","cidade":"Três Coroas","latitude":"-29.513719","name":"Três Coroas, RS <br> GPON","longitude":"-50.773869","tecnologia":"GPON"},{"color":"green","uf":"RS","cidade":"Venâncio Aires","latitude":"-29.614306","name":"Venâncio Aires, RS <br> GPON","longitude":"-52.193159","tecnologia":"GPON"},{"color":"green","uf":"RS","cidade":"Vera Cruz","latitude":"-29.718435","name":"Vera Cruz, RS <br> GPON","longitude":"-52.515176","tecnologia":"GPON"},{"color":"green","uf":"RS","cidade":"Veranópolis","latitude":"-28.931197","name":"Veranópolis, RS <br> GPON","longitude":"-51.551614","tecnologia":"GPON"},{"color":"green","uf":"SC","cidade":"Araranguá","latitude":"-28.935615","name":"Araranguá, SC <br> GPON","longitude":"-49.491809","tecnologia":"GPON"},{"color":"green","uf":"SC","cidade":"Biguaçu","latitude":"-27.496004","name":"Biguaçu, SC <br> GPON","longitude":"-48.65979","tecnologia":"GPON"},{"color":"green","uf":"SC","cidade":"Caçador","latitude":"-26.77567","name":"Caçador, SC <br> GPON","longitude":"-51.012004","tecnologia":"GPON"},{"color":"green","uf":"SC","cidade":"Camboriú","latitude":"-27.024078","name":"Camboriú, SC <br> GPON","longitude":"-48.650338","tecnologia":"GPON"},{"color":"green","uf":"SC","cidade":"Concórdia","latitude":"-27.233461","name":"Concórdia, SC <br> GPON","longitude":"-52.025962","tecnologia":"GPON"},{"color":"green","uf":"SC","cidade":"Fraiburgo","latitude":"-27.023288","name":"Fraiburgo, SC <br> GPON","longitude":"-50.919978","tecnologia":"GPON"},{"color":"green","uf":"SC","cidade":"Gaspar","latitude":"-26.933597","name":"Gaspar, SC <br> GPON","longitude":"-48.953428","tecnologia":"GPON"},{"color":"green","uf":"SC","cidade":"Guaramirim","latitude":"-26.468753","name":"Guaramirim, SC <br> GPON","longitude":"-49.002628","tecnologia":"GPON"},{"color":"green","uf":"SC","cidade":"Indaial","latitude":"-26.899247","name":"Indaial, SC <br> GPON","longitude":"-49.235417","tecnologia":"GPON"},{"color":"green","uf":"SC","cidade":"Jaraguá do Sul","latitude":"-26.485083","name":"Jaraguá do Sul, SC <br> GPON","longitude":"-49.07125","tecnologia":"GPON"},{"color":"green","uf":"SC","cidade":"Joaçaba","latitude":"-27.172105","name":"Joaçaba, SC <br> GPON","longitude":"-51.510788","tecnologia":"GPON"},{"color":"green","uf":"SC","cidade":"Lages","latitude":"-27.814966","name":"Lages, SC <br> GPON","longitude":"-50.325862","tecnologia":"GPON"},{"color":"green","uf":"SC","cidade":"Mafra","latitude":"-26.115935","name":"Mafra, SC <br> GPON","longitude":"-49.808624","tecnologia":"GPON"},{"color":"green","uf":"SC","cidade":"Rio do Sul","latitude":"-27.215596","name":"Rio do Sul, SC <br> GPON","longitude":"-49.643016","tecnologia":"GPON"},{"color":"green","uf":"SC","cidade":"Rio Negrinho","latitude":"-26.259075","name":"Rio Negrinho, SC <br> GPON","longitude":"-49.517746","tecnologia":"GPON"},{"color":"green","uf":"SC","cidade":"São Bento do Sul","latitude":"-26.249542","name":"São Bento do Sul, SC <br> GPON","longitude":"-49.383077","tecnologia":"GPON"},{"color":"green","uf":"SC","cidade":"São Francisco do Sul","latitude":"-26.257917","name":"São Francisco do Sul, SC <br> GPON","longitude":"-48.634372","tecnologia":"GPON"},{"color":"green","uf":"SC","cidade":"Timbó","latitude":"-26.82464","name":"Timbó, SC <br> GPON","longitude":"-49.269039","tecnologia":"GPON"},{"color":"green","uf":"SC","cidade":"Tubarão","latitude":"-28.47131","name":"Tubarão, SC <br> GPON","longitude":"-49.014371","tecnologia":"GPON"},{"color":"green","uf":"SC","cidade":"Videira","latitude":"-27.008624","name":"Videira, SC <br> GPON","longitude":"-51.154274","tecnologia":"GPON"},{"color":"green","uf":"SC","cidade":"Xanxerê","latitude":"-26.874694","name":"Xanxerê, SC <br> GPON","longitude":"-52.403579","tecnologia":"GPON"},{"color":"green","uf":"SC","cidade":"Xaxim","latitude":"-26.959643","name":"Xaxim, SC <br> GPON","longitude":"-52.537446","tecnologia":"GPON"},{"color":"green","uf":"SP","cidade":"Adamantina","latitude":"-21.682012","name":"Adamantina, SP <br> GPON","longitude":"-51.073695","tecnologia":"GPON"},{"color":"green","uf":"SP","cidade":"Alumínio","latitude":"-23.530553","name":"Alumínio, SP <br> GPON","longitude":"-47.254571","tecnologia":"GPON"},{"color":"green","uf":"SP","cidade":"Álvares Machado","latitude":"-22.076415","name":"Álvares Machado, SP <br> GPON","longitude":"-51.47224","tecnologia":"GPON"},{"color":"green","uf":"SP","cidade":"Américo Brasiliense","latitude":"-21.728771","name":"Américo Brasiliense, SP <br> GPON","longitude":"-48.11467","tecnologia":"GPON"},{"color":"green","uf":"SP","cidade":"Amparo","latitude":"-22.70879","name":"Amparo, SP <br> GPON","longitude":"-46.772022","tecnologia":"GPON"},{"color":"green","uf":"SP","cidade":"Andradina","latitude":"-20.894761","name":"Andradina, SP <br> GPON","longitude":"-51.378568","tecnologia":"GPON"},{"color":"green","uf":"SP","cidade":"Arujá","latitude":"-23.396476","name":"Arujá, SP <br> GPON","longitude":"-46.319983","tecnologia":"GPON"},{"color":"green","uf":"SP","cidade":"Avaré","latitude":"-23.106732","name":"Avaré, SP <br> GPON","longitude":"-48.925052","tecnologia":"GPON"},{"color":"green","uf":"SP","cidade":"Bady Bassitt","latitude":"-20.919689","name":"Bady Bassitt, SP <br> GPON","longitude":"-49.4385","tecnologia":"GPON"},{"color":"green","uf":"SP","cidade":"Barretos","latitude":"-20.553146","name":"Barretos, SP <br> GPON","longitude":"-48.569832","tecnologia":"GPON"},{"color":"green","uf":"SP","cidade":"Barrinha","latitude":"-21.186374","name":"Barrinha, SP <br> GPON","longitude":"-48.163614","tecnologia":"GPON"},{"color":"green","uf":"SP","cidade":"Batatais","latitude":"-20.892867","name":"Batatais, SP <br> GPON","longitude":"-47.592149","tecnologia":"GPON"},{"color":"green","uf":"SP","cidade":"Bebedouro","latitude":"-20.949077","name":"Bebedouro, SP <br> GPON","longitude":"-48.479083","tecnologia":"GPON"},{"color":"green","uf":"SP","cidade":"Birigui","latitude":"-21.291034","name":"Birigui, SP <br> GPON","longitude":"-50.343162","tecnologia":"GPON"},{"color":"green","uf":"SP","cidade":"Boituva","latitude":"-23.285531","name":"Boituva, SP <br> GPON","longitude":"-47.678574","tecnologia":"GPON"},{"color":"green","uf":"SP","cidade":"Cabreúva","latitude":"-23.30533","name":"Cabreúva, SP <br> GPON","longitude":"-47.136251","tecnologia":"GPON"},{"color":"green","uf":"SP","cidade":"Caieiras","latitude":"-23.360729","name":"Caieiras, SP <br> GPON","longitude":"-46.73974","tecnologia":"GPON"},{"color":"green","uf":"SP","cidade":"Cajamar","latitude":"-23.355014","name":"Cajamar, SP <br> GPON","longitude":"-46.878146","tecnologia":"GPON"},{"color":"green","uf":"SP","cidade":"Campo Limpo Paulista","latitude":"-23.207791","name":"Campo Limpo Paulista, SP <br> GPON","longitude":"-46.788919","tecnologia":"GPON"},{"color":"green","uf":"SP","cidade":"Campos do Jordão","latitude":"-22.729618","name":"Campos do Jordão, SP <br> GPON","longitude":"-45.583337","tecnologia":"GPON"},{"color":"green","uf":"SP","cidade":"Caraguatatuba","latitude":"-23.612535","name":"Caraguatatuba, SP <br> GPON","longitude":"-45.412533","tecnologia":"GPON"},{"color":"green","uf":"SP","cidade":"Catanduva","latitude":"-21.131381","name":"Catanduva, SP <br> GPON","longitude":"-48.977015","tecnologia":"GPON"},{"color":"green","uf":"SP","cidade":"Cerquilho","latitude":"-23.166487","name":"Cerquilho, SP <br> GPON","longitude":"-47.745862","tecnologia":"GPON"},{"color":"green","uf":"SP","cidade":"Cordeirópolis","latitude":"-22.477778","name":"Cordeirópolis, SP <br> GPON","longitude":"-47.451886","tecnologia":"GPON"},{"color":"green","uf":"SP","cidade":"Cravinhos","latitude":"-21.337959","name":"Cravinhos, SP <br> GPON","longitude":"-47.732427","tecnologia":"GPON"},{"color":"green","uf":"SP","cidade":"Descalvado","latitude":"-21.900211","name":"Descalvado, SP <br> GPON","longitude":"-47.618105","tecnologia":"GPON"},{"color":"green","uf":"SP","cidade":"Dracena","latitude":"-21.484311","name":"Dracena, SP <br> GPON","longitude":"-51.535034","tecnologia":"GPON"},{"color":"green","uf":"SP","cidade":"Espírito Santo do Pinhal","latitude":"-22.190871","name":"Espírito Santo do Pinhal, SP <br> GPON","longitude":"-46.74767","tecnologia":"GPON"},{"color":"green","uf":"SP","cidade":"Fernandópolis","latitude":"-20.280556","name":"Fernandópolis, SP <br> GPON","longitude":"-50.247115","tecnologia":"GPON"},{"color":"green","uf":"SP","cidade":"Garça","latitude":"-22.212516","name":"Garça, SP <br> GPON","longitude":"-49.654596","tecnologia":"GPON"},{"color":"green","uf":"SP","cidade":"Guaíra","latitude":"-20.319591","name":"Guaíra, SP <br> GPON","longitude":"-48.31197","tecnologia":"GPON"},{"color":"green","uf":"SP","cidade":"Guapiaçu","latitude":"-20.795885","name":"Guapiaçu, SP <br> GPON","longitude":"-49.217201","tecnologia":"GPON"},{"color":"green","uf":"SP","cidade":"Guararapes","latitude":"-21.254431","name":"Guararapes, SP <br> GPON","longitude":"-50.645338","tecnologia":"GPON"},{"color":"green","uf":"SP","cidade":"Ibiúna","latitude":"-23.65961","name":"Ibiúna, SP <br> GPON","longitude":"-47.223037","tecnologia":"GPON"},{"color":"green","uf":"SP","cidade":"Iperó","latitude":"-23.351296","name":"Iperó, SP <br> GPON","longitude":"-47.692717","tecnologia":"GPON"},{"color":"green","uf":"SP","cidade":"Itanhaém","latitude":"-24.173633","name":"Itanhaém, SP <br> GPON","longitude":"-46.787986","tecnologia":"GPON"},{"color":"green","uf":"SP","cidade":"Itapeva","latitude":"-23.978823","name":"Itapeva, SP <br> GPON","longitude":"-48.876433","tecnologia":"GPON"},{"color":"green","uf":"SP","cidade":"Itapira","latitude":"-22.435731","name":"Itapira, SP <br> GPON","longitude":"-46.822434","tecnologia":"GPON"},{"color":"green","uf":"SP","cidade":"Itaquaquecetuba","latitude":"-23.483481","name":"Itaquaquecetuba, SP <br> GPON","longitude":"-46.345724","tecnologia":"GPON"},{"color":"green","uf":"SP","cidade":"Itatiba","latitude":"-23.003497","name":"Itatiba, SP <br> GPON","longitude":"-46.846353","tecnologia":"GPON"},{"color":"green","uf":"SP","cidade":"Itupeva","latitude":"-23.152635","name":"Itupeva, SP <br> GPON","longitude":"-47.059262","tecnologia":"GPON"},{"color":"green","uf":"SP","cidade":"Ituverava","latitude":"-20.335465","name":"Ituverava, SP <br> GPON","longitude":"-47.790207","tecnologia":"GPON"},{"color":"green","uf":"SP","cidade":"Jaboticabal","latitude":"-21.252037","name":"Jaboticabal, SP <br> GPON","longitude":"-48.325223","tecnologia":"GPON"},{"color":"green","uf":"SP","cidade":"Jales","latitude":"-20.267227","name":"Jales, SP <br> GPON","longitude":"-50.549442","tecnologia":"GPON"},{"color":"green","uf":"SP","cidade":"Jardinópolis","latitude":"-21.017612","name":"Jardinópolis, SP <br> GPON","longitude":"-47.760583","tecnologia":"GPON"},{"color":"green","uf":"SP","cidade":"Jarinu","latitude":"-23.103855","name":"Jarinu, SP <br> GPON","longitude":"-46.728015","tecnologia":"GPON"},{"color":"green","uf":"SP","cidade":"José Bonifácio","latitude":"-21.055062","name":"José Bonifácio, SP <br> GPON","longitude":"-49.689233","tecnologia":"GPON"},{"color":"green","uf":"SP","cidade":"Laranjal Paulista","latitude":"-23.050564","name":"Laranjal Paulista, SP <br> GPON","longitude":"-47.837549","tecnologia":"GPON"},{"color":"green","uf":"SP","cidade":"Leme","latitude":"-22.180857","name":"Leme, SP <br> GPON","longitude":"-47.384109","tecnologia":"GPON"},{"color":"green","uf":"SP","cidade":"Lençóis Paulista","latitude":"-22.602693","name":"Lençóis Paulista, SP <br> GPON","longitude":"-48.803683","tecnologia":"GPON"},{"color":"green","uf":"SP","cidade":"Lins","latitude":"-21.67182","name":"Lins, SP <br> GPON","longitude":"-49.752555","tecnologia":"GPON"},{"color":"green","uf":"SP","cidade":"Louveira","latitude":"-23.085572","name":"Louveira, SP <br> GPON","longitude":"-46.948369","tecnologia":"GPON"},{"color":"green","uf":"SP","cidade":"Mairinque","latitude":"-23.539822","name":"Mairinque, SP <br> GPON","longitude":"-47.184995","tecnologia":"GPON"},{"color":"green","uf":"SP","cidade":"Matão","latitude":"-21.602511","name":"Matão, SP <br> GPON","longitude":"-48.363968","tecnologia":"GPON"},{"color":"green","uf":"SP","cidade":"Mirandópolis","latitude":"-21.131345","name":"Mirandópolis, SP <br> GPON","longitude":"-51.1035","tecnologia":"GPON"},{"color":"green","uf":"SP","cidade":"Mirassol","latitude":"-20.816874","name":"Mirassol, SP <br> GPON","longitude":"-49.52061","tecnologia":"GPON"},{"color":"green","uf":"SP","cidade":"Mococa","latitude":"-21.464731","name":"Mococa, SP <br> GPON","longitude":"-47.002405","tecnologia":"GPON"},{"color":"green","uf":"SP","cidade":"Mongaguá","latitude":"-24.080901","name":"Mongaguá, SP <br> GPON","longitude":"-46.626526","tecnologia":"GPON"},{"color":"green","uf":"SP","cidade":"Monte Alto","latitude":"-21.265545","name":"Monte Alto, SP <br> GPON","longitude":"-48.497066","tecnologia":"GPON"},{"color":"green","uf":"SP","cidade":"Morungaba","latitude":"-22.881071","name":"Morungaba, SP <br> GPON","longitude":"-46.789601","tecnologia":"GPON"},{"color":"green","uf":"SP","cidade":"Orlândia","latitude":"-20.716925","name":"Orlândia, SP <br> GPON","longitude":"-47.885205","tecnologia":"GPON"},{"color":"green","uf":"SP","cidade":"Ourinhos","latitude":"-22.979695","name":"Ourinhos, SP <br> GPON","longitude":"-49.869702","tecnologia":"GPON"},{"color":"green","uf":"SP","cidade":"Pedreira","latitude":"-22.741347","name":"Pedreira, SP <br> GPON","longitude":"-46.894846","tecnologia":"GPON"},{"color":"green","uf":"SP","cidade":"Penápolis","latitude":"-21.414765","name":"Penápolis, SP <br> GPON","longitude":"-50.076855","tecnologia":"GPON"},{"color":"green","uf":"SP","cidade":"Peruíbe","latitude":"-24.311974","name":"Peruíbe, SP <br> GPON","longitude":"-47.0012","tecnologia":"GPON"},{"color":"green","uf":"SP","cidade":"Piracaia","latitude":"-23.052545","name":"Piracaia, SP <br> GPON","longitude":"-46.359374","tecnologia":"GPON"},{"color":"green","uf":"SP","cidade":"Pirassununga","latitude":"-21.995982","name":"Pirassununga, SP <br> GPON","longitude":"-47.425746","tecnologia":"GPON"},{"color":"green","uf":"SP","cidade":"Pontal","latitude":"-21.021565","name":"Pontal, SP <br> GPON","longitude":"-48.042261","tecnologia":"GPON"},{"color":"green","uf":"SP","cidade":"Porto Ferreira","latitude":"-21.849814","name":"Porto Ferreira, SP <br> GPON","longitude":"-47.487034","tecnologia":"GPON"},{"color":"green","uf":"SP","cidade":"Potirendaba","latitude":"-21.042789","name":"Potirendaba, SP <br> GPON","longitude":"-49.381509","tecnologia":"GPON"},{"color":"green","uf":"SP","cidade":"Presidente Bernardes","latitude":"-22.008198","name":"Presidente Bernardes, SP <br> GPON","longitude":"-51.556507","tecnologia":"GPON"},{"color":"green","uf":"SP","cidade":"Promissão","latitude":"-21.535572","name":"Promissão, SP <br> GPON","longitude":"-49.85989","tecnologia":"GPON"},{"color":"green","uf":"SP","cidade":"Registro","latitude":"-24.497942","name":"Registro, SP <br> GPON","longitude":"-47.844895","tecnologia":"GPON"},{"color":"green","uf":"SP","cidade":"Ribeirão Pires","latitude":"-23.706669","name":"Ribeirão Pires, SP <br> GPON","longitude":"-46.405805","tecnologia":"GPON"},{"color":"green","uf":"SP","cidade":"Santa Cruz do Rio Pardo","latitude":"-22.89875","name":"Santa Cruz do Rio Pardo, SP <br> GPON","longitude":"-49.635444","tecnologia":"GPON"},{"color":"green","uf":"SP","cidade":"Santa Gertrudes","latitude":"-22.457229","name":"Santa Gertrudes, SP <br> GPON","longitude":"-47.52716","tecnologia":"GPON"},{"color":"green","uf":"SP","cidade":"Santa Isabel","latitude":"-23.317194","name":"Santa Isabel, SP <br> GPON","longitude":"-46.223668","tecnologia":"GPON"},{"color":"green","uf":"SP","cidade":"Santa Rosa de Viterbo","latitude":"-21.477568","name":"Santa Rosa de Viterbo, SP <br> GPON","longitude":"-47.362213","tecnologia":"GPON"},{"color":"green","uf":"SP","cidade":"São João da Boa Vista","latitude":"-21.970747","name":"São João da Boa Vista, SP <br> GPON","longitude":"-46.794356","tecnologia":"GPON"},{"color":"green","uf":"SP","cidade":"São Joaquim da Barra","latitude":"-20.581158","name":"São Joaquim da Barra, SP <br> GPON","longitude":"-47.859316","tecnologia":"GPON"},{"color":"green","uf":"SP","cidade":"São José do Rio Pardo","latitude":"-21.595288","name":"São José do Rio Pardo, SP <br> GPON","longitude":"-46.887303","tecnologia":"GPON"},{"color":"green","uf":"SP","cidade":"São Roque","latitude":"-23.522598","name":"São Roque, SP <br> GPON","longitude":"-47.13567","tecnologia":"GPON"},{"color":"green","uf":"SP","cidade":"São Sebastião","latitude":"-23.795059","name":"São Sebastião, SP <br> GPON","longitude":"-45.414314","tecnologia":"GPON"},{"color":"green","uf":"SP","cidade":"Serra Negra","latitude":"-22.613941","name":"Serra Negra, SP <br> GPON","longitude":"-46.703271","tecnologia":"GPON"},{"color":"green","uf":"SP","cidade":"Serrana","latitude":"-21.204336","name":"Serrana, SP <br> GPON","longitude":"-47.595239","tecnologia":"GPON"},{"color":"green","uf":"SP","cidade":"Tatuí","latitude":"-23.348731","name":"Tatuí, SP <br> GPON","longitude":"-47.84612","tecnologia":"GPON"},{"color":"green","uf":"SP","cidade":"Tremembé","latitude":"-22.95714","name":"Tremembé, SP <br> GPON","longitude":"-45.547526","tecnologia":"GPON"},{"color":"green","uf":"SP","cidade":"Ubatuba","latitude":"-23.433162","name":"Ubatuba, SP <br> GPON","longitude":"-45.083415","tecnologia":"GPON"},{"color":"green","uf":"SP","cidade":"Valparaíso","latitude":"-21.222929","name":"Valparaíso, SP <br> GPON","longitude":"-50.869874","tecnologia":"GPON"},{"color":"green","uf":"SP","cidade":"Várzea Paulista","latitude":"-23.213582","name":"Várzea Paulista, SP <br> GPON","longitude":"-46.823444","tecnologia":"GPON"},{"color":"green","uf":"SP","cidade":"Votuporanga","latitude":"-20.423659","name":"Votuporanga, SP <br> GPON","longitude":"-49.978112","tecnologia":"GPON"},{"color":"green","uf":"TO","cidade":"Paraíso do Tocantins","latitude":"-10.174998","name":"Paraíso do Tocantins, TO <br> GPON","longitude":"-48.882269","tecnologia":"GPON"}]
