[{"name":"João Monlevade, MG <br> HFC REDE NEUTRA","longitude":"-43.173463","latitude":"-19.812646","tecnologia":"HFC REDE NEUTRA","uf":"MG","color":"violet","cidade":"João Monlevade"},{"name":"Palmas, PR <br> HFC REDE NEUTRA","longitude":"-51.988812","latitude":"-26.483868","tecnologia":"HFC REDE NEUTRA","uf":"PR","color":"violet","cidade":"Palmas"},{"name":"Piraquara, PR <br> HFC REDE NEUTRA","longitude":"-49.062411","latitude":"-25.442171","tecnologia":"HFC REDE NEUTRA","uf":"PR","color":"violet","cidade":"Piraquara"},{"name":"Alfenas, MG <br> HFC REDE NEUTRA","longitude":"-45.947727","latitude":"-21.425629","tecnologia":"HFC REDE NEUTRA","uf":"MG","color":"violet","cidade":"Alfenas"},{"name":"Arcos, MG <br> HFC REDE NEUTRA","longitude":"-45.537345","latitude":"-20.286333","tecnologia":"HFC REDE NEUTRA","uf":"MG","color":"violet","cidade":"Arcos"},{"name":"Formiga, MG <br> HFC REDE NEUTRA","longitude":"-45.426793","latitude":"-20.461819","tecnologia":"HFC REDE NEUTRA","uf":"MG","color":"violet","cidade":"Formiga"},{"name":"Lagoa da Prata, MG <br> HFC REDE NEUTRA","longitude":"-45.540149","latitude":"-20.023728","tecnologia":"HFC REDE NEUTRA","uf":"MG","color":"violet","cidade":"Lagoa da Prata"},{"name":"Matozinhos, MG <br> HFC REDE NEUTRA","longitude":"-44.086786","latitude":"-19.554318","tecnologia":"HFC REDE NEUTRA","uf":"MG","color":"violet","cidade":"Matozinhos"},{"name":"Pedro Leopoldo, MG <br> HFC REDE NEUTRA","longitude":"-44.038258","latitude":"-19.630811","tecnologia":"HFC REDE NEUTRA","uf":"MG","color":"violet","cidade":"Pedro Leopoldo"},{"name":"Piumhi, MG <br> HFC REDE NEUTRA","longitude":"-45.95891","latitude":"-20.47623","tecnologia":"HFC REDE NEUTRA","uf":"MG","color":"violet","cidade":"Piumhi"},{"name":"Santa Cruz de Minas, MG <br> HFC REDE NEUTRA","longitude":"-44.220251","latitude":"-21.124148","tecnologia":"HFC REDE NEUTRA","uf":"MG","color":"violet","cidade":"Santa Cruz de Minas"},{"name":"Foz do Iguaçu, PR <br> HFC REDE NEUTRA","longitude":"-54.582689","latitude":"-25.542748","tecnologia":"HFC REDE NEUTRA","uf":"PR","color":"violet","cidade":"Foz do Iguaçu"},{"name":"Guaratuba, PR <br> HFC REDE NEUTRA","longitude":"-48.575223","latitude":"-25.881672","tecnologia":"HFC REDE NEUTRA","uf":"PR","color":"violet","cidade":"Guaratuba"},{"name":"Ibiporã, PR <br> HFC REDE NEUTRA","longitude":"-51.052243","latitude":"-23.265941","tecnologia":"HFC REDE NEUTRA","uf":"PR","color":"violet","cidade":"Ibiporã"},{"name":"Marechal Cândido Rondon, PR <br> HFC REDE NEUTRA","longitude":"-54.056115","latitude":"-24.557891","tecnologia":"HFC REDE NEUTRA","uf":"PR","color":"violet","cidade":"Marechal Cândido Rondon"},{"name":"Medianeira, PR <br> HFC REDE NEUTRA","longitude":"-54.094308","latitude":"-25.297665","tecnologia":"HFC REDE NEUTRA","uf":"PR","color":"violet","cidade":"Medianeira"},{"name":"Paiçandu, PR <br> HFC REDE NEUTRA","longitude":"-52.046013","latitude":"-23.455534","tecnologia":"HFC REDE NEUTRA","uf":"PR","color":"violet","cidade":"Paiçandu"},{"name":"Quatro Barras, PR <br> HFC REDE NEUTRA","longitude":"-49.076306","latitude":"-25.367317","tecnologia":"HFC REDE NEUTRA","uf":"PR","color":"violet","cidade":"Quatro Barras"},{"name":"Telêmaco Borba, PR <br> HFC REDE NEUTRA","longitude":"-50.617585","latitude":"-24.32452","tecnologia":"HFC REDE NEUTRA","uf":"PR","color":"violet","cidade":"Telêmaco Borba"},{"name":"União da Vitória, PR <br> HFC REDE NEUTRA","longitude":"-51.087313","latitude":"-26.227319","tecnologia":"HFC REDE NEUTRA","uf":"PR","color":"violet","cidade":"União da Vitória"}]
