[{"tecnologia":"GPON","uf":"AL","name":"Arapiraca, AL <br> GPON","color":"green","cidade":"Arapiraca","latitude":"-9.754866","longitude":"-36.661471"},{"tecnologia":"GPON","uf":"GO","name":"Trindade, GO <br> GPON","color":"green","cidade":"Trindade","latitude":"-16.651708","longitude":"-49.492667"},{"tecnologia":"GPON","uf":"MG","name":"Araxá, MG <br> GPON","color":"green","cidade":"Araxá","latitude":"-19.590176","longitude":"-46.943804"},{"tecnologia":"GPON","uf":"MG","name":"Itajubá, MG <br> GPON","color":"green","cidade":"Itajubá","latitude":"-22.422481","longitude":"-45.459818"},{"tecnologia":"GPON","uf":"RJ","name":"Paraíba Do Sul, RJ <br> GPON","color":"green","cidade":"Paraíba Do Sul","latitude":"-22.158462","longitude":"-43.304004"},{"tecnologia":"GPON","uf":"RO","name":"Ji-Paraná, RO <br> GPON","color":"green","cidade":"Ji-Paraná","latitude":"-10.877741","longitude":"-61.932152"},{"tecnologia":"GPON","uf":"RS","name":"Camaquã, RS <br> GPON","color":"green","cidade":"Camaquã","latitude":"-30.848897","longitude":"-51.80431"},{"tecnologia":"GPON","uf":"RS","name":"Dois Irmãos, RS <br> GPON","color":"green","cidade":"Dois Irmãos","latitude":"-29.58356","longitude":"-51.089776"},{"tecnologia":"GPON","uf":"RS","name":"Marau, RS <br> GPON","color":"green","cidade":"Marau","latitude":"-28.449754","longitude":"-52.198625"},{"tecnologia":"GPON","uf":"RS","name":"Vacaria, RS <br> GPON","color":"green","cidade":"Vacaria","latitude":"-28.507868","longitude":"-50.941791"},{"tecnologia":"GPON","uf":"SC","name":"Içara, SC <br> GPON","color":"green","cidade":"Içara","latitude":"-28.713206","longitude":"-49.308654"},{"tecnologia":"GPON","uf":"SP","name":"Agudos, SP <br> GPON","color":"green","cidade":"Agudos","latitude":"-22.469433","longitude":"-48.98632"},{"tecnologia":"GPON","uf":"SP","name":"Casa Branca, SP <br> GPON","color":"green","cidade":"Casa Branca","latitude":"-21.77081","longitude":"-47.085245"},{"tecnologia":"GPON","uf":"SP","name":"Ibaté, SP <br> GPON","color":"green","cidade":"Ibaté","latitude":"-21.958358","longitude":"-47.988211"},{"tecnologia":"GPON","uf":"SP","name":"Jaguariúna, SP <br> GPON","color":"green","cidade":"Jaguariúna","latitude":"-22.70374","longitude":"-46.985062"},{"tecnologia":"GPON","uf":"SP","name":"Piedade, SP <br> GPON","color":"green","cidade":"Piedade","latitude":"-23.713941","longitude":"-47.425572"},{"tecnologia":"GPON","uf":"SP","name":"Santa Cruz das Palmeiras, SP <br> GPON","color":"green","cidade":"Santa Cruz das Palmeiras","latitude":"-21.823475","longitude":"-47.248023"},{"tecnologia":"GPON","uf":"SP","name":"Tambaú, SP <br> GPON","color":"green","cidade":"Tambaú","latitude":"-21.70292","longitude":"-47.270344"},{"tecnologia":"GPON","uf":"TO","name":"Araguaína, TO <br> GPON","color":"green","cidade":"Araguaína","latitude":"-7.192375","longitude":"-48.204402"},{"tecnologia":"GPON","uf":"TO","name":"Gurupi, TO <br> GPON","color":"green","cidade":"Gurupi","latitude":"-11.72794","longitude":"-49.068046"}]
