[{"tecnologia":"GPON","latitude":"-9.754866","cidade":"Arapiraca","longitude":"-36.661471","name":"Arapiraca, AL <br> GPON","color":"green","uf":"AL"},{"tecnologia":"GPON","latitude":"-16.651708","cidade":"Trindade","longitude":"-49.492667","name":"Trindade, GO <br> GPON","color":"green","uf":"GO"},{"tecnologia":"GPON","latitude":"-19.590176","cidade":"Araxá","longitude":"-46.943804","name":"Araxá, MG <br> GPON","color":"green","uf":"MG"},{"tecnologia":"GPON","latitude":"-22.422481","cidade":"Itajubá","longitude":"-45.459818","name":"Itajubá, MG <br> GPON","color":"green","uf":"MG"},{"tecnologia":"GPON","latitude":"-22.158462","cidade":"Paraíba Do Sul","longitude":"-43.304004","name":"Paraíba Do Sul, RJ <br> GPON","color":"green","uf":"RJ"},{"tecnologia":"GPON","latitude":"-10.877741","cidade":"Ji-Paraná","longitude":"-61.932152","name":"Ji-Paraná, RO <br> GPON","color":"green","uf":"RO"},{"tecnologia":"GPON","latitude":"-30.848897","cidade":"Camaquã","longitude":"-51.80431","name":"Camaquã, RS <br> GPON","color":"green","uf":"RS"},{"tecnologia":"GPON","latitude":"-29.58356","cidade":"Dois Irmãos","longitude":"-51.089776","name":"Dois Irmãos, RS <br> GPON","color":"green","uf":"RS"},{"tecnologia":"GPON","latitude":"-28.449754","cidade":"Marau","longitude":"-52.198625","name":"Marau, RS <br> GPON","color":"green","uf":"RS"},{"tecnologia":"GPON","latitude":"-28.507868","cidade":"Vacaria","longitude":"-50.941791","name":"Vacaria, RS <br> GPON","color":"green","uf":"RS"},{"tecnologia":"GPON","latitude":"-28.713206","cidade":"Içara","longitude":"-49.308654","name":"Içara, SC <br> GPON","color":"green","uf":"SC"},{"tecnologia":"GPON","latitude":"-22.469433","cidade":"Agudos","longitude":"-48.98632","name":"Agudos, SP <br> GPON","color":"green","uf":"SP"},{"tecnologia":"GPON","latitude":"-21.77081","cidade":"Casa Branca","longitude":"-47.085245","name":"Casa Branca, SP <br> GPON","color":"green","uf":"SP"},{"tecnologia":"GPON","latitude":"-21.958358","cidade":"Ibaté","longitude":"-47.988211","name":"Ibaté, SP <br> GPON","color":"green","uf":"SP"},{"tecnologia":"GPON","latitude":"-22.70374","cidade":"Jaguariúna","longitude":"-46.985062","name":"Jaguariúna, SP <br> GPON","color":"green","uf":"SP"},{"tecnologia":"GPON","latitude":"-23.713941","cidade":"Piedade","longitude":"-47.425572","name":"Piedade, SP <br> GPON","color":"green","uf":"SP"},{"tecnologia":"GPON","latitude":"-21.823475","cidade":"Santa Cruz das Palmeiras","longitude":"-47.248023","name":"Santa Cruz das Palmeiras, SP <br> GPON","color":"green","uf":"SP"},{"tecnologia":"GPON","latitude":"-21.70292","cidade":"Tambaú","longitude":"-47.270344","name":"Tambaú, SP <br> GPON","color":"green","uf":"SP"},{"tecnologia":"GPON","latitude":"-7.192375","cidade":"Araguaína","longitude":"-48.204402","name":"Araguaína, TO <br> GPON","color":"green","uf":"TO"},{"tecnologia":"GPON","latitude":"-11.72794","cidade":"Gurupi","longitude":"-49.068046","name":"Gurupi, TO <br> GPON","color":"green","uf":"TO"},{"tecnologia":"GPON","latitude":"0.034934","cidade":"Macapá","longitude":"-51.069395","name":"Macapá, AP <br> GPON","color":"green","uf":"AP"},{"tecnologia":"GPON","latitude":"-0.045434","cidade":"Santana","longitude":"-51.172924","name":"Santana, AP <br> GPON","color":"green","uf":"AP"},{"tecnologia":"GPON","latitude":"-12.133526","cidade":"Alagoinhas","longitude":"-38.420772","name":"Alagoinhas, BA <br> GPON","color":"green","uf":"BA"},{"tecnologia":"GPON","latitude":"-12.143864","cidade":"Barreiras","longitude":"-44.996838","name":"Barreiras, BA <br> GPON","color":"green","uf":"BA"},{"tecnologia":"GPON","latitude":"-12.699638","cidade":"Camaçari","longitude":"-38.326265","name":"Camaçari, BA <br> GPON","color":"green","uf":"BA"},{"tecnologia":"GPON","latitude":"-16.371498","cidade":"Eunápolis","longitude":"-39.582122","name":"Eunápolis, BA <br> GPON","color":"green","uf":"BA"},{"tecnologia":"GPON","latitude":"-12.266429","cidade":"Feira de Santana","longitude":"-38.966293","name":"Feira de Santana, BA <br> GPON","color":"green","uf":"BA"},{"tecnologia":"GPON","latitude":"-14.793045","cidade":"Ilhéus","longitude":"-39.04602","name":"Ilhéus, BA <br> GPON","color":"green","uf":"BA"},{"tecnologia":"GPON","latitude":"-14.787573","cidade":"Itabuna","longitude":"-39.278056","name":"Itabuna, BA <br> GPON","color":"green","uf":"BA"},{"tecnologia":"GPON","latitude":"-13.850888","cidade":"Jequié","longitude":"-40.087704","name":"Jequié, BA <br> GPON","color":"green","uf":"BA"},{"tecnologia":"GPON","latitude":"-9.416217","cidade":"Juazeiro","longitude":"-40.503251","name":"Juazeiro, BA <br> GPON","color":"green","uf":"BA"},{"tecnologia":"GPON","latitude":"-12.530685","cidade":"Mata de São João","longitude":"-38.300898","name":"Mata de São João, BA <br> GPON","color":"green","uf":"BA"},{"tecnologia":"GPON","latitude":"-16.443473","cidade":"Porto Seguro","longitude":"-39.064251","name":"Porto Seguro, BA <br> GPON","color":"green","uf":"BA"},{"tecnologia":"GPON","latitude":"-17.539915","cidade":"Teixeira de Freitas","longitude":"-39.739962","name":"Teixeira de Freitas, BA <br> GPON","color":"green","uf":"BA"},{"tecnologia":"GPON","latitude":"-3.899293","cidade":"Aquiraz","longitude":"-38.389563","name":"Aquiraz, CE <br> GPON","color":"green","uf":"CE"},{"tecnologia":"GPON","latitude":"-3.892501","cidade":"Eusébio","longitude":"-38.455875","name":"Eusébio, CE <br> GPON","color":"green","uf":"CE"},{"tecnologia":"GPON","latitude":"-7.196207","cidade":"Juazeiro do Norte","longitude":"-39.307593","name":"Juazeiro do Norte, CE <br> GPON","color":"green","uf":"CE"},{"tecnologia":"GPON","latitude":"-3.689133","cidade":"Sobral","longitude":"-40.34821","name":"Sobral, CE <br> GPON","color":"green","uf":"CE"},{"tecnologia":"GPON","latitude":"-19.820045","cidade":"Aracruz","longitude":"-40.276441","name":"Aracruz, ES <br> GPON","color":"green","uf":"ES"},{"tecnologia":"GPON","latitude":"-19.549316","cidade":"Colatina","longitude":"-40.626898","name":"Colatina, ES <br> GPON","color":"green","uf":"ES"},{"tecnologia":"GPON","latitude":"-17.74406","cidade":"Caldas Novas","longitude":"-48.624579","name":"Caldas Novas, GO <br> GPON","color":"green","uf":"GO"},{"tecnologia":"GPON","latitude":"-15.539991","cidade":"Formosa","longitude":"-47.336999","name":"Formosa, GO <br> GPON","color":"green","uf":"GO"},{"tecnologia":"GPON","latitude":"-18.409267","cidade":"Itumbiara","longitude":"-49.215845","name":"Itumbiara, GO <br> GPON","color":"green","uf":"GO"},{"tecnologia":"GPON","latitude":"-17.878383","cidade":"Jataí","longitude":"-51.720424","name":"Jataí, GO <br> GPON","color":"green","uf":"GO"},{"tecnologia":"GPON","latitude":"-17.792266","cidade":"Rio Verde","longitude":"-50.919195","name":"Rio Verde, GO <br> GPON","color":"green","uf":"GO"},{"tecnologia":"GPON","latitude":"-17.81152","cidade":"Santa Helena de Goiás","longitude":"-50.597664","name":"Santa Helena de Goiás, GO <br> GPON","color":"green","uf":"GO"},{"tecnologia":"GPON","latitude":"-16.708401","cidade":"Senador Canedo","longitude":"-49.091398","name":"Senador Canedo, GO <br> GPON","color":"green","uf":"GO"},{"tecnologia":"GPON","latitude":"-16.065078","cidade":"Valparaíso de Goiás","longitude":"-47.975675","name":"Valparaíso de Goiás, GO <br> GPON","color":"green","uf":"GO"},{"tecnologia":"GPON","latitude":"-4.865053","cidade":"Caxias","longitude":"-43.361749","name":"Caxias, MA <br> GPON","color":"green","uf":"MA"},{"tecnologia":"GPON","latitude":"-5.518471","cidade":"Imperatriz","longitude":"-47.477726","name":"Imperatriz, MA <br> GPON","color":"green","uf":"MA"},{"tecnologia":"GPON","latitude":"-5.097692","cidade":"Timon","longitude":"-42.83292","name":"Timon, MA <br> GPON","color":"green","uf":"MA"},{"tecnologia":"GPON","latitude":"-18.645575","cidade":"Araguari","longitude":"-48.193392","name":"Araguari, MG <br> GPON","color":"green","uf":"MG"},{"tecnologia":"GPON","latitude":"-21.221446","cidade":"Barbacena","longitude":"-43.770266","name":"Barbacena, MG <br> GPON","color":"green","uf":"MG"},{"tecnologia":"GPON","latitude":"-21.39239","cidade":"Cataguases","longitude":"-42.689647","name":"Cataguases, MG <br> GPON","color":"green","uf":"MG"},{"tecnologia":"GPON","latitude":"-20.663445","cidade":"Conselheiro Lafaiete","longitude":"-43.784609","name":"Conselheiro Lafaiete, MG <br> GPON","color":"green","uf":"MG"},{"tecnologia":"GPON","latitude":"-19.517879","cidade":"Coronel Fabriciano","longitude":"-42.627585","name":"Coronel Fabriciano, MG <br> GPON","color":"green","uf":"MG"},{"tecnologia":"GPON","latitude":"-20.144646","cidade":"Divinópolis","longitude":"-44.891223","name":"Divinópolis, MG <br> GPON","color":"green","uf":"MG"},{"tecnologia":"GPON","latitude":"-19.623936","cidade":"Itabira","longitude":"-43.23123","name":"Itabira, MG <br> GPON","color":"green","uf":"MG"},{"tecnologia":"GPON","latitude":"-20.081798","cidade":"Itaúna","longitude":"-44.580112","name":"Itaúna, MG <br> GPON","color":"green","uf":"MG"},{"tecnologia":"GPON","latitude":"-18.977191","cidade":"Ituiutaba","longitude":"-49.463945","name":"Ituiutaba, MG <br> GPON","color":"green","uf":"MG"},{"tecnologia":"GPON","latitude":"-19.63967","cidade":"Lagoa Santa","longitude":"-43.893216","name":"Lagoa Santa, MG <br> GPON","color":"green","uf":"MG"},{"tecnologia":"GPON","latitude":"-21.248002","cidade":"Lavras","longitude":"-45.000949","name":"Lavras, MG <br> GPON","color":"green","uf":"MG"},{"tecnologia":"GPON","latitude":"-20.257226","cidade":"Manhuaçu","longitude":"-42.027987","name":"Manhuaçu, MG <br> GPON","color":"green","uf":"MG"},{"tecnologia":"GPON","latitude":"-16.728177","cidade":"Montes Claros","longitude":"-43.857809","name":"Montes Claros, MG <br> GPON","color":"green","uf":"MG"},{"tecnologia":"GPON","latitude":"-19.853441","cidade":"Pará de Minas","longitude":"-44.611355","name":"Pará de Minas, MG <br> GPON","color":"green","uf":"MG"},{"tecnologia":"GPON","latitude":"-18.569938","cidade":"Patos de Minas","longitude":"-46.501268","name":"Patos de Minas, MG <br> GPON","color":"green","uf":"MG"},{"tecnologia":"GPON","latitude":"-21.779975","cidade":"Poços de Caldas","longitude":"-46.569184","name":"Poços de Caldas, MG <br> GPON","color":"green","uf":"MG"},{"tecnologia":"GPON","latitude":"-22.22659","cidade":"Pouso Alegre","longitude":"-45.938935","name":"Pouso Alegre, MG <br> GPON","color":"green","uf":"MG"},{"tecnologia":"GPON","latitude":"-19.754824","cidade":"Santa Luzia","longitude":"-43.849658","name":"Santa Luzia, MG <br> GPON","color":"green","uf":"MG"},{"tecnologia":"GPON","latitude":"-21.131054","cidade":"São João Del Rei","longitude":"-44.252646","name":"São João Del Rei, MG <br> GPON","color":"green","uf":"MG"},{"tecnologia":"GPON","latitude":"-19.581086","cidade":"Timóteo","longitude":"-42.64713","name":"Timóteo, MG <br> GPON","color":"green","uf":"MG"},{"tecnologia":"GPON","latitude":"-21.692091","cidade":"Três Corações","longitude":"-45.251117","name":"Três Corações, MG <br> GPON","color":"green","uf":"MG"},{"tecnologia":"GPON","latitude":"-21.120444","cidade":"Ubá","longitude":"-42.935931","name":"Ubá, MG <br> GPON","color":"green","uf":"MG"},{"tecnologia":"GPON","latitude":"-19.688326","cidade":"Vespasiano","longitude":"-43.9239","name":"Vespasiano, MG <br> GPON","color":"green","uf":"MG"},{"tecnologia":"GPON","latitude":"-20.755916","cidade":"Viçosa","longitude":"-42.87417","name":"Viçosa, MG <br> GPON","color":"green","uf":"MG"},{"tecnologia":"GPON","latitude":"-23.06181","cidade":"Naviraí","longitude":"-54.199465","name":"Naviraí, MS <br> GPON","color":"green","uf":"MS"},{"tecnologia":"GPON","latitude":"-22.529617","cidade":"Ponta Porã","longitude":"-55.720326","name":"Ponta Porã, MS <br> GPON","color":"green","uf":"MS"},{"tecnologia":"GPON","latitude":"-20.784853","cidade":"Três Lagoas","longitude":"-51.700731","name":"Três Lagoas, MS <br> GPON","color":"green","uf":"MS"},{"tecnologia":"GPON","latitude":"-13.058796","cidade":"Lucas do Rio Verde","longitude":"-55.904202","name":"Lucas do Rio Verde, MT <br> GPON","color":"green","uf":"MT"},{"tecnologia":"GPON","latitude":"-13.837389","cidade":"Nova Mutum","longitude":"-56.074316","name":"Nova Mutum, MT <br> GPON","color":"green","uf":"MT"},{"tecnologia":"GPON","latitude":"-11.86043","cidade":"Sinop","longitude":"-55.509062","name":"Sinop, MT <br> GPON","color":"green","uf":"MT"},{"tecnologia":"GPON","latitude":"-12.542527","cidade":"Sorriso","longitude":"-55.721051","name":"Sorriso, MT <br> GPON","color":"green","uf":"MT"},{"tecnologia":"GPON","latitude":"-1.297971","cidade":"Castanhal","longitude":"-47.916742","name":"Castanhal, PA <br> GPON","color":"green","uf":"PA"},{"tecnologia":"GPON","latitude":"-5.38075","cidade":"Marabá","longitude":"-49.132672","name":"Marabá, PA <br> GPON","color":"green","uf":"PA"},{"tecnologia":"GPON","latitude":"-3.002116","cidade":"Paragominas","longitude":"-47.352692","name":"Paragominas, PA <br> GPON","color":"green","uf":"PA"},{"tecnologia":"GPON","latitude":"-6.067812","cidade":"Parauapebas","longitude":"-49.903733","name":"Parauapebas, PA <br> GPON","color":"green","uf":"PA"},{"tecnologia":"GPON","latitude":"-9.388662","cidade":"Petrolina","longitude":"-40.502731","name":"Petrolina, PE <br> GPON","color":"green","uf":"PE"},{"tecnologia":"GPON","latitude":"-2.905847","cidade":"Parnaíba","longitude":"-41.775388","name":"Parnaíba, PI <br> GPON","color":"green","uf":"PI"},{"tecnologia":"GPON","latitude":"-23.549961","cidade":"Apucarana","longitude":"-51.463486","name":"Apucarana, PR <br> GPON","color":"green","uf":"PR"},{"tecnologia":"GPON","latitude":"-23.276575","cidade":"Cambé","longitude":"-51.279832","name":"Cambé, PR <br> GPON","color":"green","uf":"PR"},{"tecnologia":"GPON","latitude":"-25.516078","cidade":"Paranaguá","longitude":"-48.522528","name":"Paranaguá, PR <br> GPON","color":"green","uf":"PR"},{"tecnologia":"GPON","latitude":"-23.31012","cidade":"Rolândia","longitude":"-51.365928","name":"Rolândia, PR <br> GPON","color":"green","uf":"PR"},{"tecnologia":"GPON","latitude":"-22.752846","cidade":"Armação Dos Búzios","longitude":"-41.884559","name":"Armação Dos Búzios, RJ <br> GPON","color":"green","uf":"RJ"},{"tecnologia":"GPON","latitude":"-22.88943","cidade":"Cabo Frio","longitude":"-42.028595","name":"Cabo Frio, RJ <br> GPON","color":"green","uf":"RJ"},{"tecnologia":"GPON","latitude":"-22.863566","cidade":"Itaguaí","longitude":"-43.779821","name":"Itaguaí, RJ <br> GPON","color":"green","uf":"RJ"},{"tecnologia":"GPON","latitude":"-22.457242","cidade":"Miguel Pereira","longitude":"-43.480275","name":"Miguel Pereira, RJ <br> GPON","color":"green","uf":"RJ"},{"tecnologia":"GPON","latitude":"-22.293224","cidade":"Nova Friburgo","longitude":"-42.537692","name":"Nova Friburgo, RJ <br> GPON","color":"green","uf":"RJ"},{"tecnologia":"GPON","latitude":"-22.842859","cidade":"São Pedro da Aldeia","longitude":"-42.102596","name":"São Pedro da Aldeia, RJ <br> GPON","color":"green","uf":"RJ"},{"tecnologia":"GPON","latitude":"-22.11651","cidade":"Três Rios","longitude":"-43.218533","name":"Três Rios, RJ <br> GPON","color":"green","uf":"RJ"},{"tecnologia":"GPON","latitude":"-22.244496","cidade":"Valença","longitude":"-43.71288","name":"Valença, RJ <br> GPON","color":"green","uf":"RJ"},{"tecnologia":"GPON","latitude":"-22.405889","cidade":"Vassouras","longitude":"-43.668555","name":"Vassouras, RJ <br> GPON","color":"green","uf":"RJ"},{"tecnologia":"GPON","latitude":"-5.183737","cidade":"Mossoró","longitude":"-37.347446","name":"Mossoró, RN <br> GPON","color":"green","uf":"RN"},{"tecnologia":"GPON","latitude":"-9.905711","cidade":"Ariquemes","longitude":"-63.032516","name":"Ariquemes, RO <br> GPON","color":"green","uf":"RO"},{"tecnologia":"GPON","latitude":"-11.434271","cidade":"Cacoal","longitude":"-61.456167","name":"Cacoal, RO <br> GPON","color":"green","uf":"RO"},{"tecnologia":"GPON","latitude":"-12.750183","cidade":"Vilhena","longitude":"-60.148847","name":"Vilhena, RO <br> GPON","color":"green","uf":"RO"},{"tecnologia":"GPON","latitude":"-29.790166","cidade":"Alegrete","longitude":"-55.794862","name":"Alegrete, RS <br> GPON","color":"green","uf":"RS"},{"tecnologia":"GPON","latitude":"-29.401353","cidade":"Arroio do Meio","longitude":"-51.955735","name":"Arroio do Meio, RS <br> GPON","color":"green","uf":"RS"},{"tecnologia":"GPON","latitude":"-30.032988","cidade":"Cachoeira do Sul","longitude":"-52.892756","name":"Cachoeira do Sul, RS <br> GPON","color":"green","uf":"RS"},{"tecnologia":"GPON","latitude":"-29.355993","cidade":"Canela","longitude":"-50.811921","name":"Canela, RS <br> GPON","color":"green","uf":"RS"},{"tecnologia":"GPON","latitude":"-28.295844","cidade":"Carazinho","longitude":"-52.79326","name":"Carazinho, RS <br> GPON","color":"green","uf":"RS"},{"tecnologia":"GPON","latitude":"-29.296949","cidade":"Carlos Barbosa","longitude":"-51.502847","name":"Carlos Barbosa, RS <br> GPON","color":"green","uf":"RS"},{"tecnologia":"GPON","latitude":"-29.962478","cidade":"Charqueadas","longitude":"-51.628872","name":"Charqueadas, RS <br> GPON","color":"green","uf":"RS"},{"tecnologia":"GPON","latitude":"-30.084676","cidade":"Eldorado do Sul","longitude":"-51.618702","name":"Eldorado do Sul, RS <br> GPON","color":"green","uf":"RS"},{"tecnologia":"GPON","latitude":"-29.235141","cidade":"Encantado","longitude":"-51.870282","name":"Encantado, RS <br> GPON","color":"green","uf":"RS"},{"tecnologia":"GPON","latitude":"-29.500207","cidade":"Estrela","longitude":"-51.949508","name":"Estrela, RS <br> GPON","color":"green","uf":"RS"},{"tecnologia":"GPON","latitude":"-27.358644","cidade":"Frederico Westphalen","longitude":"-53.395824","name":"Frederico Westphalen, RS <br> GPON","color":"green","uf":"RS"},{"tecnologia":"GPON","latitude":"-29.258979","cidade":"Garibaldi","longitude":"-51.535179","name":"Garibaldi, RS <br> GPON","color":"green","uf":"RS"},{"tecnologia":"GPON","latitude":"-29.373351","cidade":"Gramado","longitude":"-50.876164","name":"Gramado, RS <br> GPON","color":"green","uf":"RS"},{"tecnologia":"GPON","latitude":"-30.108592","cidade":"Guaíba","longitude":"-51.323314","name":"Guaíba, RS <br> GPON","color":"green","uf":"RS"},{"tecnologia":"GPON","latitude":"-29.569318","cidade":"Igrejinha","longitude":"-50.791894","name":"Igrejinha, RS <br> GPON","color":"green","uf":"RS"},{"tecnologia":"GPON","latitude":"-29.975269","cidade":"Imbé","longitude":"-50.128068","name":"Imbé, RS <br> GPON","color":"green","uf":"RS"},{"tecnologia":"GPON","latitude":"-29.131051","cidade":"Itaqui","longitude":"-56.551478","name":"Itaqui, RS <br> GPON","color":"green","uf":"RS"},{"tecnologia":"GPON","latitude":"-29.599463","cidade":"Ivoti","longitude":"-51.153326","name":"Ivoti, RS <br> GPON","color":"green","uf":"RS"},{"tecnologia":"GPON","latitude":"-29.682414","cidade":"Montenegro","longitude":"-51.467903","name":"Montenegro, RS <br> GPON","color":"green","uf":"RS"},{"tecnologia":"GPON","latitude":"-29.374112","cidade":"Nova Petrópolis","longitude":"-51.113552","name":"Nova Petrópolis, RS <br> GPON","color":"green","uf":"RS"},{"tecnologia":"GPON","latitude":"-29.888089","cidade":"Osório","longitude":"-50.266713","name":"Osório, RS <br> GPON","color":"green","uf":"RS"},{"tecnologia":"GPON","latitude":"-27.900652","cidade":"Palmeira Das Missões","longitude":"-53.313378","name":"Palmeira Das Missões, RS <br> GPON","color":"green","uf":"RS"},{"tecnologia":"GPON","latitude":"-28.283328","cidade":"Panambi","longitude":"-53.502261","name":"Panambi, RS <br> GPON","color":"green","uf":"RS"},{"tecnologia":"GPON","latitude":"-29.624257","cidade":"Parobé","longitude":"-50.83118","name":"Parobé, RS <br> GPON","color":"green","uf":"RS"},{"tecnologia":"GPON","latitude":"-29.98803","cidade":"Rio Pardo","longitude":"-52.37113","name":"Rio Pardo, RS <br> GPON","color":"green","uf":"RS"},{"tecnologia":"GPON","latitude":"-30.251483","cidade":"Rosário do Sul","longitude":"-54.922106","name":"Rosário do Sul, RS <br> GPON","color":"green","uf":"RS"},{"tecnologia":"GPON","latitude":"-27.8702","cidade":"Santa Rosa","longitude":"-54.479629","name":"Santa Rosa, RS <br> GPON","color":"green","uf":"RS"},{"tecnologia":"GPON","latitude":"-30.88772","cidade":"Santana do Livramento","longitude":"-55.531467","name":"Santana do Livramento, RS <br> GPON","color":"green","uf":"RS"},{"tecnologia":"GPON","latitude":"-28.300128","cidade":"Santo Ângelo","longitude":"-54.266781","name":"Santo Ângelo, RS <br> GPON","color":"green","uf":"RS"},{"tecnologia":"GPON","latitude":"-28.657828","cidade":"São Borja","longitude":"-56.003603","name":"São Borja, RS <br> GPON","color":"green","uf":"RS"},{"tecnologia":"GPON","latitude":"-30.333688","cidade":"São Gabriel","longitude":"-54.321657","name":"São Gabriel, RS <br> GPON","color":"green","uf":"RS"},{"tecnologia":"GPON","latitude":"-31.356374","cidade":"São Lourenço do Sul","longitude":"-51.971531","name":"São Lourenço do Sul, RS <br> GPON","color":"green","uf":"RS"},{"tecnologia":"GPON","latitude":"-28.412032","cidade":"São Luiz Gonzaga","longitude":"-54.955942","name":"São Luiz Gonzaga, RS <br> GPON","color":"green","uf":"RS"},{"tecnologia":"GPON","latitude":"-29.650471","cidade":"Taquara","longitude":"-50.775278","name":"Taquara, RS <br> GPON","color":"green","uf":"RS"},{"tecnologia":"GPON","latitude":"-29.448205","cidade":"Teutônia","longitude":"-51.804375","name":"Teutônia, RS <br> GPON","color":"green","uf":"RS"},{"tecnologia":"GPON","latitude":"-29.333438","cidade":"Torres","longitude":"-49.733289","name":"Torres, RS <br> GPON","color":"green","uf":"RS"},{"tecnologia":"GPON","latitude":"-29.98414","cidade":"Tramandaí","longitude":"-50.132187","name":"Tramandaí, RS <br> GPON","color":"green","uf":"RS"},{"tecnologia":"GPON","latitude":"-29.513719","cidade":"Três Coroas","longitude":"-50.773869","name":"Três Coroas, RS <br> GPON","color":"green","uf":"RS"},{"tecnologia":"GPON","latitude":"-29.614306","cidade":"Venâncio Aires","longitude":"-52.193159","name":"Venâncio Aires, RS <br> GPON","color":"green","uf":"RS"},{"tecnologia":"GPON","latitude":"-29.718435","cidade":"Vera Cruz","longitude":"-52.515176","name":"Vera Cruz, RS <br> GPON","color":"green","uf":"RS"},{"tecnologia":"GPON","latitude":"-28.931197","cidade":"Veranópolis","longitude":"-51.551614","name":"Veranópolis, RS <br> GPON","color":"green","uf":"RS"},{"tecnologia":"GPON","latitude":"-28.935615","cidade":"Araranguá","longitude":"-49.491809","name":"Araranguá, SC <br> GPON","color":"green","uf":"SC"},{"tecnologia":"GPON","latitude":"-27.496004","cidade":"Biguaçu","longitude":"-48.65979","name":"Biguaçu, SC <br> GPON","color":"green","uf":"SC"},{"tecnologia":"GPON","latitude":"-26.77567","cidade":"Caçador","longitude":"-51.012004","name":"Caçador, SC <br> GPON","color":"green","uf":"SC"},{"tecnologia":"GPON","latitude":"-27.024078","cidade":"Camboriú","longitude":"-48.650338","name":"Camboriú, SC <br> GPON","color":"green","uf":"SC"},{"tecnologia":"GPON","latitude":"-27.233461","cidade":"Concórdia","longitude":"-52.025962","name":"Concórdia, SC <br> GPON","color":"green","uf":"SC"},{"tecnologia":"GPON","latitude":"-27.023288","cidade":"Fraiburgo","longitude":"-50.919978","name":"Fraiburgo, SC <br> GPON","color":"green","uf":"SC"},{"tecnologia":"GPON","latitude":"-26.933597","cidade":"Gaspar","longitude":"-48.953428","name":"Gaspar, SC <br> GPON","color":"green","uf":"SC"},{"tecnologia":"GPON","latitude":"-26.468753","cidade":"Guaramirim","longitude":"-49.002628","name":"Guaramirim, SC <br> GPON","color":"green","uf":"SC"},{"tecnologia":"GPON","latitude":"-26.899247","cidade":"Indaial","longitude":"-49.235417","name":"Indaial, SC <br> GPON","color":"green","uf":"SC"},{"tecnologia":"GPON","latitude":"-26.485083","cidade":"Jaraguá do Sul","longitude":"-49.07125","name":"Jaraguá do Sul, SC <br> GPON","color":"green","uf":"SC"},{"tecnologia":"GPON","latitude":"-27.172105","cidade":"Joaçaba","longitude":"-51.510788","name":"Joaçaba, SC <br> GPON","color":"green","uf":"SC"},{"tecnologia":"GPON","latitude":"-27.814966","cidade":"Lages","longitude":"-50.325862","name":"Lages, SC <br> GPON","color":"green","uf":"SC"},{"tecnologia":"GPON","latitude":"-26.115935","cidade":"Mafra","longitude":"-49.808624","name":"Mafra, SC <br> GPON","color":"green","uf":"SC"},{"tecnologia":"GPON","latitude":"-27.215596","cidade":"Rio do Sul","longitude":"-49.643016","name":"Rio do Sul, SC <br> GPON","color":"green","uf":"SC"},{"tecnologia":"GPON","latitude":"-26.259075","cidade":"Rio Negrinho","longitude":"-49.517746","name":"Rio Negrinho, SC <br> GPON","color":"green","uf":"SC"},{"tecnologia":"GPON","latitude":"-26.249542","cidade":"São Bento do Sul","longitude":"-49.383077","name":"São Bento do Sul, SC <br> GPON","color":"green","uf":"SC"},{"tecnologia":"GPON","latitude":"-26.257917","cidade":"São Francisco do Sul","longitude":"-48.634372","name":"São Francisco do Sul, SC <br> GPON","color":"green","uf":"SC"},{"tecnologia":"GPON","latitude":"-26.82464","cidade":"Timbó","longitude":"-49.269039","name":"Timbó, SC <br> GPON","color":"green","uf":"SC"},{"tecnologia":"GPON","latitude":"-28.47131","cidade":"Tubarão","longitude":"-49.014371","name":"Tubarão, SC <br> GPON","color":"green","uf":"SC"},{"tecnologia":"GPON","latitude":"-27.008624","cidade":"Videira","longitude":"-51.154274","name":"Videira, SC <br> GPON","color":"green","uf":"SC"},{"tecnologia":"GPON","latitude":"-26.874694","cidade":"Xanxerê","longitude":"-52.403579","name":"Xanxerê, SC <br> GPON","color":"green","uf":"SC"},{"tecnologia":"GPON","latitude":"-26.959643","cidade":"Xaxim","longitude":"-52.537446","name":"Xaxim, SC <br> GPON","color":"green","uf":"SC"},{"tecnologia":"GPON","latitude":"-21.682012","cidade":"Adamantina","longitude":"-51.073695","name":"Adamantina, SP <br> GPON","color":"green","uf":"SP"},{"tecnologia":"GPON","latitude":"-23.530553","cidade":"Alumínio","longitude":"-47.254571","name":"Alumínio, SP <br> GPON","color":"green","uf":"SP"},{"tecnologia":"GPON","latitude":"-22.076415","cidade":"Álvares Machado","longitude":"-51.47224","name":"Álvares Machado, SP <br> GPON","color":"green","uf":"SP"},{"tecnologia":"GPON","latitude":"-21.728771","cidade":"Américo Brasiliense","longitude":"-48.11467","name":"Américo Brasiliense, SP <br> GPON","color":"green","uf":"SP"},{"tecnologia":"GPON","latitude":"-22.70879","cidade":"Amparo","longitude":"-46.772022","name":"Amparo, SP <br> GPON","color":"green","uf":"SP"},{"tecnologia":"GPON","latitude":"-20.894761","cidade":"Andradina","longitude":"-51.378568","name":"Andradina, SP <br> GPON","color":"green","uf":"SP"},{"tecnologia":"GPON","latitude":"-23.396476","cidade":"Arujá","longitude":"-46.319983","name":"Arujá, SP <br> GPON","color":"green","uf":"SP"},{"tecnologia":"GPON","latitude":"-23.106732","cidade":"Avaré","longitude":"-48.925052","name":"Avaré, SP <br> GPON","color":"green","uf":"SP"},{"tecnologia":"GPON","latitude":"-20.919689","cidade":"Bady Bassitt","longitude":"-49.4385","name":"Bady Bassitt, SP <br> GPON","color":"green","uf":"SP"},{"tecnologia":"GPON","latitude":"-20.553146","cidade":"Barretos","longitude":"-48.569832","name":"Barretos, SP <br> GPON","color":"green","uf":"SP"},{"tecnologia":"GPON","latitude":"-21.186374","cidade":"Barrinha","longitude":"-48.163614","name":"Barrinha, SP <br> GPON","color":"green","uf":"SP"},{"tecnologia":"GPON","latitude":"-20.892867","cidade":"Batatais","longitude":"-47.592149","name":"Batatais, SP <br> GPON","color":"green","uf":"SP"},{"tecnologia":"GPON","latitude":"-20.949077","cidade":"Bebedouro","longitude":"-48.479083","name":"Bebedouro, SP <br> GPON","color":"green","uf":"SP"},{"tecnologia":"GPON","latitude":"-21.291034","cidade":"Birigui","longitude":"-50.343162","name":"Birigui, SP <br> GPON","color":"green","uf":"SP"},{"tecnologia":"GPON","latitude":"-23.285531","cidade":"Boituva","longitude":"-47.678574","name":"Boituva, SP <br> GPON","color":"green","uf":"SP"},{"tecnologia":"GPON","latitude":"-23.30533","cidade":"Cabreúva","longitude":"-47.136251","name":"Cabreúva, SP <br> GPON","color":"green","uf":"SP"},{"tecnologia":"GPON","latitude":"-23.360729","cidade":"Caieiras","longitude":"-46.73974","name":"Caieiras, SP <br> GPON","color":"green","uf":"SP"},{"tecnologia":"GPON","latitude":"-23.355014","cidade":"Cajamar","longitude":"-46.878146","name":"Cajamar, SP <br> GPON","color":"green","uf":"SP"},{"tecnologia":"GPON","latitude":"-23.207791","cidade":"Campo Limpo Paulista","longitude":"-46.788919","name":"Campo Limpo Paulista, SP <br> GPON","color":"green","uf":"SP"},{"tecnologia":"GPON","latitude":"-22.729618","cidade":"Campos do Jordão","longitude":"-45.583337","name":"Campos do Jordão, SP <br> GPON","color":"green","uf":"SP"},{"tecnologia":"GPON","latitude":"-23.612535","cidade":"Caraguatatuba","longitude":"-45.412533","name":"Caraguatatuba, SP <br> GPON","color":"green","uf":"SP"},{"tecnologia":"GPON","latitude":"-21.131381","cidade":"Catanduva","longitude":"-48.977015","name":"Catanduva, SP <br> GPON","color":"green","uf":"SP"},{"tecnologia":"GPON","latitude":"-23.166487","cidade":"Cerquilho","longitude":"-47.745862","name":"Cerquilho, SP <br> GPON","color":"green","uf":"SP"},{"tecnologia":"GPON","latitude":"-22.477778","cidade":"Cordeirópolis","longitude":"-47.451886","name":"Cordeirópolis, SP <br> GPON","color":"green","uf":"SP"},{"tecnologia":"GPON","latitude":"-21.337959","cidade":"Cravinhos","longitude":"-47.732427","name":"Cravinhos, SP <br> GPON","color":"green","uf":"SP"},{"tecnologia":"GPON","latitude":"-21.900211","cidade":"Descalvado","longitude":"-47.618105","name":"Descalvado, SP <br> GPON","color":"green","uf":"SP"},{"tecnologia":"GPON","latitude":"-21.484311","cidade":"Dracena","longitude":"-51.535034","name":"Dracena, SP <br> GPON","color":"green","uf":"SP"},{"tecnologia":"GPON","latitude":"-22.190871","cidade":"Espírito Santo do Pinhal","longitude":"-46.74767","name":"Espírito Santo do Pinhal, SP <br> GPON","color":"green","uf":"SP"},{"tecnologia":"GPON","latitude":"-20.280556","cidade":"Fernandópolis","longitude":"-50.247115","name":"Fernandópolis, SP <br> GPON","color":"green","uf":"SP"},{"tecnologia":"GPON","latitude":"-22.212516","cidade":"Garça","longitude":"-49.654596","name":"Garça, SP <br> GPON","color":"green","uf":"SP"},{"tecnologia":"GPON","latitude":"-20.319591","cidade":"Guaíra","longitude":"-48.31197","name":"Guaíra, SP <br> GPON","color":"green","uf":"SP"},{"tecnologia":"GPON","latitude":"-20.795885","cidade":"Guapiaçu","longitude":"-49.217201","name":"Guapiaçu, SP <br> GPON","color":"green","uf":"SP"},{"tecnologia":"GPON","latitude":"-21.254431","cidade":"Guararapes","longitude":"-50.645338","name":"Guararapes, SP <br> GPON","color":"green","uf":"SP"},{"tecnologia":"GPON","latitude":"-23.65961","cidade":"Ibiúna","longitude":"-47.223037","name":"Ibiúna, SP <br> GPON","color":"green","uf":"SP"},{"tecnologia":"GPON","latitude":"-23.351296","cidade":"Iperó","longitude":"-47.692717","name":"Iperó, SP <br> GPON","color":"green","uf":"SP"},{"tecnologia":"GPON","latitude":"-24.173633","cidade":"Itanhaém","longitude":"-46.787986","name":"Itanhaém, SP <br> GPON","color":"green","uf":"SP"},{"tecnologia":"GPON","latitude":"-23.978823","cidade":"Itapeva","longitude":"-48.876433","name":"Itapeva, SP <br> GPON","color":"green","uf":"SP"},{"tecnologia":"GPON","latitude":"-22.435731","cidade":"Itapira","longitude":"-46.822434","name":"Itapira, SP <br> GPON","color":"green","uf":"SP"},{"tecnologia":"GPON","latitude":"-23.483481","cidade":"Itaquaquecetuba","longitude":"-46.345724","name":"Itaquaquecetuba, SP <br> GPON","color":"green","uf":"SP"},{"tecnologia":"GPON","latitude":"-23.003497","cidade":"Itatiba","longitude":"-46.846353","name":"Itatiba, SP <br> GPON","color":"green","uf":"SP"},{"tecnologia":"GPON","latitude":"-23.152635","cidade":"Itupeva","longitude":"-47.059262","name":"Itupeva, SP <br> GPON","color":"green","uf":"SP"},{"tecnologia":"GPON","latitude":"-20.335465","cidade":"Ituverava","longitude":"-47.790207","name":"Ituverava, SP <br> GPON","color":"green","uf":"SP"},{"tecnologia":"GPON","latitude":"-21.252037","cidade":"Jaboticabal","longitude":"-48.325223","name":"Jaboticabal, SP <br> GPON","color":"green","uf":"SP"},{"tecnologia":"GPON","latitude":"-20.267227","cidade":"Jales","longitude":"-50.549442","name":"Jales, SP <br> GPON","color":"green","uf":"SP"},{"tecnologia":"GPON","latitude":"-21.017612","cidade":"Jardinópolis","longitude":"-47.760583","name":"Jardinópolis, SP <br> GPON","color":"green","uf":"SP"},{"tecnologia":"GPON","latitude":"-23.103855","cidade":"Jarinu","longitude":"-46.728015","name":"Jarinu, SP <br> GPON","color":"green","uf":"SP"},{"tecnologia":"GPON","latitude":"-21.055062","cidade":"José Bonifácio","longitude":"-49.689233","name":"José Bonifácio, SP <br> GPON","color":"green","uf":"SP"},{"tecnologia":"GPON","latitude":"-23.050564","cidade":"Laranjal Paulista","longitude":"-47.837549","name":"Laranjal Paulista, SP <br> GPON","color":"green","uf":"SP"},{"tecnologia":"GPON","latitude":"-22.180857","cidade":"Leme","longitude":"-47.384109","name":"Leme, SP <br> GPON","color":"green","uf":"SP"},{"tecnologia":"GPON","latitude":"-22.602693","cidade":"Lençóis Paulista","longitude":"-48.803683","name":"Lençóis Paulista, SP <br> GPON","color":"green","uf":"SP"},{"tecnologia":"GPON","latitude":"-21.67182","cidade":"Lins","longitude":"-49.752555","name":"Lins, SP <br> GPON","color":"green","uf":"SP"},{"tecnologia":"GPON","latitude":"-23.085572","cidade":"Louveira","longitude":"-46.948369","name":"Louveira, SP <br> GPON","color":"green","uf":"SP"},{"tecnologia":"GPON","latitude":"-23.539822","cidade":"Mairinque","longitude":"-47.184995","name":"Mairinque, SP <br> GPON","color":"green","uf":"SP"},{"tecnologia":"GPON","latitude":"-21.602511","cidade":"Matão","longitude":"-48.363968","name":"Matão, SP <br> GPON","color":"green","uf":"SP"},{"tecnologia":"GPON","latitude":"-21.131345","cidade":"Mirandópolis","longitude":"-51.1035","name":"Mirandópolis, SP <br> GPON","color":"green","uf":"SP"},{"tecnologia":"GPON","latitude":"-20.816874","cidade":"Mirassol","longitude":"-49.52061","name":"Mirassol, SP <br> GPON","color":"green","uf":"SP"},{"tecnologia":"GPON","latitude":"-21.464731","cidade":"Mococa","longitude":"-47.002405","name":"Mococa, SP <br> GPON","color":"green","uf":"SP"},{"tecnologia":"GPON","latitude":"-24.080901","cidade":"Mongaguá","longitude":"-46.626526","name":"Mongaguá, SP <br> GPON","color":"green","uf":"SP"},{"tecnologia":"GPON","latitude":"-21.265545","cidade":"Monte Alto","longitude":"-48.497066","name":"Monte Alto, SP <br> GPON","color":"green","uf":"SP"},{"tecnologia":"GPON","latitude":"-22.881071","cidade":"Morungaba","longitude":"-46.789601","name":"Morungaba, SP <br> GPON","color":"green","uf":"SP"},{"tecnologia":"GPON","latitude":"-20.716925","cidade":"Orlândia","longitude":"-47.885205","name":"Orlândia, SP <br> GPON","color":"green","uf":"SP"},{"tecnologia":"GPON","latitude":"-22.979695","cidade":"Ourinhos","longitude":"-49.869702","name":"Ourinhos, SP <br> GPON","color":"green","uf":"SP"},{"tecnologia":"GPON","latitude":"-22.741347","cidade":"Pedreira","longitude":"-46.894846","name":"Pedreira, SP <br> GPON","color":"green","uf":"SP"},{"tecnologia":"GPON","latitude":"-21.414765","cidade":"Penápolis","longitude":"-50.076855","name":"Penápolis, SP <br> GPON","color":"green","uf":"SP"},{"tecnologia":"GPON","latitude":"-24.311974","cidade":"Peruíbe","longitude":"-47.0012","name":"Peruíbe, SP <br> GPON","color":"green","uf":"SP"},{"tecnologia":"GPON","latitude":"-23.052545","cidade":"Piracaia","longitude":"-46.359374","name":"Piracaia, SP <br> GPON","color":"green","uf":"SP"},{"tecnologia":"GPON","latitude":"-21.995982","cidade":"Pirassununga","longitude":"-47.425746","name":"Pirassununga, SP <br> GPON","color":"green","uf":"SP"},{"tecnologia":"GPON","latitude":"-21.021565","cidade":"Pontal","longitude":"-48.042261","name":"Pontal, SP <br> GPON","color":"green","uf":"SP"},{"tecnologia":"GPON","latitude":"-21.849814","cidade":"Porto Ferreira","longitude":"-47.487034","name":"Porto Ferreira, SP <br> GPON","color":"green","uf":"SP"},{"tecnologia":"GPON","latitude":"-21.042789","cidade":"Potirendaba","longitude":"-49.381509","name":"Potirendaba, SP <br> GPON","color":"green","uf":"SP"},{"tecnologia":"GPON","latitude":"-22.008198","cidade":"Presidente Bernardes","longitude":"-51.556507","name":"Presidente Bernardes, SP <br> GPON","color":"green","uf":"SP"},{"tecnologia":"GPON","latitude":"-21.535572","cidade":"Promissão","longitude":"-49.85989","name":"Promissão, SP <br> GPON","color":"green","uf":"SP"},{"tecnologia":"GPON","latitude":"-24.497942","cidade":"Registro","longitude":"-47.844895","name":"Registro, SP <br> GPON","color":"green","uf":"SP"},{"tecnologia":"GPON","latitude":"-23.706669","cidade":"Ribeirão Pires","longitude":"-46.405805","name":"Ribeirão Pires, SP <br> GPON","color":"green","uf":"SP"},{"tecnologia":"GPON","latitude":"-22.89875","cidade":"Santa Cruz do Rio Pardo","longitude":"-49.635444","name":"Santa Cruz do Rio Pardo, SP <br> GPON","color":"green","uf":"SP"},{"tecnologia":"GPON","latitude":"-22.457229","cidade":"Santa Gertrudes","longitude":"-47.52716","name":"Santa Gertrudes, SP <br> GPON","color":"green","uf":"SP"},{"tecnologia":"GPON","latitude":"-23.317194","cidade":"Santa Isabel","longitude":"-46.223668","name":"Santa Isabel, SP <br> GPON","color":"green","uf":"SP"},{"tecnologia":"GPON","latitude":"-21.477568","cidade":"Santa Rosa de Viterbo","longitude":"-47.362213","name":"Santa Rosa de Viterbo, SP <br> GPON","color":"green","uf":"SP"},{"tecnologia":"GPON","latitude":"-21.970747","cidade":"São João da Boa Vista","longitude":"-46.794356","name":"São João da Boa Vista, SP <br> GPON","color":"green","uf":"SP"},{"tecnologia":"GPON","latitude":"-20.581158","cidade":"São Joaquim da Barra","longitude":"-47.859316","name":"São Joaquim da Barra, SP <br> GPON","color":"green","uf":"SP"},{"tecnologia":"GPON","latitude":"-21.595288","cidade":"São José do Rio Pardo","longitude":"-46.887303","name":"São José do Rio Pardo, SP <br> GPON","color":"green","uf":"SP"},{"tecnologia":"GPON","latitude":"-23.522598","cidade":"São Roque","longitude":"-47.13567","name":"São Roque, SP <br> GPON","color":"green","uf":"SP"},{"tecnologia":"GPON","latitude":"-23.795059","cidade":"São Sebastião","longitude":"-45.414314","name":"São Sebastião, SP <br> GPON","color":"green","uf":"SP"},{"tecnologia":"GPON","latitude":"-22.613941","cidade":"Serra Negra","longitude":"-46.703271","name":"Serra Negra, SP <br> GPON","color":"green","uf":"SP"},{"tecnologia":"GPON","latitude":"-21.204336","cidade":"Serrana","longitude":"-47.595239","name":"Serrana, SP <br> GPON","color":"green","uf":"SP"},{"tecnologia":"GPON","latitude":"-23.348731","cidade":"Tatuí","longitude":"-47.84612","name":"Tatuí, SP <br> GPON","color":"green","uf":"SP"},{"tecnologia":"GPON","latitude":"-22.95714","cidade":"Tremembé","longitude":"-45.547526","name":"Tremembé, SP <br> GPON","color":"green","uf":"SP"},{"tecnologia":"GPON","latitude":"-23.433162","cidade":"Ubatuba","longitude":"-45.083415","name":"Ubatuba, SP <br> GPON","color":"green","uf":"SP"},{"tecnologia":"GPON","latitude":"-21.222929","cidade":"Valparaíso","longitude":"-50.869874","name":"Valparaíso, SP <br> GPON","color":"green","uf":"SP"},{"tecnologia":"GPON","latitude":"-23.213582","cidade":"Várzea Paulista","longitude":"-46.823444","name":"Várzea Paulista, SP <br> GPON","color":"green","uf":"SP"},{"tecnologia":"GPON","latitude":"-20.423659","cidade":"Votuporanga","longitude":"-49.978112","name":"Votuporanga, SP <br> GPON","color":"green","uf":"SP"},{"tecnologia":"GPON","latitude":"-10.174998","cidade":"Paraíso do Tocantins","longitude":"-48.882269","name":"Paraíso do Tocantins, TO <br> GPON","color":"green","uf":"TO"}]
