[{"name":"Arapiraca, AL <br> GPON","latitude":"-9.754866","tecnologia":"GPON","uf":"AL","cidade":"Arapiraca","color":"green","longitude":"-36.661471"},{"name":"Trindade, GO <br> GPON","latitude":"-16.651708","tecnologia":"GPON","uf":"GO","cidade":"Trindade","color":"green","longitude":"-49.492667"},{"name":"Araxá, MG <br> GPON","latitude":"-19.590176","tecnologia":"GPON","uf":"MG","cidade":"Araxá","color":"green","longitude":"-46.943804"},{"name":"Itajubá, MG <br> GPON","latitude":"-22.422481","tecnologia":"GPON","uf":"MG","cidade":"Itajubá","color":"green","longitude":"-45.459818"},{"name":"Paraíba Do Sul, RJ <br> GPON","latitude":"-22.158462","tecnologia":"GPON","uf":"RJ","cidade":"Paraíba Do Sul","color":"green","longitude":"-43.304004"},{"name":"Ji-Paraná, RO <br> GPON","latitude":"-10.877741","tecnologia":"GPON","uf":"RO","cidade":"Ji-Paraná","color":"green","longitude":"-61.932152"},{"name":"Camaquã, RS <br> GPON","latitude":"-30.848897","tecnologia":"GPON","uf":"RS","cidade":"Camaquã","color":"green","longitude":"-51.80431"},{"name":"Dois Irmãos, RS <br> GPON","latitude":"-29.58356","tecnologia":"GPON","uf":"RS","cidade":"Dois Irmãos","color":"green","longitude":"-51.089776"},{"name":"Marau, RS <br> GPON","latitude":"-28.449754","tecnologia":"GPON","uf":"RS","cidade":"Marau","color":"green","longitude":"-52.198625"},{"name":"Vacaria, RS <br> GPON","latitude":"-28.507868","tecnologia":"GPON","uf":"RS","cidade":"Vacaria","color":"green","longitude":"-50.941791"},{"name":"Içara, SC <br> GPON","latitude":"-28.713206","tecnologia":"GPON","uf":"SC","cidade":"Içara","color":"green","longitude":"-49.308654"},{"name":"Agudos, SP <br> GPON","latitude":"-22.469433","tecnologia":"GPON","uf":"SP","cidade":"Agudos","color":"green","longitude":"-48.98632"},{"name":"Casa Branca, SP <br> GPON","latitude":"-21.77081","tecnologia":"GPON","uf":"SP","cidade":"Casa Branca","color":"green","longitude":"-47.085245"},{"name":"Ibaté, SP <br> GPON","latitude":"-21.958358","tecnologia":"GPON","uf":"SP","cidade":"Ibaté","color":"green","longitude":"-47.988211"},{"name":"Jaguariúna, SP <br> GPON","latitude":"-22.70374","tecnologia":"GPON","uf":"SP","cidade":"Jaguariúna","color":"green","longitude":"-46.985062"},{"name":"Piedade, SP <br> GPON","latitude":"-23.713941","tecnologia":"GPON","uf":"SP","cidade":"Piedade","color":"green","longitude":"-47.425572"},{"name":"Santa Cruz das Palmeiras, SP <br> GPON","latitude":"-21.823475","tecnologia":"GPON","uf":"SP","cidade":"Santa Cruz das Palmeiras","color":"green","longitude":"-47.248023"},{"name":"Tambaú, SP <br> GPON","latitude":"-21.70292","tecnologia":"GPON","uf":"SP","cidade":"Tambaú","color":"green","longitude":"-47.270344"},{"name":"Araguaína, TO <br> GPON","latitude":"-7.192375","tecnologia":"GPON","uf":"TO","cidade":"Araguaína","color":"green","longitude":"-48.204402"},{"name":"Gurupi, TO <br> GPON","latitude":"-11.72794","tecnologia":"GPON","uf":"TO","cidade":"Gurupi","color":"green","longitude":"-49.068046"},{"name":"Santana, AP <br> GPON","latitude":"-0.045434","tecnologia":"GPON","uf":"AP","cidade":"Santana","color":"green","longitude":"-51.172924"},{"name":"Alagoinhas, BA <br> GPON","latitude":"-12.133526","tecnologia":"GPON","uf":"BA","cidade":"Alagoinhas","color":"green","longitude":"-38.420772"},{"name":"Barreiras, BA <br> GPON","latitude":"-12.143864","tecnologia":"GPON","uf":"BA","cidade":"Barreiras","color":"green","longitude":"-44.996838"},{"name":"Feira de Santana, BA <br> GPON","latitude":"-12.266429","tecnologia":"GPON","uf":"BA","cidade":"Feira de Santana","color":"green","longitude":"-38.966293"},{"name":"Itabuna, BA <br> GPON","latitude":"-14.787573","tecnologia":"GPON","uf":"BA","cidade":"Itabuna","color":"green","longitude":"-39.278056"},{"name":"Juazeiro, BA <br> GPON","latitude":"-9.416217","tecnologia":"GPON","uf":"BA","cidade":"Juazeiro","color":"green","longitude":"-40.503251"},{"name":"Porto Seguro, BA <br> GPON","latitude":"-16.443473","tecnologia":"GPON","uf":"BA","cidade":"Porto Seguro","color":"green","longitude":"-39.064251"},{"name":"Teixeira de Freitas, BA <br> GPON","latitude":"-17.539915","tecnologia":"GPON","uf":"BA","cidade":"Teixeira de Freitas","color":"green","longitude":"-39.739962"},{"name":"Aquiraz, CE <br> GPON","latitude":"-3.899293","tecnologia":"GPON","uf":"CE","cidade":"Aquiraz","color":"green","longitude":"-38.389563"},{"name":"Juazeiro do Norte, CE <br> GPON","latitude":"-7.196207","tecnologia":"GPON","uf":"CE","cidade":"Juazeiro do Norte","color":"green","longitude":"-39.307593"},{"name":"Sobral, CE <br> GPON","latitude":"-3.689133","tecnologia":"GPON","uf":"CE","cidade":"Sobral","color":"green","longitude":"-40.34821"},{"name":"Aracruz, ES <br> GPON","latitude":"-19.820045","tecnologia":"GPON","uf":"ES","cidade":"Aracruz","color":"green","longitude":"-40.276441"},{"name":"Colatina, ES <br> GPON","latitude":"-19.549316","tecnologia":"GPON","uf":"ES","cidade":"Colatina","color":"green","longitude":"-40.626898"},{"name":"Caldas Novas, GO <br> GPON","latitude":"-17.74406","tecnologia":"GPON","uf":"GO","cidade":"Caldas Novas","color":"green","longitude":"-48.624579"},{"name":"Formosa, GO <br> GPON","latitude":"-15.539991","tecnologia":"GPON","uf":"GO","cidade":"Formosa","color":"green","longitude":"-47.336999"},{"name":"Itumbiara, GO <br> GPON","latitude":"-18.409267","tecnologia":"GPON","uf":"GO","cidade":"Itumbiara","color":"green","longitude":"-49.215845"},{"name":"Rio Verde, GO <br> GPON","latitude":"-17.792266","tecnologia":"GPON","uf":"GO","cidade":"Rio Verde","color":"green","longitude":"-50.919195"},{"name":"Senador Canedo, GO <br> GPON","latitude":"-16.708401","tecnologia":"GPON","uf":"GO","cidade":"Senador Canedo","color":"green","longitude":"-49.091398"},{"name":"Caxias, MA <br> GPON","latitude":"-4.865053","tecnologia":"GPON","uf":"MA","cidade":"Caxias","color":"green","longitude":"-43.361749"},{"name":"Imperatriz, MA <br> GPON","latitude":"-5.518471","tecnologia":"GPON","uf":"MA","cidade":"Imperatriz","color":"green","longitude":"-47.477726"},{"name":"Timon, MA <br> GPON","latitude":"-5.097692","tecnologia":"GPON","uf":"MA","cidade":"Timon","color":"green","longitude":"-42.83292"},{"name":"Araguari, MG <br> GPON","latitude":"-18.645575","tecnologia":"GPON","uf":"MG","cidade":"Araguari","color":"green","longitude":"-48.193392"},{"name":"Barbacena, MG <br> GPON","latitude":"-21.221446","tecnologia":"GPON","uf":"MG","cidade":"Barbacena","color":"green","longitude":"-43.770266"},{"name":"Cataguases, MG <br> GPON","latitude":"-21.39239","tecnologia":"GPON","uf":"MG","cidade":"Cataguases","color":"green","longitude":"-42.689647"},{"name":"Conselheiro Lafaiete, MG <br> GPON","latitude":"-20.663445","tecnologia":"GPON","uf":"MG","cidade":"Conselheiro Lafaiete","color":"green","longitude":"-43.784609"},{"name":"Coronel Fabriciano, MG <br> GPON","latitude":"-19.517879","tecnologia":"GPON","uf":"MG","cidade":"Coronel Fabriciano","color":"green","longitude":"-42.627585"},{"name":"Itabira, MG <br> GPON","latitude":"-19.623936","tecnologia":"GPON","uf":"MG","cidade":"Itabira","color":"green","longitude":"-43.23123"},{"name":"Ituiutaba, MG <br> GPON","latitude":"-18.977191","tecnologia":"GPON","uf":"MG","cidade":"Ituiutaba","color":"green","longitude":"-49.463945"},{"name":"Lagoa Santa, MG <br> GPON","latitude":"-19.63967","tecnologia":"GPON","uf":"MG","cidade":"Lagoa Santa","color":"green","longitude":"-43.893216"},{"name":"Lavras, MG <br> GPON","latitude":"-21.248002","tecnologia":"GPON","uf":"MG","cidade":"Lavras","color":"green","longitude":"-45.000949"},{"name":"Montes Claros, MG <br> GPON","latitude":"-16.728177","tecnologia":"GPON","uf":"MG","cidade":"Montes Claros","color":"green","longitude":"-43.857809"},{"name":"Passos, MG <br> GPON","latitude":"-20.719271","tecnologia":"GPON","uf":"MG","cidade":"Passos","color":"green","longitude":"-46.609008"},{"name":"Patos de Minas, MG <br> GPON","latitude":"-18.569938","tecnologia":"GPON","uf":"MG","cidade":"Patos de Minas","color":"green","longitude":"-46.501268"},{"name":"Pouso Alegre, MG <br> GPON","latitude":"-22.22659","tecnologia":"GPON","uf":"MG","cidade":"Pouso Alegre","color":"green","longitude":"-45.938935"},{"name":"Santa Luzia, MG <br> GPON","latitude":"-19.754824","tecnologia":"GPON","uf":"MG","cidade":"Santa Luzia","color":"green","longitude":"-43.849658"},{"name":"Vespasiano, MG <br> GPON","latitude":"-19.688326","tecnologia":"GPON","uf":"MG","cidade":"Vespasiano","color":"green","longitude":"-43.9239"},{"name":"Lucas do Rio Verde, MT <br> GPON","latitude":"-13.058796","tecnologia":"GPON","uf":"MT","cidade":"Lucas do Rio Verde","color":"green","longitude":"-55.904202"},{"name":"Nova Mutum, MT <br> GPON","latitude":"-13.837389","tecnologia":"GPON","uf":"MT","cidade":"Nova Mutum","color":"green","longitude":"-56.074316"},{"name":"Sinop, MT <br> GPON","latitude":"-11.86043","tecnologia":"GPON","uf":"MT","cidade":"Sinop","color":"green","longitude":"-55.509062"},{"name":"Sorriso, MT <br> GPON","latitude":"-12.542527","tecnologia":"GPON","uf":"MT","cidade":"Sorriso","color":"green","longitude":"-55.721051"},{"name":"Castanhal, PA <br> GPON","latitude":"-1.297971","tecnologia":"GPON","uf":"PA","cidade":"Castanhal","color":"green","longitude":"-47.916742"},{"name":"Paragominas, PA <br> GPON","latitude":"-3.002116","tecnologia":"GPON","uf":"PA","cidade":"Paragominas","color":"green","longitude":"-47.352692"},{"name":"Parauapebas, PA <br> GPON","latitude":"-6.067812","tecnologia":"GPON","uf":"PA","cidade":"Parauapebas","color":"green","longitude":"-49.903733"},{"name":"Petrolina, PE <br> GPON","latitude":"-9.388662","tecnologia":"GPON","uf":"PE","cidade":"Petrolina","color":"green","longitude":"-40.502731"},{"name":"Apucarana, PR <br> GPON","latitude":"-23.549961","tecnologia":"GPON","uf":"PR","cidade":"Apucarana","color":"green","longitude":"-51.463486"},{"name":"Cabo Frio, RJ <br> GPON","latitude":"-22.88943","tecnologia":"GPON","uf":"RJ","cidade":"Cabo Frio","color":"green","longitude":"-42.028595"},{"name":"Miguel Pereira, RJ <br> GPON","latitude":"-22.457242","tecnologia":"GPON","uf":"RJ","cidade":"Miguel Pereira","color":"green","longitude":"-43.480275"},{"name":"Nova Friburgo, RJ <br> GPON","latitude":"-22.293224","tecnologia":"GPON","uf":"RJ","cidade":"Nova Friburgo","color":"green","longitude":"-42.537692"},{"name":"Vassouras, RJ <br> GPON","latitude":"-22.405889","tecnologia":"GPON","uf":"RJ","cidade":"Vassouras","color":"green","longitude":"-43.668555"},{"name":"Ariquemes, RO <br> GPON","latitude":"-9.905711","tecnologia":"GPON","uf":"RO","cidade":"Ariquemes","color":"green","longitude":"-63.032516"},{"name":"Cacoal, RO <br> GPON","latitude":"-11.434271","tecnologia":"GPON","uf":"RO","cidade":"Cacoal","color":"green","longitude":"-61.456167"},{"name":"Vilhena, RO <br> GPON","latitude":"-12.750183","tecnologia":"GPON","uf":"RO","cidade":"Vilhena","color":"green","longitude":"-60.148847"},{"name":"Alegrete, RS <br> GPON","latitude":"-29.790166","tecnologia":"GPON","uf":"RS","cidade":"Alegrete","color":"green","longitude":"-55.794862"},{"name":"Arroio do Meio, RS <br> GPON","latitude":"-29.401353","tecnologia":"GPON","uf":"RS","cidade":"Arroio do Meio","color":"green","longitude":"-51.955735"},{"name":"Cachoeira do Sul, RS <br> GPON","latitude":"-30.032988","tecnologia":"GPON","uf":"RS","cidade":"Cachoeira do Sul","color":"green","longitude":"-52.892756"},{"name":"Canela, RS <br> GPON","latitude":"-29.355993","tecnologia":"GPON","uf":"RS","cidade":"Canela","color":"green","longitude":"-50.811921"},{"name":"Carazinho, RS <br> GPON","latitude":"-28.295844","tecnologia":"GPON","uf":"RS","cidade":"Carazinho","color":"green","longitude":"-52.79326"},{"name":"Carlos Barbosa, RS <br> GPON","latitude":"-29.296949","tecnologia":"GPON","uf":"RS","cidade":"Carlos Barbosa","color":"green","longitude":"-51.502847"},{"name":"Charqueadas, RS <br> GPON","latitude":"-29.962478","tecnologia":"GPON","uf":"RS","cidade":"Charqueadas","color":"green","longitude":"-51.628872"},{"name":"Eldorado do Sul, RS <br> GPON","latitude":"-30.084676","tecnologia":"GPON","uf":"RS","cidade":"Eldorado do Sul","color":"green","longitude":"-51.618702"},{"name":"Encantado, RS <br> GPON","latitude":"-29.235141","tecnologia":"GPON","uf":"RS","cidade":"Encantado","color":"green","longitude":"-51.870282"},{"name":"Estrela, RS <br> GPON","latitude":"-29.500207","tecnologia":"GPON","uf":"RS","cidade":"Estrela","color":"green","longitude":"-51.949508"},{"name":"Frederico Westphalen, RS <br> GPON","latitude":"-27.358644","tecnologia":"GPON","uf":"RS","cidade":"Frederico Westphalen","color":"green","longitude":"-53.395824"},{"name":"Garibaldi, RS <br> GPON","latitude":"-29.258979","tecnologia":"GPON","uf":"RS","cidade":"Garibaldi","color":"green","longitude":"-51.535179"},{"name":"Gramado, RS <br> GPON","latitude":"-29.373351","tecnologia":"GPON","uf":"RS","cidade":"Gramado","color":"green","longitude":"-50.876164"},{"name":"Igrejinha, RS <br> GPON","latitude":"-29.569318","tecnologia":"GPON","uf":"RS","cidade":"Igrejinha","color":"green","longitude":"-50.791894"},{"name":"Itaqui, RS <br> GPON","latitude":"-29.131051","tecnologia":"GPON","uf":"RS","cidade":"Itaqui","color":"green","longitude":"-56.551478"},{"name":"Ivoti, RS <br> GPON","latitude":"-29.599463","tecnologia":"GPON","uf":"RS","cidade":"Ivoti","color":"green","longitude":"-51.153326"},{"name":"Montenegro, RS <br> GPON","latitude":"-29.682414","tecnologia":"GPON","uf":"RS","cidade":"Montenegro","color":"green","longitude":"-51.467903"},{"name":"Panambi, RS <br> GPON","latitude":"-28.283328","tecnologia":"GPON","uf":"RS","cidade":"Panambi","color":"green","longitude":"-53.502261"},{"name":"Rio Pardo, RS <br> GPON","latitude":"-29.98803","tecnologia":"GPON","uf":"RS","cidade":"Rio Pardo","color":"green","longitude":"-52.37113"},{"name":"Santa Rosa, RS <br> GPON","latitude":"-27.8702","tecnologia":"GPON","uf":"RS","cidade":"Santa Rosa","color":"green","longitude":"-54.479629"},{"name":"Santana do Livramento, RS <br> GPON","latitude":"-30.88772","tecnologia":"GPON","uf":"RS","cidade":"Santana do Livramento","color":"green","longitude":"-55.531467"},{"name":"Taquara, RS <br> GPON","latitude":"-29.650471","tecnologia":"GPON","uf":"RS","cidade":"Taquara","color":"green","longitude":"-50.775278"},{"name":"Torres, RS <br> GPON","latitude":"-29.333438","tecnologia":"GPON","uf":"RS","cidade":"Torres","color":"green","longitude":"-49.733289"},{"name":"Vera Cruz, RS <br> GPON","latitude":"-29.718435","tecnologia":"GPON","uf":"RS","cidade":"Vera Cruz","color":"green","longitude":"-52.515176"},{"name":"Fraiburgo, SC <br> GPON","latitude":"-27.023288","tecnologia":"GPON","uf":"SC","cidade":"Fraiburgo","color":"green","longitude":"-50.919978"},{"name":"Gaspar, SC <br> GPON","latitude":"-26.933597","tecnologia":"GPON","uf":"SC","cidade":"Gaspar","color":"green","longitude":"-48.953428"},{"name":"Guaramirim, SC <br> GPON","latitude":"-26.468753","tecnologia":"GPON","uf":"SC","cidade":"Guaramirim","color":"green","longitude":"-49.002628"},{"name":"Indaial, SC <br> GPON","latitude":"-26.899247","tecnologia":"GPON","uf":"SC","cidade":"Indaial","color":"green","longitude":"-49.235417"},{"name":"Lages, SC <br> GPON","latitude":"-27.814966","tecnologia":"GPON","uf":"SC","cidade":"Lages","color":"green","longitude":"-50.325862"},{"name":"Mafra, SC <br> GPON","latitude":"-26.115935","tecnologia":"GPON","uf":"SC","cidade":"Mafra","color":"green","longitude":"-49.808624"},{"name":"Rio do Sul, SC <br> GPON","latitude":"-27.215596","tecnologia":"GPON","uf":"SC","cidade":"Rio do Sul","color":"green","longitude":"-49.643016"},{"name":"Rio Negrinho, SC <br> GPON","latitude":"-26.259075","tecnologia":"GPON","uf":"SC","cidade":"Rio Negrinho","color":"green","longitude":"-49.517746"},{"name":"Videira, SC <br> GPON","latitude":"-27.008624","tecnologia":"GPON","uf":"SC","cidade":"Videira","color":"green","longitude":"-51.154274"},{"name":"Xaxim, SC <br> GPON","latitude":"-26.959643","tecnologia":"GPON","uf":"SC","cidade":"Xaxim","color":"green","longitude":"-52.537446"},{"name":"Adamantina, SP <br> GPON","latitude":"-21.682012","tecnologia":"GPON","uf":"SP","cidade":"Adamantina","color":"green","longitude":"-51.073695"},{"name":"Amparo, SP <br> GPON","latitude":"-22.70879","tecnologia":"GPON","uf":"SP","cidade":"Amparo","color":"green","longitude":"-46.772022"},{"name":"Andradina, SP <br> GPON","latitude":"-20.894761","tecnologia":"GPON","uf":"SP","cidade":"Andradina","color":"green","longitude":"-51.378568"},{"name":"Bady Bassitt, SP <br> GPON","latitude":"-20.919689","tecnologia":"GPON","uf":"SP","cidade":"Bady Bassitt","color":"green","longitude":"-49.4385"},{"name":"Barretos, SP <br> GPON","latitude":"-20.553146","tecnologia":"GPON","uf":"SP","cidade":"Barretos","color":"green","longitude":"-48.569832"},{"name":"Barrinha, SP <br> GPON","latitude":"-21.186374","tecnologia":"GPON","uf":"SP","cidade":"Barrinha","color":"green","longitude":"-48.163614"},{"name":"Batatais, SP <br> GPON","latitude":"-20.892867","tecnologia":"GPON","uf":"SP","cidade":"Batatais","color":"green","longitude":"-47.592149"},{"name":"Bebedouro, SP <br> GPON","latitude":"-20.949077","tecnologia":"GPON","uf":"SP","cidade":"Bebedouro","color":"green","longitude":"-48.479083"},{"name":"Birigui, SP <br> GPON","latitude":"-21.291034","tecnologia":"GPON","uf":"SP","cidade":"Birigui","color":"green","longitude":"-50.343162"},{"name":"Boituva, SP <br> GPON","latitude":"-23.285531","tecnologia":"GPON","uf":"SP","cidade":"Boituva","color":"green","longitude":"-47.678574"},{"name":"Caieiras, SP <br> GPON","latitude":"-23.360729","tecnologia":"GPON","uf":"SP","cidade":"Caieiras","color":"green","longitude":"-46.73974"},{"name":"Cajamar, SP <br> GPON","latitude":"-23.355014","tecnologia":"GPON","uf":"SP","cidade":"Cajamar","color":"green","longitude":"-46.878146"},{"name":"Campo Limpo Paulista, SP <br> GPON","latitude":"-23.207791","tecnologia":"GPON","uf":"SP","cidade":"Campo Limpo Paulista","color":"green","longitude":"-46.788919"},{"name":"Caraguatatuba, SP <br> GPON","latitude":"-23.612535","tecnologia":"GPON","uf":"SP","cidade":"Caraguatatuba","color":"green","longitude":"-45.412533"},{"name":"Catanduva, SP <br> GPON","latitude":"-21.131381","tecnologia":"GPON","uf":"SP","cidade":"Catanduva","color":"green","longitude":"-48.977015"},{"name":"Cerquilho, SP <br> GPON","latitude":"-23.166487","tecnologia":"GPON","uf":"SP","cidade":"Cerquilho","color":"green","longitude":"-47.745862"},{"name":"Cravinhos, SP <br> GPON","latitude":"-21.337959","tecnologia":"GPON","uf":"SP","cidade":"Cravinhos","color":"green","longitude":"-47.732427"},{"name":"Descalvado, SP <br> GPON","latitude":"-21.900211","tecnologia":"GPON","uf":"SP","cidade":"Descalvado","color":"green","longitude":"-47.618105"},{"name":"Dracena, SP <br> GPON","latitude":"-21.484311","tecnologia":"GPON","uf":"SP","cidade":"Dracena","color":"green","longitude":"-51.535034"},{"name":"Guararapes, SP <br> GPON","latitude":"-21.254431","tecnologia":"GPON","uf":"SP","cidade":"Guararapes","color":"green","longitude":"-50.645338"},{"name":"Itapeva, SP <br> GPON","latitude":"-23.978823","tecnologia":"GPON","uf":"SP","cidade":"Itapeva","color":"green","longitude":"-48.876433"},{"name":"Itapira, SP <br> GPON","latitude":"-22.435731","tecnologia":"GPON","uf":"SP","cidade":"Itapira","color":"green","longitude":"-46.822434"},{"name":"Itaquaquecetuba, SP <br> GPON","latitude":"-23.483481","tecnologia":"GPON","uf":"SP","cidade":"Itaquaquecetuba","color":"green","longitude":"-46.345724"},{"name":"Itatiba, SP <br> GPON","latitude":"-23.003497","tecnologia":"GPON","uf":"SP","cidade":"Itatiba","color":"green","longitude":"-46.846353"},{"name":"Itupeva, SP <br> GPON","latitude":"-23.152635","tecnologia":"GPON","uf":"SP","cidade":"Itupeva","color":"green","longitude":"-47.059262"},{"name":"Ituverava, SP <br> GPON","latitude":"-20.335465","tecnologia":"GPON","uf":"SP","cidade":"Ituverava","color":"green","longitude":"-47.790207"},{"name":"Jaboticabal, SP <br> GPON","latitude":"-21.252037","tecnologia":"GPON","uf":"SP","cidade":"Jaboticabal","color":"green","longitude":"-48.325223"},{"name":"Jales, SP <br> GPON","latitude":"-20.267227","tecnologia":"GPON","uf":"SP","cidade":"Jales","color":"green","longitude":"-50.549442"},{"name":"Jarinu, SP <br> GPON","latitude":"-23.103855","tecnologia":"GPON","uf":"SP","cidade":"Jarinu","color":"green","longitude":"-46.728015"},{"name":"Laranjal Paulista, SP <br> GPON","latitude":"-23.050564","tecnologia":"GPON","uf":"SP","cidade":"Laranjal Paulista","color":"green","longitude":"-47.837549"},{"name":"Leme, SP <br> GPON","latitude":"-22.180857","tecnologia":"GPON","uf":"SP","cidade":"Leme","color":"green","longitude":"-47.384109"},{"name":"Lins, SP <br> GPON","latitude":"-21.67182","tecnologia":"GPON","uf":"SP","cidade":"Lins","color":"green","longitude":"-49.752555"},{"name":"Louveira, SP <br> GPON","latitude":"-23.085572","tecnologia":"GPON","uf":"SP","cidade":"Louveira","color":"green","longitude":"-46.948369"},{"name":"Mairinque, SP <br> GPON","latitude":"-23.539822","tecnologia":"GPON","uf":"SP","cidade":"Mairinque","color":"green","longitude":"-47.184995"},{"name":"Mirassol, SP <br> GPON","latitude":"-20.816874","tecnologia":"GPON","uf":"SP","cidade":"Mirassol","color":"green","longitude":"-49.52061"},{"name":"Mococa, SP <br> GPON","latitude":"-21.464731","tecnologia":"GPON","uf":"SP","cidade":"Mococa","color":"green","longitude":"-47.002405"},{"name":"Monte Alto, SP <br> GPON","latitude":"-21.265545","tecnologia":"GPON","uf":"SP","cidade":"Monte Alto","color":"green","longitude":"-48.497066"},{"name":"Morungaba, SP <br> GPON","latitude":"-22.881071","tecnologia":"GPON","uf":"SP","cidade":"Morungaba","color":"green","longitude":"-46.789601"},{"name":"Ourinhos, SP <br> GPON","latitude":"-22.979695","tecnologia":"GPON","uf":"SP","cidade":"Ourinhos","color":"green","longitude":"-49.869702"},{"name":"Pedreira, SP <br> GPON","latitude":"-22.741347","tecnologia":"GPON","uf":"SP","cidade":"Pedreira","color":"green","longitude":"-46.894846"},{"name":"Piracaia, SP <br> GPON","latitude":"-23.052545","tecnologia":"GPON","uf":"SP","cidade":"Piracaia","color":"green","longitude":"-46.359374"},{"name":"Pirassununga, SP <br> GPON","latitude":"-21.995982","tecnologia":"GPON","uf":"SP","cidade":"Pirassununga","color":"green","longitude":"-47.425746"},{"name":"Pontal, SP <br> GPON","latitude":"-21.021565","tecnologia":"GPON","uf":"SP","cidade":"Pontal","color":"green","longitude":"-48.042261"},{"name":"Porto Ferreira, SP <br> GPON","latitude":"-21.849814","tecnologia":"GPON","uf":"SP","cidade":"Porto Ferreira","color":"green","longitude":"-47.487034"},{"name":"Potirendaba, SP <br> GPON","latitude":"-21.042789","tecnologia":"GPON","uf":"SP","cidade":"Potirendaba","color":"green","longitude":"-49.381509"},{"name":"Presidente Bernardes, SP <br> GPON","latitude":"-22.008198","tecnologia":"GPON","uf":"SP","cidade":"Presidente Bernardes","color":"green","longitude":"-51.556507"},{"name":"Registro, SP <br> GPON","latitude":"-24.497942","tecnologia":"GPON","uf":"SP","cidade":"Registro","color":"green","longitude":"-47.844895"},{"name":"Santa Cruz do Rio Pardo, SP <br> GPON","latitude":"-22.89875","tecnologia":"GPON","uf":"SP","cidade":"Santa Cruz do Rio Pardo","color":"green","longitude":"-49.635444"},{"name":"Santa Gertrudes, SP <br> GPON","latitude":"-22.457229","tecnologia":"GPON","uf":"SP","cidade":"Santa Gertrudes","color":"green","longitude":"-47.52716"},{"name":"Santa Isabel, SP <br> GPON","latitude":"-23.317194","tecnologia":"GPON","uf":"SP","cidade":"Santa Isabel","color":"green","longitude":"-46.223668"},{"name":"Santa Rosa de Viterbo, SP <br> GPON","latitude":"-21.477568","tecnologia":"GPON","uf":"SP","cidade":"Santa Rosa de Viterbo","color":"green","longitude":"-47.362213"},{"name":"Serra Negra, SP <br> GPON","latitude":"-22.613941","tecnologia":"GPON","uf":"SP","cidade":"Serra Negra","color":"green","longitude":"-46.703271"},{"name":"Serrana, SP <br> GPON","latitude":"-21.204336","tecnologia":"GPON","uf":"SP","cidade":"Serrana","color":"green","longitude":"-47.595239"},{"name":"Ubatuba, SP <br> GPON","latitude":"-23.433162","tecnologia":"GPON","uf":"SP","cidade":"Ubatuba","color":"green","longitude":"-45.083415"},{"name":"Votuporanga, SP <br> GPON","latitude":"-20.423659","tecnologia":"GPON","uf":"SP","cidade":"Votuporanga","color":"green","longitude":"-49.978112"}]
