[{"latitude":"-9.754866","color":"green","longitude":"-36.661471","uf":"AL","tecnologia":"GPON","name":"Arapiraca, AL <br> GPON","cidade":"Arapiraca"},{"latitude":"-16.651708","color":"green","longitude":"-49.492667","uf":"GO","tecnologia":"GPON","name":"Trindade, GO <br> GPON","cidade":"Trindade"},{"latitude":"-19.590176","color":"green","longitude":"-46.943804","uf":"MG","tecnologia":"GPON","name":"Araxá, MG <br> GPON","cidade":"Araxá"},{"latitude":"-22.422481","color":"green","longitude":"-45.459818","uf":"MG","tecnologia":"GPON","name":"Itajubá, MG <br> GPON","cidade":"Itajubá"},{"latitude":"-22.158462","color":"green","longitude":"-43.304004","uf":"RJ","tecnologia":"GPON","name":"Paraíba Do Sul, RJ <br> GPON","cidade":"Paraíba Do Sul"},{"latitude":"-10.877741","color":"green","longitude":"-61.932152","uf":"RO","tecnologia":"GPON","name":"Ji-Paraná, RO <br> GPON","cidade":"Ji-Paraná"},{"latitude":"-30.848897","color":"green","longitude":"-51.80431","uf":"RS","tecnologia":"GPON","name":"Camaquã, RS <br> GPON","cidade":"Camaquã"},{"latitude":"-29.58356","color":"green","longitude":"-51.089776","uf":"RS","tecnologia":"GPON","name":"Dois Irmãos, RS <br> GPON","cidade":"Dois Irmãos"},{"latitude":"-28.449754","color":"green","longitude":"-52.198625","uf":"RS","tecnologia":"GPON","name":"Marau, RS <br> GPON","cidade":"Marau"},{"latitude":"-28.507868","color":"green","longitude":"-50.941791","uf":"RS","tecnologia":"GPON","name":"Vacaria, RS <br> GPON","cidade":"Vacaria"},{"latitude":"-28.713206","color":"green","longitude":"-49.308654","uf":"SC","tecnologia":"GPON","name":"Içara, SC <br> GPON","cidade":"Içara"},{"latitude":"-22.469433","color":"green","longitude":"-48.98632","uf":"SP","tecnologia":"GPON","name":"Agudos, SP <br> GPON","cidade":"Agudos"},{"latitude":"-21.77081","color":"green","longitude":"-47.085245","uf":"SP","tecnologia":"GPON","name":"Casa Branca, SP <br> GPON","cidade":"Casa Branca"},{"latitude":"-21.958358","color":"green","longitude":"-47.988211","uf":"SP","tecnologia":"GPON","name":"Ibaté, SP <br> GPON","cidade":"Ibaté"},{"latitude":"-22.70374","color":"green","longitude":"-46.985062","uf":"SP","tecnologia":"GPON","name":"Jaguariúna, SP <br> GPON","cidade":"Jaguariúna"},{"latitude":"-23.713941","color":"green","longitude":"-47.425572","uf":"SP","tecnologia":"GPON","name":"Piedade, SP <br> GPON","cidade":"Piedade"},{"latitude":"-21.823475","color":"green","longitude":"-47.248023","uf":"SP","tecnologia":"GPON","name":"Santa Cruz das Palmeiras, SP <br> GPON","cidade":"Santa Cruz das Palmeiras"},{"latitude":"-21.70292","color":"green","longitude":"-47.270344","uf":"SP","tecnologia":"GPON","name":"Tambaú, SP <br> GPON","cidade":"Tambaú"},{"latitude":"-7.192375","color":"green","longitude":"-48.204402","uf":"TO","tecnologia":"GPON","name":"Araguaína, TO <br> GPON","cidade":"Araguaína"},{"latitude":"-11.72794","color":"green","longitude":"-49.068046","uf":"TO","tecnologia":"GPON","name":"Gurupi, TO <br> GPON","cidade":"Gurupi"},{"latitude":"-0.045434","color":"green","longitude":"-51.172924","uf":"AP","tecnologia":"GPON","name":"Santana, AP <br> GPON","cidade":"Santana"},{"latitude":"-12.133526","color":"green","longitude":"-38.420772","uf":"BA","tecnologia":"GPON","name":"Alagoinhas, BA <br> GPON","cidade":"Alagoinhas"},{"latitude":"-12.143864","color":"green","longitude":"-44.996838","uf":"BA","tecnologia":"GPON","name":"Barreiras, BA <br> GPON","cidade":"Barreiras"},{"latitude":"-12.266429","color":"green","longitude":"-38.966293","uf":"BA","tecnologia":"GPON","name":"Feira de Santana, BA <br> GPON","cidade":"Feira de Santana"},{"latitude":"-14.787573","color":"green","longitude":"-39.278056","uf":"BA","tecnologia":"GPON","name":"Itabuna, BA <br> GPON","cidade":"Itabuna"},{"latitude":"-9.416217","color":"green","longitude":"-40.503251","uf":"BA","tecnologia":"GPON","name":"Juazeiro, BA <br> GPON","cidade":"Juazeiro"},{"latitude":"-16.443473","color":"green","longitude":"-39.064251","uf":"BA","tecnologia":"GPON","name":"Porto Seguro, BA <br> GPON","cidade":"Porto Seguro"},{"latitude":"-17.539915","color":"green","longitude":"-39.739962","uf":"BA","tecnologia":"GPON","name":"Teixeira de Freitas, BA <br> GPON","cidade":"Teixeira de Freitas"},{"latitude":"-3.899293","color":"green","longitude":"-38.389563","uf":"CE","tecnologia":"GPON","name":"Aquiraz, CE <br> GPON","cidade":"Aquiraz"},{"latitude":"-7.196207","color":"green","longitude":"-39.307593","uf":"CE","tecnologia":"GPON","name":"Juazeiro do Norte, CE <br> GPON","cidade":"Juazeiro do Norte"},{"latitude":"-3.689133","color":"green","longitude":"-40.34821","uf":"CE","tecnologia":"GPON","name":"Sobral, CE <br> GPON","cidade":"Sobral"},{"latitude":"-19.820045","color":"green","longitude":"-40.276441","uf":"ES","tecnologia":"GPON","name":"Aracruz, ES <br> GPON","cidade":"Aracruz"},{"latitude":"-19.549316","color":"green","longitude":"-40.626898","uf":"ES","tecnologia":"GPON","name":"Colatina, ES <br> GPON","cidade":"Colatina"},{"latitude":"-17.74406","color":"green","longitude":"-48.624579","uf":"GO","tecnologia":"GPON","name":"Caldas Novas, GO <br> GPON","cidade":"Caldas Novas"},{"latitude":"-15.539991","color":"green","longitude":"-47.336999","uf":"GO","tecnologia":"GPON","name":"Formosa, GO <br> GPON","cidade":"Formosa"},{"latitude":"-18.409267","color":"green","longitude":"-49.215845","uf":"GO","tecnologia":"GPON","name":"Itumbiara, GO <br> GPON","cidade":"Itumbiara"},{"latitude":"-17.792266","color":"green","longitude":"-50.919195","uf":"GO","tecnologia":"GPON","name":"Rio Verde, GO <br> GPON","cidade":"Rio Verde"},{"latitude":"-16.708401","color":"green","longitude":"-49.091398","uf":"GO","tecnologia":"GPON","name":"Senador Canedo, GO <br> GPON","cidade":"Senador Canedo"},{"latitude":"-4.865053","color":"green","longitude":"-43.361749","uf":"MA","tecnologia":"GPON","name":"Caxias, MA <br> GPON","cidade":"Caxias"},{"latitude":"-5.518471","color":"green","longitude":"-47.477726","uf":"MA","tecnologia":"GPON","name":"Imperatriz, MA <br> GPON","cidade":"Imperatriz"},{"latitude":"-5.097692","color":"green","longitude":"-42.83292","uf":"MA","tecnologia":"GPON","name":"Timon, MA <br> GPON","cidade":"Timon"},{"latitude":"-18.645575","color":"green","longitude":"-48.193392","uf":"MG","tecnologia":"GPON","name":"Araguari, MG <br> GPON","cidade":"Araguari"},{"latitude":"-21.221446","color":"green","longitude":"-43.770266","uf":"MG","tecnologia":"GPON","name":"Barbacena, MG <br> GPON","cidade":"Barbacena"},{"latitude":"-21.39239","color":"green","longitude":"-42.689647","uf":"MG","tecnologia":"GPON","name":"Cataguases, MG <br> GPON","cidade":"Cataguases"},{"latitude":"-20.663445","color":"green","longitude":"-43.784609","uf":"MG","tecnologia":"GPON","name":"Conselheiro Lafaiete, MG <br> GPON","cidade":"Conselheiro Lafaiete"},{"latitude":"-19.517879","color":"green","longitude":"-42.627585","uf":"MG","tecnologia":"GPON","name":"Coronel Fabriciano, MG <br> GPON","cidade":"Coronel Fabriciano"},{"latitude":"-19.623936","color":"green","longitude":"-43.23123","uf":"MG","tecnologia":"GPON","name":"Itabira, MG <br> GPON","cidade":"Itabira"},{"latitude":"-18.977191","color":"green","longitude":"-49.463945","uf":"MG","tecnologia":"GPON","name":"Ituiutaba, MG <br> GPON","cidade":"Ituiutaba"},{"latitude":"-19.63967","color":"green","longitude":"-43.893216","uf":"MG","tecnologia":"GPON","name":"Lagoa Santa, MG <br> GPON","cidade":"Lagoa Santa"},{"latitude":"-21.248002","color":"green","longitude":"-45.000949","uf":"MG","tecnologia":"GPON","name":"Lavras, MG <br> GPON","cidade":"Lavras"},{"latitude":"-16.728177","color":"green","longitude":"-43.857809","uf":"MG","tecnologia":"GPON","name":"Montes Claros, MG <br> GPON","cidade":"Montes Claros"},{"latitude":"-20.719271","color":"green","longitude":"-46.609008","uf":"MG","tecnologia":"GPON","name":"Passos, MG <br> GPON","cidade":"Passos"},{"latitude":"-18.569938","color":"green","longitude":"-46.501268","uf":"MG","tecnologia":"GPON","name":"Patos de Minas, MG <br> GPON","cidade":"Patos de Minas"},{"latitude":"-22.22659","color":"green","longitude":"-45.938935","uf":"MG","tecnologia":"GPON","name":"Pouso Alegre, MG <br> GPON","cidade":"Pouso Alegre"},{"latitude":"-19.754824","color":"green","longitude":"-43.849658","uf":"MG","tecnologia":"GPON","name":"Santa Luzia, MG <br> GPON","cidade":"Santa Luzia"},{"latitude":"-19.688326","color":"green","longitude":"-43.9239","uf":"MG","tecnologia":"GPON","name":"Vespasiano, MG <br> GPON","cidade":"Vespasiano"},{"latitude":"-13.058796","color":"green","longitude":"-55.904202","uf":"MT","tecnologia":"GPON","name":"Lucas do Rio Verde, MT <br> GPON","cidade":"Lucas do Rio Verde"},{"latitude":"-13.837389","color":"green","longitude":"-56.074316","uf":"MT","tecnologia":"GPON","name":"Nova Mutum, MT <br> GPON","cidade":"Nova Mutum"},{"latitude":"-11.86043","color":"green","longitude":"-55.509062","uf":"MT","tecnologia":"GPON","name":"Sinop, MT <br> GPON","cidade":"Sinop"},{"latitude":"-12.542527","color":"green","longitude":"-55.721051","uf":"MT","tecnologia":"GPON","name":"Sorriso, MT <br> GPON","cidade":"Sorriso"},{"latitude":"-1.297971","color":"green","longitude":"-47.916742","uf":"PA","tecnologia":"GPON","name":"Castanhal, PA <br> GPON","cidade":"Castanhal"},{"latitude":"-3.002116","color":"green","longitude":"-47.352692","uf":"PA","tecnologia":"GPON","name":"Paragominas, PA <br> GPON","cidade":"Paragominas"},{"latitude":"-6.067812","color":"green","longitude":"-49.903733","uf":"PA","tecnologia":"GPON","name":"Parauapebas, PA <br> GPON","cidade":"Parauapebas"},{"latitude":"-9.388662","color":"green","longitude":"-40.502731","uf":"PE","tecnologia":"GPON","name":"Petrolina, PE <br> GPON","cidade":"Petrolina"},{"latitude":"-23.549961","color":"green","longitude":"-51.463486","uf":"PR","tecnologia":"GPON","name":"Apucarana, PR <br> GPON","cidade":"Apucarana"},{"latitude":"-22.88943","color":"green","longitude":"-42.028595","uf":"RJ","tecnologia":"GPON","name":"Cabo Frio, RJ <br> GPON","cidade":"Cabo Frio"},{"latitude":"-22.457242","color":"green","longitude":"-43.480275","uf":"RJ","tecnologia":"GPON","name":"Miguel Pereira, RJ <br> GPON","cidade":"Miguel Pereira"},{"latitude":"-22.293224","color":"green","longitude":"-42.537692","uf":"RJ","tecnologia":"GPON","name":"Nova Friburgo, RJ <br> GPON","cidade":"Nova Friburgo"},{"latitude":"-22.405889","color":"green","longitude":"-43.668555","uf":"RJ","tecnologia":"GPON","name":"Vassouras, RJ <br> GPON","cidade":"Vassouras"},{"latitude":"-9.905711","color":"green","longitude":"-63.032516","uf":"RO","tecnologia":"GPON","name":"Ariquemes, RO <br> GPON","cidade":"Ariquemes"},{"latitude":"-11.434271","color":"green","longitude":"-61.456167","uf":"RO","tecnologia":"GPON","name":"Cacoal, RO <br> GPON","cidade":"Cacoal"},{"latitude":"-12.750183","color":"green","longitude":"-60.148847","uf":"RO","tecnologia":"GPON","name":"Vilhena, RO <br> GPON","cidade":"Vilhena"},{"latitude":"-29.790166","color":"green","longitude":"-55.794862","uf":"RS","tecnologia":"GPON","name":"Alegrete, RS <br> GPON","cidade":"Alegrete"},{"latitude":"-29.401353","color":"green","longitude":"-51.955735","uf":"RS","tecnologia":"GPON","name":"Arroio do Meio, RS <br> GPON","cidade":"Arroio do Meio"},{"latitude":"-30.032988","color":"green","longitude":"-52.892756","uf":"RS","tecnologia":"GPON","name":"Cachoeira do Sul, RS <br> GPON","cidade":"Cachoeira do Sul"},{"latitude":"-29.355993","color":"green","longitude":"-50.811921","uf":"RS","tecnologia":"GPON","name":"Canela, RS <br> GPON","cidade":"Canela"},{"latitude":"-28.295844","color":"green","longitude":"-52.79326","uf":"RS","tecnologia":"GPON","name":"Carazinho, RS <br> GPON","cidade":"Carazinho"},{"latitude":"-29.296949","color":"green","longitude":"-51.502847","uf":"RS","tecnologia":"GPON","name":"Carlos Barbosa, RS <br> GPON","cidade":"Carlos Barbosa"},{"latitude":"-29.962478","color":"green","longitude":"-51.628872","uf":"RS","tecnologia":"GPON","name":"Charqueadas, RS <br> GPON","cidade":"Charqueadas"},{"latitude":"-30.084676","color":"green","longitude":"-51.618702","uf":"RS","tecnologia":"GPON","name":"Eldorado do Sul, RS <br> GPON","cidade":"Eldorado do Sul"},{"latitude":"-29.235141","color":"green","longitude":"-51.870282","uf":"RS","tecnologia":"GPON","name":"Encantado, RS <br> GPON","cidade":"Encantado"},{"latitude":"-29.500207","color":"green","longitude":"-51.949508","uf":"RS","tecnologia":"GPON","name":"Estrela, RS <br> GPON","cidade":"Estrela"},{"latitude":"-27.358644","color":"green","longitude":"-53.395824","uf":"RS","tecnologia":"GPON","name":"Frederico Westphalen, RS <br> GPON","cidade":"Frederico Westphalen"},{"latitude":"-29.258979","color":"green","longitude":"-51.535179","uf":"RS","tecnologia":"GPON","name":"Garibaldi, RS <br> GPON","cidade":"Garibaldi"},{"latitude":"-29.373351","color":"green","longitude":"-50.876164","uf":"RS","tecnologia":"GPON","name":"Gramado, RS <br> GPON","cidade":"Gramado"},{"latitude":"-29.569318","color":"green","longitude":"-50.791894","uf":"RS","tecnologia":"GPON","name":"Igrejinha, RS <br> GPON","cidade":"Igrejinha"},{"latitude":"-29.131051","color":"green","longitude":"-56.551478","uf":"RS","tecnologia":"GPON","name":"Itaqui, RS <br> GPON","cidade":"Itaqui"},{"latitude":"-29.599463","color":"green","longitude":"-51.153326","uf":"RS","tecnologia":"GPON","name":"Ivoti, RS <br> GPON","cidade":"Ivoti"},{"latitude":"-29.682414","color":"green","longitude":"-51.467903","uf":"RS","tecnologia":"GPON","name":"Montenegro, RS <br> GPON","cidade":"Montenegro"},{"latitude":"-28.283328","color":"green","longitude":"-53.502261","uf":"RS","tecnologia":"GPON","name":"Panambi, RS <br> GPON","cidade":"Panambi"},{"latitude":"-29.98803","color":"green","longitude":"-52.37113","uf":"RS","tecnologia":"GPON","name":"Rio Pardo, RS <br> GPON","cidade":"Rio Pardo"},{"latitude":"-27.8702","color":"green","longitude":"-54.479629","uf":"RS","tecnologia":"GPON","name":"Santa Rosa, RS <br> GPON","cidade":"Santa Rosa"},{"latitude":"-30.88772","color":"green","longitude":"-55.531467","uf":"RS","tecnologia":"GPON","name":"Santana do Livramento, RS <br> GPON","cidade":"Santana do Livramento"},{"latitude":"-29.650471","color":"green","longitude":"-50.775278","uf":"RS","tecnologia":"GPON","name":"Taquara, RS <br> GPON","cidade":"Taquara"},{"latitude":"-29.333438","color":"green","longitude":"-49.733289","uf":"RS","tecnologia":"GPON","name":"Torres, RS <br> GPON","cidade":"Torres"},{"latitude":"-29.718435","color":"green","longitude":"-52.515176","uf":"RS","tecnologia":"GPON","name":"Vera Cruz, RS <br> GPON","cidade":"Vera Cruz"},{"latitude":"-27.023288","color":"green","longitude":"-50.919978","uf":"SC","tecnologia":"GPON","name":"Fraiburgo, SC <br> GPON","cidade":"Fraiburgo"},{"latitude":"-26.933597","color":"green","longitude":"-48.953428","uf":"SC","tecnologia":"GPON","name":"Gaspar, SC <br> GPON","cidade":"Gaspar"},{"latitude":"-26.468753","color":"green","longitude":"-49.002628","uf":"SC","tecnologia":"GPON","name":"Guaramirim, SC <br> GPON","cidade":"Guaramirim"},{"latitude":"-26.899247","color":"green","longitude":"-49.235417","uf":"SC","tecnologia":"GPON","name":"Indaial, SC <br> GPON","cidade":"Indaial"},{"latitude":"-27.814966","color":"green","longitude":"-50.325862","uf":"SC","tecnologia":"GPON","name":"Lages, SC <br> GPON","cidade":"Lages"},{"latitude":"-26.115935","color":"green","longitude":"-49.808624","uf":"SC","tecnologia":"GPON","name":"Mafra, SC <br> GPON","cidade":"Mafra"},{"latitude":"-27.215596","color":"green","longitude":"-49.643016","uf":"SC","tecnologia":"GPON","name":"Rio do Sul, SC <br> GPON","cidade":"Rio do Sul"},{"latitude":"-26.259075","color":"green","longitude":"-49.517746","uf":"SC","tecnologia":"GPON","name":"Rio Negrinho, SC <br> GPON","cidade":"Rio Negrinho"},{"latitude":"-27.008624","color":"green","longitude":"-51.154274","uf":"SC","tecnologia":"GPON","name":"Videira, SC <br> GPON","cidade":"Videira"},{"latitude":"-26.959643","color":"green","longitude":"-52.537446","uf":"SC","tecnologia":"GPON","name":"Xaxim, SC <br> GPON","cidade":"Xaxim"},{"latitude":"-21.682012","color":"green","longitude":"-51.073695","uf":"SP","tecnologia":"GPON","name":"Adamantina, SP <br> GPON","cidade":"Adamantina"},{"latitude":"-22.70879","color":"green","longitude":"-46.772022","uf":"SP","tecnologia":"GPON","name":"Amparo, SP <br> GPON","cidade":"Amparo"},{"latitude":"-20.894761","color":"green","longitude":"-51.378568","uf":"SP","tecnologia":"GPON","name":"Andradina, SP <br> GPON","cidade":"Andradina"},{"latitude":"-20.919689","color":"green","longitude":"-49.4385","uf":"SP","tecnologia":"GPON","name":"Bady Bassitt, SP <br> GPON","cidade":"Bady Bassitt"},{"latitude":"-20.553146","color":"green","longitude":"-48.569832","uf":"SP","tecnologia":"GPON","name":"Barretos, SP <br> GPON","cidade":"Barretos"},{"latitude":"-21.186374","color":"green","longitude":"-48.163614","uf":"SP","tecnologia":"GPON","name":"Barrinha, SP <br> GPON","cidade":"Barrinha"},{"latitude":"-20.892867","color":"green","longitude":"-47.592149","uf":"SP","tecnologia":"GPON","name":"Batatais, SP <br> GPON","cidade":"Batatais"},{"latitude":"-20.949077","color":"green","longitude":"-48.479083","uf":"SP","tecnologia":"GPON","name":"Bebedouro, SP <br> GPON","cidade":"Bebedouro"},{"latitude":"-21.291034","color":"green","longitude":"-50.343162","uf":"SP","tecnologia":"GPON","name":"Birigui, SP <br> GPON","cidade":"Birigui"},{"latitude":"-23.285531","color":"green","longitude":"-47.678574","uf":"SP","tecnologia":"GPON","name":"Boituva, SP <br> GPON","cidade":"Boituva"},{"latitude":"-23.360729","color":"green","longitude":"-46.73974","uf":"SP","tecnologia":"GPON","name":"Caieiras, SP <br> GPON","cidade":"Caieiras"},{"latitude":"-23.355014","color":"green","longitude":"-46.878146","uf":"SP","tecnologia":"GPON","name":"Cajamar, SP <br> GPON","cidade":"Cajamar"},{"latitude":"-23.207791","color":"green","longitude":"-46.788919","uf":"SP","tecnologia":"GPON","name":"Campo Limpo Paulista, SP <br> GPON","cidade":"Campo Limpo Paulista"},{"latitude":"-23.612535","color":"green","longitude":"-45.412533","uf":"SP","tecnologia":"GPON","name":"Caraguatatuba, SP <br> GPON","cidade":"Caraguatatuba"},{"latitude":"-21.131381","color":"green","longitude":"-48.977015","uf":"SP","tecnologia":"GPON","name":"Catanduva, SP <br> GPON","cidade":"Catanduva"},{"latitude":"-23.166487","color":"green","longitude":"-47.745862","uf":"SP","tecnologia":"GPON","name":"Cerquilho, SP <br> GPON","cidade":"Cerquilho"},{"latitude":"-21.337959","color":"green","longitude":"-47.732427","uf":"SP","tecnologia":"GPON","name":"Cravinhos, SP <br> GPON","cidade":"Cravinhos"},{"latitude":"-21.900211","color":"green","longitude":"-47.618105","uf":"SP","tecnologia":"GPON","name":"Descalvado, SP <br> GPON","cidade":"Descalvado"},{"latitude":"-21.484311","color":"green","longitude":"-51.535034","uf":"SP","tecnologia":"GPON","name":"Dracena, SP <br> GPON","cidade":"Dracena"},{"latitude":"-21.254431","color":"green","longitude":"-50.645338","uf":"SP","tecnologia":"GPON","name":"Guararapes, SP <br> GPON","cidade":"Guararapes"},{"latitude":"-23.978823","color":"green","longitude":"-48.876433","uf":"SP","tecnologia":"GPON","name":"Itapeva, SP <br> GPON","cidade":"Itapeva"},{"latitude":"-22.435731","color":"green","longitude":"-46.822434","uf":"SP","tecnologia":"GPON","name":"Itapira, SP <br> GPON","cidade":"Itapira"},{"latitude":"-23.483481","color":"green","longitude":"-46.345724","uf":"SP","tecnologia":"GPON","name":"Itaquaquecetuba, SP <br> GPON","cidade":"Itaquaquecetuba"},{"latitude":"-23.003497","color":"green","longitude":"-46.846353","uf":"SP","tecnologia":"GPON","name":"Itatiba, SP <br> GPON","cidade":"Itatiba"},{"latitude":"-23.152635","color":"green","longitude":"-47.059262","uf":"SP","tecnologia":"GPON","name":"Itupeva, SP <br> GPON","cidade":"Itupeva"},{"latitude":"-20.335465","color":"green","longitude":"-47.790207","uf":"SP","tecnologia":"GPON","name":"Ituverava, SP <br> GPON","cidade":"Ituverava"},{"latitude":"-21.252037","color":"green","longitude":"-48.325223","uf":"SP","tecnologia":"GPON","name":"Jaboticabal, SP <br> GPON","cidade":"Jaboticabal"},{"latitude":"-20.267227","color":"green","longitude":"-50.549442","uf":"SP","tecnologia":"GPON","name":"Jales, SP <br> GPON","cidade":"Jales"},{"latitude":"-23.103855","color":"green","longitude":"-46.728015","uf":"SP","tecnologia":"GPON","name":"Jarinu, SP <br> GPON","cidade":"Jarinu"},{"latitude":"-23.050564","color":"green","longitude":"-47.837549","uf":"SP","tecnologia":"GPON","name":"Laranjal Paulista, SP <br> GPON","cidade":"Laranjal Paulista"},{"latitude":"-22.180857","color":"green","longitude":"-47.384109","uf":"SP","tecnologia":"GPON","name":"Leme, SP <br> GPON","cidade":"Leme"},{"latitude":"-21.67182","color":"green","longitude":"-49.752555","uf":"SP","tecnologia":"GPON","name":"Lins, SP <br> GPON","cidade":"Lins"},{"latitude":"-23.085572","color":"green","longitude":"-46.948369","uf":"SP","tecnologia":"GPON","name":"Louveira, SP <br> GPON","cidade":"Louveira"},{"latitude":"-23.539822","color":"green","longitude":"-47.184995","uf":"SP","tecnologia":"GPON","name":"Mairinque, SP <br> GPON","cidade":"Mairinque"},{"latitude":"-20.816874","color":"green","longitude":"-49.52061","uf":"SP","tecnologia":"GPON","name":"Mirassol, SP <br> GPON","cidade":"Mirassol"},{"latitude":"-21.464731","color":"green","longitude":"-47.002405","uf":"SP","tecnologia":"GPON","name":"Mococa, SP <br> GPON","cidade":"Mococa"},{"latitude":"-21.265545","color":"green","longitude":"-48.497066","uf":"SP","tecnologia":"GPON","name":"Monte Alto, SP <br> GPON","cidade":"Monte Alto"},{"latitude":"-22.881071","color":"green","longitude":"-46.789601","uf":"SP","tecnologia":"GPON","name":"Morungaba, SP <br> GPON","cidade":"Morungaba"},{"latitude":"-22.979695","color":"green","longitude":"-49.869702","uf":"SP","tecnologia":"GPON","name":"Ourinhos, SP <br> GPON","cidade":"Ourinhos"},{"latitude":"-22.741347","color":"green","longitude":"-46.894846","uf":"SP","tecnologia":"GPON","name":"Pedreira, SP <br> GPON","cidade":"Pedreira"},{"latitude":"-23.052545","color":"green","longitude":"-46.359374","uf":"SP","tecnologia":"GPON","name":"Piracaia, SP <br> GPON","cidade":"Piracaia"},{"latitude":"-21.995982","color":"green","longitude":"-47.425746","uf":"SP","tecnologia":"GPON","name":"Pirassununga, SP <br> GPON","cidade":"Pirassununga"},{"latitude":"-21.021565","color":"green","longitude":"-48.042261","uf":"SP","tecnologia":"GPON","name":"Pontal, SP <br> GPON","cidade":"Pontal"},{"latitude":"-21.849814","color":"green","longitude":"-47.487034","uf":"SP","tecnologia":"GPON","name":"Porto Ferreira, SP <br> GPON","cidade":"Porto Ferreira"},{"latitude":"-21.042789","color":"green","longitude":"-49.381509","uf":"SP","tecnologia":"GPON","name":"Potirendaba, SP <br> GPON","cidade":"Potirendaba"},{"latitude":"-22.008198","color":"green","longitude":"-51.556507","uf":"SP","tecnologia":"GPON","name":"Presidente Bernardes, SP <br> GPON","cidade":"Presidente Bernardes"},{"latitude":"-24.497942","color":"green","longitude":"-47.844895","uf":"SP","tecnologia":"GPON","name":"Registro, SP <br> GPON","cidade":"Registro"},{"latitude":"-22.89875","color":"green","longitude":"-49.635444","uf":"SP","tecnologia":"GPON","name":"Santa Cruz do Rio Pardo, SP <br> GPON","cidade":"Santa Cruz do Rio Pardo"},{"latitude":"-22.457229","color":"green","longitude":"-47.52716","uf":"SP","tecnologia":"GPON","name":"Santa Gertrudes, SP <br> GPON","cidade":"Santa Gertrudes"},{"latitude":"-23.317194","color":"green","longitude":"-46.223668","uf":"SP","tecnologia":"GPON","name":"Santa Isabel, SP <br> GPON","cidade":"Santa Isabel"},{"latitude":"-21.477568","color":"green","longitude":"-47.362213","uf":"SP","tecnologia":"GPON","name":"Santa Rosa de Viterbo, SP <br> GPON","cidade":"Santa Rosa de Viterbo"},{"latitude":"-22.613941","color":"green","longitude":"-46.703271","uf":"SP","tecnologia":"GPON","name":"Serra Negra, SP <br> GPON","cidade":"Serra Negra"},{"latitude":"-21.204336","color":"green","longitude":"-47.595239","uf":"SP","tecnologia":"GPON","name":"Serrana, SP <br> GPON","cidade":"Serrana"},{"latitude":"-23.433162","color":"green","longitude":"-45.083415","uf":"SP","tecnologia":"GPON","name":"Ubatuba, SP <br> GPON","cidade":"Ubatuba"},{"latitude":"-20.423659","color":"green","longitude":"-49.978112","uf":"SP","tecnologia":"GPON","name":"Votuporanga, SP <br> GPON","cidade":"Votuporanga"}]
