[{"latitude":"-23.52082","color":"yellow","cidade":"Mogi das Cruzes","name":"Mogi das Cruzes, SP <br> Sobreposição HFC e GPON","uf":"SP","longitude":"-46.18541","tecnologia":"Sobreposição HFC e GPON"},{"latitude":"-10.239973","color":"yellow","cidade":"Palmas","name":"Palmas, TO <br> Sobreposição HFC e GPON","uf":"TO","longitude":"-48.355751","tecnologia":"Sobreposição HFC e GPON"},{"latitude":"-9.97499","color":"yellow","cidade":"Rio Branco","name":"Rio Branco, AC <br> Sobreposição HFC e GPON","uf":"AC","longitude":"-67.824348","tecnologia":"Sobreposição HFC e GPON"},{"latitude":"-3.118662","color":"yellow","cidade":"Manaus","name":"Manaus, AM <br> Sobreposição HFC e GPON","uf":"AM","longitude":"-60.02123","tecnologia":"Sobreposição HFC e GPON"},{"latitude":"-12.8978","color":"yellow","cidade":"Lauro de Freitas","name":"Lauro de Freitas, BA <br> Sobreposição HFC e GPON","uf":"BA","longitude":"-38.321008","tecnologia":"Sobreposição HFC e GPON"},{"latitude":"-12.97178","color":"yellow","cidade":"Salvador","name":"Salvador, BA <br> Sobreposição HFC e GPON","uf":"BA","longitude":"-38.501068","tecnologia":"Sobreposição HFC e GPON"},{"latitude":"-3.716638","color":"yellow","cidade":"Fortaleza","name":"Fortaleza, CE <br> Sobreposição HFC e GPON","uf":"CE","longitude":"-38.542298","tecnologia":"Sobreposição HFC e GPON"},{"latitude":"-20.263202","color":"yellow","cidade":"Cariacica","name":"Cariacica, ES <br> Sobreposição HFC e GPON","uf":"ES","longitude":"-40.416549","tecnologia":"Sobreposição HFC e GPON"},{"latitude":"-20.121032","color":"yellow","cidade":"Serra","name":"Serra, ES <br> Sobreposição HFC e GPON","uf":"ES","longitude":"-40.307408","tecnologia":"Sobreposição HFC e GPON"},{"latitude":"-20.341705","color":"yellow","cidade":"Vila Velha","name":"Vila Velha, ES <br> Sobreposição HFC e GPON","uf":"ES","longitude":"-40.287458","tecnologia":"Sobreposição HFC e GPON"},{"latitude":"-19.910183","color":"yellow","cidade":"Belo Horizonte","name":"Belo Horizonte, MG <br> Sobreposição HFC e GPON","uf":"MG","longitude":"-43.926572","tecnologia":"Sobreposição HFC e GPON"},{"latitude":"-19.932079","color":"yellow","cidade":"Contagem","name":"Contagem, MG <br> Sobreposição HFC e GPON","uf":"MG","longitude":"-44.05392","tecnologia":"Sobreposição HFC e GPON"},{"latitude":"-20.448589","color":"yellow","cidade":"Campo Grande","name":"Campo Grande, MS <br> Sobreposição HFC e GPON","uf":"MS","longitude":"-54.629463","tecnologia":"Sobreposição HFC e GPON"},{"latitude":"-1.363914","color":"yellow","cidade":"Ananindeua","name":"Ananindeua, PA <br> Sobreposição HFC e GPON","uf":"PA","longitude":"-48.374298","tecnologia":"Sobreposição HFC e GPON"},{"latitude":"-8.010166","color":"yellow","cidade":"Olinda","name":"Olinda, PE <br> Sobreposição HFC e GPON","uf":"PE","longitude":"-34.854504","tecnologia":"Sobreposição HFC e GPON"},{"latitude":"-7.934007","color":"yellow","cidade":"Paulista","name":"Paulista, PE <br> Sobreposição HFC e GPON","uf":"PE","longitude":"-34.868407","tecnologia":"Sobreposição HFC e GPON"},{"latitude":"-8.046658","color":"yellow","cidade":"Recife","name":"Recife, PE <br> Sobreposição HFC e GPON","uf":"PE","longitude":"-34.877065","tecnologia":"Sobreposição HFC e GPON"},{"latitude":"-5.091944","color":"yellow","cidade":"Teresina","name":"Teresina, PI <br> Sobreposição HFC e GPON","uf":"PI","longitude":"-42.803364","tecnologia":"Sobreposição HFC e GPON"},{"latitude":"-25.452535","color":"yellow","cidade":"Campo Largo","name":"Campo Largo, PR <br> Sobreposição HFC e GPON","uf":"PR","longitude":"-49.529026","tecnologia":"Sobreposição HFC e GPON"},{"latitude":"-25.419547","color":"yellow","cidade":"Curitiba","name":"Curitiba, PR <br> Sobreposição HFC e GPON","uf":"PR","longitude":"-49.264622","tecnologia":"Sobreposição HFC e GPON"},{"latitude":"-23.303975","color":"yellow","cidade":"Londrina","name":"Londrina, PR <br> Sobreposição HFC e GPON","uf":"PR","longitude":"-51.1691","tecnologia":"Sobreposição HFC e GPON"},{"latitude":"-22.912897","color":"yellow","cidade":"Rio de Janeiro","name":"Rio de Janeiro, RJ <br> Sobreposição HFC e GPON","uf":"RJ","longitude":"-43.200295","tecnologia":"Sobreposição HFC e GPON"},{"latitude":"-5.793567","color":"yellow","cidade":"Natal","name":"Natal, RN <br> Sobreposição HFC e GPON","uf":"RN","longitude":"-35.198604","tecnologia":"Sobreposição HFC e GPON"},{"latitude":"-5.911156","color":"yellow","cidade":"Parnamirim","name":"Parnamirim, RN <br> Sobreposição HFC e GPON","uf":"RN","longitude":"-35.271","tecnologia":"Sobreposição HFC e GPON"},{"latitude":"-8.760772","color":"yellow","cidade":"Porto Velho","name":"Porto Velho, RO <br> Sobreposição HFC e GPON","uf":"RO","longitude":"-63.899902","tecnologia":"Sobreposição HFC e GPON"},{"latitude":"-29.947222","color":"yellow","cidade":"Cachoeirinha","name":"Cachoeirinha, RS <br> Sobreposição HFC e GPON","uf":"RS","longitude":"-51.101606","tecnologia":"Sobreposição HFC e GPON"},{"latitude":"-29.912758","color":"yellow","cidade":"Canoas","name":"Canoas, RS <br> Sobreposição HFC e GPON","uf":"RS","longitude":"-51.185681","tecnologia":"Sobreposição HFC e GPON"},{"latitude":"-29.162905","color":"yellow","cidade":"Caxias do Sul","name":"Caxias do Sul, RS <br> Sobreposição HFC e GPON","uf":"RS","longitude":"-51.179161","tecnologia":"Sobreposição HFC e GPON"},{"latitude":"-29.222689","color":"yellow","cidade":"Farroupilha","name":"Farroupilha, RS <br> Sobreposição HFC e GPON","uf":"RS","longitude":"-51.341853","tecnologia":"Sobreposição HFC e GPON"},{"latitude":"-29.687548","color":"yellow","cidade":"Novo Hamburgo","name":"Novo Hamburgo, RS <br> Sobreposição HFC e GPON","uf":"RS","longitude":"-51.132828","tecnologia":"Sobreposição HFC e GPON"},{"latitude":"-30.031771","color":"yellow","cidade":"Porto Alegre","name":"Porto Alegre, RS <br> Sobreposição HFC e GPON","uf":"RS","longitude":"-51.206533","tecnologia":"Sobreposição HFC e GPON"},{"latitude":"-32.034875","color":"yellow","cidade":"Rio Grande","name":"Rio Grande, RS <br> Sobreposição HFC e GPON","uf":"RS","longitude":"-52.10705","tecnologia":"Sobreposição HFC e GPON"},{"latitude":"-26.304497","color":"yellow","cidade":"Joinville","name":"Joinville, SC <br> Sobreposição HFC e GPON","uf":"SC","longitude":"-48.848675","tecnologia":"Sobreposição HFC e GPON"},{"latitude":"-22.73736","color":"yellow","cidade":"Americana","name":"Americana, SP <br> Sobreposição HFC e GPON","uf":"SP","longitude":"-47.333119","tecnologia":"Sobreposição HFC e GPON"},{"latitude":"-21.784511","color":"yellow","cidade":"Araraquara","name":"Araraquara, SP <br> Sobreposição HFC e GPON","uf":"SP","longitude":"-48.178014","tecnologia":"Sobreposição HFC e GPON"},{"latitude":"-22.357238","color":"yellow","cidade":"Araras","name":"Araras, SP <br> Sobreposição HFC e GPON","uf":"SP","longitude":"-47.384235","tecnologia":"Sobreposição HFC e GPON"},{"latitude":"-23.117059","color":"yellow","cidade":"Atibaia","name":"Atibaia, SP <br> Sobreposição HFC e GPON","uf":"SP","longitude":"-46.556262","tecnologia":"Sobreposição HFC e GPON"},{"latitude":"-22.905346","color":"yellow","cidade":"Campinas","name":"Campinas, SP <br> Sobreposição HFC e GPON","uf":"SP","longitude":"-47.06595","tecnologia":"Sobreposição HFC e GPON"},{"latitude":"-23.681347","color":"yellow","cidade":"Diadema","name":"Diadema, SP <br> Sobreposição HFC e GPON","uf":"SP","longitude":"-46.62052","tecnologia":"Sobreposição HFC e GPON"},{"latitude":"-23.042822","color":"yellow","cidade":"Elias Fausto","name":"Elias Fausto, SP <br> Sobreposição HFC e GPON","uf":"SP","longitude":"-47.368153","tecnologia":"Sobreposição HFC e GPON"},{"latitude":"-20.53523","color":"yellow","cidade":"Franca","name":"Franca, SP <br> Sobreposição HFC e GPON","uf":"SP","longitude":"-47.403861","tecnologia":"Sobreposição HFC e GPON"},{"latitude":"-23.453758","color":"yellow","cidade":"Guarulhos","name":"Guarulhos, SP <br> Sobreposição HFC e GPON","uf":"SP","longitude":"-46.533347","tecnologia":"Sobreposição HFC e GPON"},{"latitude":"-23.081591","color":"yellow","cidade":"Indaiatuba","name":"Indaiatuba, SP <br> Sobreposição HFC e GPON","uf":"SP","longitude":"-47.210093","tecnologia":"Sobreposição HFC e GPON"},{"latitude":"-23.254397","color":"yellow","cidade":"Itu","name":"Itu, SP <br> Sobreposição HFC e GPON","uf":"SP","longitude":"-47.292688","tecnologia":"Sobreposição HFC e GPON"},{"latitude":"-23.53239","color":"yellow","cidade":"Osasco","name":"Osasco, SP <br> Sobreposição HFC e GPON","uf":"SP","longitude":"-46.791555","tecnologia":"Sobreposição HFC e GPON"},{"latitude":"-22.733801","color":"yellow","cidade":"Piracicaba","name":"Piracicaba, SP <br> Sobreposição HFC e GPON","uf":"SP","longitude":"-47.647612","tecnologia":"Sobreposição HFC e GPON"},{"latitude":"-24.008378","color":"yellow","cidade":"Praia Grande","name":"Praia Grande, SP <br> Sobreposição HFC e GPON","uf":"SP","longitude":"-46.412057","tecnologia":"Sobreposição HFC e GPON"},{"latitude":"-22.398378","color":"yellow","cidade":"Rio Claro","name":"Rio Claro, SP <br> Sobreposição HFC e GPON","uf":"SP","longitude":"-47.554632","tecnologia":"Sobreposição HFC e GPON"},{"latitude":"-23.953543","color":"yellow","cidade":"Santos","name":"Santos, SP <br> Sobreposição HFC e GPON","uf":"SP","longitude":"-46.335042","tecnologia":"Sobreposição HFC e GPON"},{"latitude":"-23.496886","color":"yellow","cidade":"Sorocaba","name":"Sorocaba, SP <br> Sobreposição HFC e GPON","uf":"SP","longitude":"-47.445073","tecnologia":"Sobreposição HFC e GPON"},{"latitude":"-22.969805","color":"yellow","cidade":"Valinhos","name":"Valinhos, SP <br> Sobreposição HFC e GPON","uf":"SP","longitude":"-46.997367","tecnologia":"Sobreposição HFC e GPON"}]
