[{"longitude":"-66.897166","name":"Acrelândia, AC <br> Sem serviço fixo","uf":"AC","latitude":"-9.825808","tecnologia":"Sem serviço fixo","cidade":"Acrelândia","color":"black"},{"longitude":"-69.573794","name":"Assis Brasil, AC <br> Sem serviço fixo","uf":"AC","latitude":"-10.929765","tecnologia":"Sem serviço fixo","cidade":"Assis Brasil","color":"black"},{"longitude":"-68.749696","name":"Brasiléia, AC <br> Sem serviço fixo","uf":"AC","latitude":"-10.994994","tecnologia":"Sem serviço fixo","cidade":"Brasiléia","color":"black"},{"longitude":"-67.955029","name":"Bujari, AC <br> Sem serviço fixo","uf":"AC","latitude":"-9.815277","tecnologia":"Sem serviço fixo","cidade":"Bujari","color":"black"},{"longitude":"-67.686006","name":"Capixaba, AC <br> Sem serviço fixo","uf":"AC","latitude":"-10.566031","tecnologia":"Sem serviço fixo","cidade":"Capixaba","color":"black"},{"longitude":"-72.675582","name":"Cruzeiro do Sul, AC <br> Sem serviço fixo","uf":"AC","latitude":"-7.627625","tecnologia":"Sem serviço fixo","cidade":"Cruzeiro do Sul","color":"black"},{"longitude":"-68.734109","name":"Epitaciolândia, AC <br> Sem serviço fixo","uf":"AC","latitude":"-11.018771","tecnologia":"Sem serviço fixo","cidade":"Epitaciolândia","color":"black"},{"longitude":"-70.350973","name":"Feijó, AC <br> Sem serviço fixo","uf":"AC","latitude":"-8.170536","tecnologia":"Sem serviço fixo","cidade":"Feijó","color":"black"},{"longitude":"-71.897391","name":"Jordão, AC <br> Sem serviço fixo","uf":"AC","latitude":"-9.430912","tecnologia":"Sem serviço fixo","cidade":"Jordão","color":"black"},{"longitude":"-72.899708","name":"Mâncio Lima, AC <br> Sem serviço fixo","uf":"AC","latitude":"-7.616575","tecnologia":"Sem serviço fixo","cidade":"Mâncio Lima","color":"black"},{"longitude":"-69.267862","name":"Manoel Urbano, AC <br> Sem serviço fixo","uf":"AC","latitude":"-8.832911","tecnologia":"Sem serviço fixo","cidade":"Manoel Urbano","color":"black"},{"longitude":"-72.799704","name":"Marechal Thaumaturgo, AC <br> Sem serviço fixo","uf":"AC","latitude":"-8.938983","tecnologia":"Sem serviço fixo","cidade":"Marechal Thaumaturgo","color":"black"},{"longitude":"-67.137133","name":"Plácido de Castro, AC <br> Sem serviço fixo","uf":"AC","latitude":"-10.28064","tecnologia":"Sem serviço fixo","cidade":"Plácido de Castro","color":"black"},{"longitude":"-67.547815","name":"Porto Acre, AC <br> Sem serviço fixo","uf":"AC","latitude":"-9.581378","tecnologia":"Sem serviço fixo","cidade":"Porto Acre","color":"black"},{"longitude":"-72.753747","name":"Porto Walter, AC <br> Sem serviço fixo","uf":"AC","latitude":"-8.263233","tecnologia":"Sem serviço fixo","cidade":"Porto Walter","color":"black"},{"longitude":"-72.661015","name":"Rodrigues Alves, AC <br> Sem serviço fixo","uf":"AC","latitude":"-7.738638","tecnologia":"Sem serviço fixo","cidade":"Rodrigues Alves","color":"black"},{"longitude":"-70.49025","name":"Santa Rosa do Purus, AC <br> Sem serviço fixo","uf":"AC","latitude":"-9.446515","tecnologia":"Sem serviço fixo","cidade":"Santa Rosa do Purus","color":"black"},{"longitude":"-68.671278","name":"Sena Madureira, AC <br> Sem serviço fixo","uf":"AC","latitude":"-9.063499","tecnologia":"Sem serviço fixo","cidade":"Sena Madureira","color":"black"},{"longitude":"-67.736185","name":"Senador Guiomard, AC <br> Sem serviço fixo","uf":"AC","latitude":"-10.149686","tecnologia":"Sem serviço fixo","cidade":"Senador Guiomard","color":"black"},{"longitude":"-70.772154","name":"Tarauacá, AC <br> Sem serviço fixo","uf":"AC","latitude":"-8.156975","tecnologia":"Sem serviço fixo","cidade":"Tarauacá","color":"black"},{"longitude":"-68.496857","name":"Xapuri, AC <br> Sem serviço fixo","uf":"AC","latitude":"-10.651598","tecnologia":"Sem serviço fixo","cidade":"Xapuri","color":"black"},{"longitude":"-37.937988","name":"Água Branca, AL <br> Sem serviço fixo","uf":"AL","latitude":"-9.261996","tecnologia":"Sem serviço fixo","cidade":"Água Branca","color":"black"},{"longitude":"-36.307783","name":"Anadia, AL <br> Sem serviço fixo","uf":"AL","latitude":"-9.684886","tecnologia":"Sem serviço fixo","cidade":"Anadia","color":"black"},{"longitude":"-36.008552","name":"Atalaia, AL <br> Sem serviço fixo","uf":"AL","latitude":"-9.511898","tecnologia":"Sem serviço fixo","cidade":"Atalaia","color":"black"},{"longitude":"-35.510083","name":"Barra de Santo Antônio, AL <br> Sem serviço fixo","uf":"AL","latitude":"-9.402297","tecnologia":"Sem serviço fixo","cidade":"Barra de Santo Antônio","color":"black"},{"longitude":"-35.905667","name":"Barra de São Miguel, AL <br> Sem serviço fixo","uf":"AL","latitude":"-9.83842","tecnologia":"Sem serviço fixo","cidade":"Barra de São Miguel","color":"black"},{"longitude":"-37.133014","name":"Batalha, AL <br> Sem serviço fixo","uf":"AL","latitude":"-9.674195","tecnologia":"Sem serviço fixo","cidade":"Batalha","color":"black"},{"longitude":"-36.490399","name":"Belém, AL <br> Sem serviço fixo","uf":"AL","latitude":"-9.570472","tecnologia":"Sem serviço fixo","cidade":"Belém","color":"black"},{"longitude":"-37.277014","name":"Belo Monte, AL <br> Sem serviço fixo","uf":"AL","latitude":"-9.822718","tecnologia":"Sem serviço fixo","cidade":"Belo Monte","color":"black"},{"longitude":"-36.212498","name":"Boca da Mata, AL <br> Sem serviço fixo","uf":"AL","latitude":"-9.643082","tecnologia":"Sem serviço fixo","cidade":"Boca da Mata","color":"black"},{"longitude":"-36.016152","name":"Branquinha, AL <br> Sem serviço fixo","uf":"AL","latitude":"-9.23342","tecnologia":"Sem serviço fixo","cidade":"Branquinha","color":"black"},{"longitude":"-36.991082","name":"Cacimbinhas, AL <br> Sem serviço fixo","uf":"AL","latitude":"-9.401212","tecnologia":"Sem serviço fixo","cidade":"Cacimbinhas","color":"black"},{"longitude":"-36.155937","name":"Cajueiro, AL <br> Sem serviço fixo","uf":"AL","latitude":"-9.399402","tecnologia":"Sem serviço fixo","cidade":"Cajueiro","color":"black"},{"longitude":"-35.56847","name":"Campestre, AL <br> Sem serviço fixo","uf":"AL","latitude":"-8.847228","tecnologia":"Sem serviço fixo","cidade":"Campestre","color":"black"},{"longitude":"-36.352461","name":"Campo Alegre, AL <br> Sem serviço fixo","uf":"AL","latitude":"-9.784512","tecnologia":"Sem serviço fixo","cidade":"Campo Alegre","color":"black"},{"longitude":"-37.5967","name":"Canapi, AL <br> Sem serviço fixo","uf":"AL","latitude":"-9.119319","tecnologia":"Sem serviço fixo","cidade":"Canapi","color":"black"},{"longitude":"-36.082583","name":"Capela, AL <br> Sem serviço fixo","uf":"AL","latitude":"-9.415041","tecnologia":"Sem serviço fixo","cidade":"Capela","color":"black"},{"longitude":"-37.377303","name":"Carneiros, AL <br> Sem serviço fixo","uf":"AL","latitude":"-9.484762","tecnologia":"Sem serviço fixo","cidade":"Carneiros","color":"black"},{"longitude":"-36.298334","name":"Chã Preta, AL <br> Sem serviço fixo","uf":"AL","latitude":"-9.255605","tecnologia":"Sem serviço fixo","cidade":"Chã Preta","color":"black"},{"longitude":"-36.584493","name":"Coité do Nóia, AL <br> Sem serviço fixo","uf":"AL","latitude":"-9.633484","tecnologia":"Sem serviço fixo","cidade":"Coité do Nóia","color":"black"},{"longitude":"-35.721414","name":"Colônia Leopoldina, AL <br> Sem serviço fixo","uf":"AL","latitude":"-8.918058","tecnologia":"Sem serviço fixo","cidade":"Colônia Leopoldina","color":"black"},{"longitude":"-35.799377","name":"Coqueiro Seco, AL <br> Sem serviço fixo","uf":"AL","latitude":"-9.637147","tecnologia":"Sem serviço fixo","cidade":"Coqueiro Seco","color":"black"},{"longitude":"-36.171724","name":"Coruripe, AL <br> Sem serviço fixo","uf":"AL","latitude":"-10.127632","tecnologia":"Sem serviço fixo","cidade":"Coruripe","color":"black"},{"longitude":"-36.769726","name":"Craíbas, AL <br> Sem serviço fixo","uf":"AL","latitude":"-9.617798","tecnologia":"Sem serviço fixo","cidade":"Craíbas","color":"black"},{"longitude":"-37.998676","name":"Delmiro Gouveia, AL <br> Sem serviço fixo","uf":"AL","latitude":"-9.385336","tecnologia":"Sem serviço fixo","cidade":"Delmiro Gouveia","color":"black"},{"longitude":"-37.096502","name":"Dois Riachos, AL <br> Sem serviço fixo","uf":"AL","latitude":"-9.384645","tecnologia":"Sem serviço fixo","cidade":"Dois Riachos","color":"black"},{"longitude":"-36.764407","name":"Estrela de Alagoas, AL <br> Sem serviço fixo","uf":"AL","latitude":"-9.390894","tecnologia":"Sem serviço fixo","cidade":"Estrela de Alagoas","color":"black"},{"longitude":"-36.681521","name":"Feira Grande, AL <br> Sem serviço fixo","uf":"AL","latitude":"-9.898586","tecnologia":"Sem serviço fixo","cidade":"Feira Grande","color":"black"},{"longitude":"-36.302788","name":"Feliz Deserto, AL <br> Sem serviço fixo","uf":"AL","latitude":"-10.293491","tecnologia":"Sem serviço fixo","cidade":"Feliz Deserto","color":"black"},{"longitude":"-35.713933","name":"Flexeiras, AL <br> Sem serviço fixo","uf":"AL","latitude":"-9.272807","tecnologia":"Sem serviço fixo","cidade":"Flexeiras","color":"black"},{"longitude":"-36.831592","name":"Girau do Ponciano, AL <br> Sem serviço fixo","uf":"AL","latitude":"-9.884041","tecnologia":"Sem serviço fixo","cidade":"Girau do Ponciano","color":"black"},{"longitude":"-35.937325","name":"Ibateguara, AL <br> Sem serviço fixo","uf":"AL","latitude":"-8.978232","tecnologia":"Sem serviço fixo","cidade":"Ibateguara","color":"black"},{"longitude":"-36.637191","name":"Igaci, AL <br> Sem serviço fixo","uf":"AL","latitude":"-9.537678","tecnologia":"Sem serviço fixo","cidade":"Igaci","color":"black"},{"longitude":"-36.659705","name":"Igreja Nova, AL <br> Sem serviço fixo","uf":"AL","latitude":"-10.123463","tecnologia":"Sem serviço fixo","cidade":"Igreja Nova","color":"black"},{"longitude":"-37.750871","name":"Inhapi, AL <br> Sem serviço fixo","uf":"AL","latitude":"-9.225936","tecnologia":"Sem serviço fixo","cidade":"Inhapi","color":"black"},{"longitude":"-37.207636","name":"Jacaré Dos Homens, AL <br> Sem serviço fixo","uf":"AL","latitude":"-9.635446","tecnologia":"Sem serviço fixo","cidade":"Jacaré Dos Homens","color":"black"},{"longitude":"-35.459074","name":"Jacuípe, AL <br> Sem serviço fixo","uf":"AL","latitude":"-8.83951","tecnologia":"Sem serviço fixo","cidade":"Jacuípe","color":"black"},{"longitude":"-35.263403","name":"Japaratinga, AL <br> Sem serviço fixo","uf":"AL","latitude":"-9.087464","tecnologia":"Sem serviço fixo","cidade":"Japaratinga","color":"black"},{"longitude":"-37.004558","name":"Jaramataia, AL <br> Sem serviço fixo","uf":"AL","latitude":"-9.662243","tecnologia":"Sem serviço fixo","cidade":"Jaramataia","color":"black"},{"longitude":"-35.747381","name":"Joaquim Gomes, AL <br> Sem serviço fixo","uf":"AL","latitude":"-9.132805","tecnologia":"Sem serviço fixo","cidade":"Joaquim Gomes","color":"black"},{"longitude":"-35.566925","name":"Jundiá, AL <br> Sem serviço fixo","uf":"AL","latitude":"-8.932968","tecnologia":"Sem serviço fixo","cidade":"Jundiá","color":"black"},{"longitude":"-36.480346","name":"Junqueiro, AL <br> Sem serviço fixo","uf":"AL","latitude":"-9.906961","tecnologia":"Sem serviço fixo","cidade":"Junqueiro","color":"black"},{"longitude":"-36.741257","name":"Lagoa da Canoa, AL <br> Sem serviço fixo","uf":"AL","latitude":"-9.832909","tecnologia":"Sem serviço fixo","cidade":"Lagoa da Canoa","color":"black"},{"longitude":"-36.512097","name":"Limoeiro de Anadia, AL <br> Sem serviço fixo","uf":"AL","latitude":"-9.740983","tecnologia":"Sem serviço fixo","cidade":"Limoeiro de Anadia","color":"black"},{"longitude":"-35.73496","name":"Maceió, AL <br> Sem serviço fixo","uf":"AL","latitude":"-9.665985","tecnologia":"Sem serviço fixo","cidade":"Maceió","color":"black"},{"longitude":"-36.992006","name":"Major Isidoro, AL <br> Sem serviço fixo","uf":"AL","latitude":"-9.530086","tecnologia":"Sem serviço fixo","cidade":"Major Isidoro","color":"black"},{"longitude":"-36.388076","name":"Mar Vermelho, AL <br> Sem serviço fixo","uf":"AL","latitude":"-9.447393","tecnologia":"Sem serviço fixo","cidade":"Mar Vermelho","color":"black"},{"longitude":"-35.226692","name":"Maragogi, AL <br> Sem serviço fixo","uf":"AL","latitude":"-9.007443","tecnologia":"Sem serviço fixo","cidade":"Maragogi","color":"black"},{"longitude":"-37.352419","name":"Maravilha, AL <br> Sem serviço fixo","uf":"AL","latitude":"-9.230449","tecnologia":"Sem serviço fixo","cidade":"Maravilha","color":"black"},{"longitude":"-35.896731","name":"Marechal Deodoro, AL <br> Sem serviço fixo","uf":"AL","latitude":"-9.709715","tecnologia":"Sem serviço fixo","cidade":"Marechal Deodoro","color":"black"},{"longitude":"-36.304488","name":"Maribondo, AL <br> Sem serviço fixo","uf":"AL","latitude":"-9.583528","tecnologia":"Sem serviço fixo","cidade":"Maribondo","color":"black"},{"longitude":"-37.732298","name":"Mata Grande, AL <br> Sem serviço fixo","uf":"AL","latitude":"-9.118243","tecnologia":"Sem serviço fixo","cidade":"Mata Grande","color":"black"},{"longitude":"-35.524302","name":"Matriz de Camaragibe, AL <br> Sem serviço fixo","uf":"AL","latitude":"-9.154373","tecnologia":"Sem serviço fixo","cidade":"Matriz de Camaragibe","color":"black"},{"longitude":"-35.839182","name":"Messias, AL <br> Sem serviço fixo","uf":"AL","latitude":"-9.393843","tecnologia":"Sem serviço fixo","cidade":"Messias","color":"black"},{"longitude":"-36.869553","name":"Minador do Negrão, AL <br> Sem serviço fixo","uf":"AL","latitude":"-9.312358","tecnologia":"Sem serviço fixo","cidade":"Minador do Negrão","color":"black"},{"longitude":"-37.250463","name":"Monteirópolis, AL <br> Sem serviço fixo","uf":"AL","latitude":"-9.603569","tecnologia":"Sem serviço fixo","cidade":"Monteirópolis","color":"black"},{"longitude":"-35.942798","name":"Murici, AL <br> Sem serviço fixo","uf":"AL","latitude":"-9.306823","tecnologia":"Sem serviço fixo","cidade":"Murici","color":"black"},{"longitude":"-35.664001","name":"Novo Lino, AL <br> Sem serviço fixo","uf":"AL","latitude":"-8.941905","tecnologia":"Sem serviço fixo","cidade":"Novo Lino","color":"black"},{"longitude":"-37.195441","name":"Olivença, AL <br> Sem serviço fixo","uf":"AL","latitude":"-9.519538","tecnologia":"Sem serviço fixo","cidade":"Olivença","color":"black"},{"longitude":"-37.355639","name":"Ouro Branco, AL <br> Sem serviço fixo","uf":"AL","latitude":"-9.158842","tecnologia":"Sem serviço fixo","cidade":"Ouro Branco","color":"black"},{"longitude":"-37.339037","name":"Palestina, AL <br> Sem serviço fixo","uf":"AL","latitude":"-9.674928","tecnologia":"Sem serviço fixo","cidade":"Palestina","color":"black"},{"longitude":"-36.632812","name":"Palmeira Dos Índios, AL <br> Sem serviço fixo","uf":"AL","latitude":"-9.405681","tecnologia":"Sem serviço fixo","cidade":"Palmeira Dos Índios","color":"black"},{"longitude":"-37.440336","name":"Pão de Açúcar, AL <br> Sem serviço fixo","uf":"AL","latitude":"-9.740325","tecnologia":"Sem serviço fixo","cidade":"Pão de Açúcar","color":"black"},{"longitude":"-37.998751","name":"Pariconha, AL <br> Sem serviço fixo","uf":"AL","latitude":"-9.256342","tecnologia":"Sem serviço fixo","cidade":"Pariconha","color":"black"},{"longitude":"-35.551977","name":"Paripueira, AL <br> Sem serviço fixo","uf":"AL","latitude":"-9.463133","tecnologia":"Sem serviço fixo","cidade":"Paripueira","color":"black"},{"longitude":"-35.47449","name":"Passo de Camaragibe, AL <br> Sem serviço fixo","uf":"AL","latitude":"-9.24511","tecnologia":"Sem serviço fixo","cidade":"Passo de Camaragibe","color":"black"},{"longitude":"-36.367241","name":"Paulo Jacinto, AL <br> Sem serviço fixo","uf":"AL","latitude":"-9.367918","tecnologia":"Sem serviço fixo","cidade":"Paulo Jacinto","color":"black"},{"longitude":"-36.581905","name":"Penedo, AL <br> Sem serviço fixo","uf":"AL","latitude":"-10.287422","tecnologia":"Sem serviço fixo","cidade":"Penedo","color":"black"},{"longitude":"-36.433968","name":"Piaçabuçu, AL <br> Sem serviço fixo","uf":"AL","latitude":"-10.405989","tecnologia":"Sem serviço fixo","cidade":"Piaçabuçu","color":"black"},{"longitude":"-35.954294","name":"Pilar, AL <br> Sem serviço fixo","uf":"AL","latitude":"-9.601348","tecnologia":"Sem serviço fixo","cidade":"Pilar","color":"black"},{"longitude":"-36.291829","name":"Pindoba, AL <br> Sem serviço fixo","uf":"AL","latitude":"-9.473822","tecnologia":"Sem serviço fixo","cidade":"Pindoba","color":"black"},{"longitude":"-37.756987","name":"Piranhas, AL <br> Sem serviço fixo","uf":"AL","latitude":"-9.623996","tecnologia":"Sem serviço fixo","cidade":"Piranhas","color":"black"},{"longitude":"-37.288932","name":"Poço Das Trincheiras, AL <br> Sem serviço fixo","uf":"AL","latitude":"-9.307417","tecnologia":"Sem serviço fixo","cidade":"Poço Das Trincheiras","color":"black"},{"longitude":"-35.398653","name":"Porto Calvo, AL <br> Sem serviço fixo","uf":"AL","latitude":"-9.051948","tecnologia":"Sem serviço fixo","cidade":"Porto Calvo","color":"black"},{"longitude":"-35.304914","name":"Porto de Pedras, AL <br> Sem serviço fixo","uf":"AL","latitude":"-9.160065","tecnologia":"Sem serviço fixo","cidade":"Porto de Pedras","color":"black"},{"longitude":"-36.837551","name":"Porto Real do Colégio, AL <br> Sem serviço fixo","uf":"AL","latitude":"-10.18489","tecnologia":"Sem serviço fixo","cidade":"Porto Real do Colégio","color":"black"},{"longitude":"-36.469239","name":"Quebrangulo, AL <br> Sem serviço fixo","uf":"AL","latitude":"-9.32001","tecnologia":"Sem serviço fixo","cidade":"Quebrangulo","color":"black"},{"longitude":"-35.839435","name":"Rio Largo, AL <br> Sem serviço fixo","uf":"AL","latitude":"-9.477829","tecnologia":"Sem serviço fixo","cidade":"Rio Largo","color":"black"},{"longitude":"-35.978247","name":"Roteiro, AL <br> Sem serviço fixo","uf":"AL","latitude":"-9.835029","tecnologia":"Sem serviço fixo","cidade":"Roteiro","color":"black"},{"longitude":"-35.823196","name":"Santa Luzia do Norte, AL <br> Sem serviço fixo","uf":"AL","latitude":"-9.6037","tecnologia":"Sem serviço fixo","cidade":"Santa Luzia do Norte","color":"black"},{"longitude":"-37.248018","name":"Santana do Ipanema, AL <br> Sem serviço fixo","uf":"AL","latitude":"-9.369989","tecnologia":"Sem serviço fixo","cidade":"Santana do Ipanema","color":"black"},{"longitude":"-36.217608","name":"Santana do Mundaú, AL <br> Sem serviço fixo","uf":"AL","latitude":"-9.171413","tecnologia":"Sem serviço fixo","cidade":"Santana do Mundaú","color":"black"},{"longitude":"-36.896529","name":"São Brás, AL <br> Sem serviço fixo","uf":"AL","latitude":"-10.120734","tecnologia":"Sem serviço fixo","cidade":"São Brás","color":"black"},{"longitude":"-36.051489","name":"São José da Laje, AL <br> Sem serviço fixo","uf":"AL","latitude":"-9.012779","tecnologia":"Sem serviço fixo","cidade":"São José da Laje","color":"black"},{"longitude":"-37.383125","name":"São José da Tapera, AL <br> Sem serviço fixo","uf":"AL","latitude":"-9.557684","tecnologia":"Sem serviço fixo","cidade":"São José da Tapera","color":"black"},{"longitude":"-35.560553","name":"São Luís do Quitunde, AL <br> Sem serviço fixo","uf":"AL","latitude":"-9.31816","tecnologia":"Sem serviço fixo","cidade":"São Luís do Quitunde","color":"black"},{"longitude":"-36.097142","name":"São Miguel Dos Campos, AL <br> Sem serviço fixo","uf":"AL","latitude":"-9.78301","tecnologia":"Sem serviço fixo","cidade":"São Miguel Dos Campos","color":"black"},{"longitude":"-35.376253","name":"São Miguel Dos Milagres, AL <br> Sem serviço fixo","uf":"AL","latitude":"-9.264925","tecnologia":"Sem serviço fixo","cidade":"São Miguel Dos Milagres","color":"black"},{"longitude":"-36.558967","name":"São Sebastião, AL <br> Sem serviço fixo","uf":"AL","latitude":"-9.930434","tecnologia":"Sem serviço fixo","cidade":"São Sebastião","color":"black"},{"longitude":"-35.822697","name":"Satuba, AL <br> Sem serviço fixo","uf":"AL","latitude":"-9.569113","tecnologia":"Sem serviço fixo","cidade":"Satuba","color":"black"},{"longitude":"-37.457606","name":"Senador Rui Palmeira, AL <br> Sem serviço fixo","uf":"AL","latitude":"-9.469865","tecnologia":"Sem serviço fixo","cidade":"Senador Rui Palmeira","color":"black"},{"longitude":"-36.492844","name":"Taquarana, AL <br> Sem serviço fixo","uf":"AL","latitude":"-9.64529","tecnologia":"Sem serviço fixo","cidade":"Taquarana","color":"black"},{"longitude":"-36.349212","name":"Teotônio Vilela, AL <br> Sem serviço fixo","uf":"AL","latitude":"-9.916562","tecnologia":"Sem serviço fixo","cidade":"Teotônio Vilela","color":"black"},{"longitude":"-37.007119","name":"Traipu, AL <br> Sem serviço fixo","uf":"AL","latitude":"-9.962625","tecnologia":"Sem serviço fixo","cidade":"Traipu","color":"black"},{"longitude":"-36.02227","name":"União Dos Palmares, AL <br> Sem serviço fixo","uf":"AL","latitude":"-9.15921","tecnologia":"Sem serviço fixo","cidade":"União Dos Palmares","color":"black"},{"longitude":"-36.243107","name":"Viçosa, AL <br> Sem serviço fixo","uf":"AL","latitude":"-9.367631","tecnologia":"Sem serviço fixo","cidade":"Viçosa","color":"black"},{"longitude":"-64.800654","name":"Alvarães, AM <br> Sem serviço fixo","uf":"AM","latitude":"-3.22727","tecnologia":"Sem serviço fixo","cidade":"Alvarães","color":"black"},{"longitude":"-68.200456","name":"Amaturá, AM <br> Sem serviço fixo","uf":"AM","latitude":"-3.374547","tecnologia":"Sem serviço fixo","cidade":"Amaturá","color":"black"},{"longitude":"-61.396337","name":"Anamã, AM <br> Sem serviço fixo","uf":"AM","latitude":"-3.566966","tecnologia":"Sem serviço fixo","cidade":"Anamã","color":"black"},{"longitude":"-61.657485","name":"Anori, AM <br> Sem serviço fixo","uf":"AM","latitude":"-3.746027","tecnologia":"Sem serviço fixo","cidade":"Anori","color":"black"},{"longitude":"-59.895956","name":"Apuí, AM <br> Sem serviço fixo","uf":"AM","latitude":"-7.194091","tecnologia":"Sem serviço fixo","cidade":"Apuí","color":"black"},{"longitude":"-70.1967","name":"Atalaia do Norte, AM <br> Sem serviço fixo","uf":"AM","latitude":"-4.370551","tecnologia":"Sem serviço fixo","cidade":"Atalaia do Norte","color":"black"},{"longitude":"-59.125589","name":"Autazes, AM <br> Sem serviço fixo","uf":"AM","latitude":"-3.585743","tecnologia":"Sem serviço fixo","cidade":"Autazes","color":"black"},{"longitude":"-62.931053","name":"Barcelos, AM <br> Sem serviço fixo","uf":"AM","latitude":"-0.983373","tecnologia":"Sem serviço fixo","cidade":"Barcelos","color":"black"},{"longitude":"-57.067897","name":"Barreirinha, AM <br> Sem serviço fixo","uf":"AM","latitude":"-2.798863","tecnologia":"Sem serviço fixo","cidade":"Barreirinha","color":"black"},{"longitude":"-70.034157","name":"Benjamin Constant, AM <br> Sem serviço fixo","uf":"AM","latitude":"-4.37768","tecnologia":"Sem serviço fixo","cidade":"Benjamin Constant","color":"black"},{"longitude":"-61.36162","name":"Beruri, AM <br> Sem serviço fixo","uf":"AM","latitude":"-3.898736","tecnologia":"Sem serviço fixo","cidade":"Beruri","color":"black"},{"longitude":"-57.587333","name":"Boa Vista do Ramos, AM <br> Sem serviço fixo","uf":"AM","latitude":"-2.974087","tecnologia":"Sem serviço fixo","cidade":"Boa Vista do Ramos","color":"black"},{"longitude":"-67.391926","name":"Boca do Acre, AM <br> Sem serviço fixo","uf":"AM","latitude":"-8.742322","tecnologia":"Sem serviço fixo","cidade":"Boca do Acre","color":"black"},{"longitude":"-59.58738","name":"Borba, AM <br> Sem serviço fixo","uf":"AM","latitude":"-4.391539","tecnologia":"Sem serviço fixo","cidade":"Borba","color":"black"},{"longitude":"-61.220557","name":"Caapiranga, AM <br> Sem serviço fixo","uf":"AM","latitude":"-3.315372","tecnologia":"Sem serviço fixo","cidade":"Caapiranga","color":"black"},{"longitude":"-64.39528","name":"Canutama, AM <br> Sem serviço fixo","uf":"AM","latitude":"-6.52582","tecnologia":"Sem serviço fixo","cidade":"Canutama","color":"black"},{"longitude":"-66.908559","name":"Carauari, AM <br> Sem serviço fixo","uf":"AM","latitude":"-4.881605","tecnologia":"Sem serviço fixo","cidade":"Carauari","color":"black"},{"longitude":"-59.79639","name":"Careiro da Várzea, AM <br> Sem serviço fixo","uf":"AM","latitude":"-3.196979","tecnologia":"Sem serviço fixo","cidade":"Careiro da Várzea","color":"black"},{"longitude":"-60.369046","name":"Careiro, AM <br> Sem serviço fixo","uf":"AM","latitude":"-3.768027","tecnologia":"Sem serviço fixo","cidade":"Careiro","color":"black"},{"longitude":"-63.144091","name":"Coari, AM <br> Sem serviço fixo","uf":"AM","latitude":"-4.094121","tecnologia":"Sem serviço fixo","cidade":"Coari","color":"black"},{"longitude":"-62.065787","name":"Codajás, AM <br> Sem serviço fixo","uf":"AM","latitude":"-3.830528","tecnologia":"Sem serviço fixo","cidade":"Codajás","color":"black"},{"longitude":"-69.86616","name":"Eirunepé, AM <br> Sem serviço fixo","uf":"AM","latitude":"-6.656767","tecnologia":"Sem serviço fixo","cidade":"Eirunepé","color":"black"},{"longitude":"-70.028143","name":"Envira, AM <br> Sem serviço fixo","uf":"AM","latitude":"-7.437889","tecnologia":"Sem serviço fixo","cidade":"Envira","color":"black"},{"longitude":"-66.094212","name":"Fonte Boa, AM <br> Sem serviço fixo","uf":"AM","latitude":"-2.523424","tecnologia":"Sem serviço fixo","cidade":"Fonte Boa","color":"black"},{"longitude":"-72.590713","name":"Guajará, AM <br> Sem serviço fixo","uf":"AM","latitude":"-7.537971","tecnologia":"Sem serviço fixo","cidade":"Guajará","color":"black"},{"longitude":"-63.032743","name":"Humaitá, AM <br> Sem serviço fixo","uf":"AM","latitude":"-7.511712","tecnologia":"Sem serviço fixo","cidade":"Humaitá","color":"black"},{"longitude":"-71.693426","name":"Ipixuna, AM <br> Sem serviço fixo","uf":"AM","latitude":"-7.047909","tecnologia":"Sem serviço fixo","cidade":"Ipixuna","color":"black"},{"longitude":"-60.189953","name":"Iranduba, AM <br> Sem serviço fixo","uf":"AM","latitude":"-3.274792","tecnologia":"Sem serviço fixo","cidade":"Iranduba","color":"black"},{"longitude":"-58.444874","name":"Itacoatiara, AM <br> Sem serviço fixo","uf":"AM","latitude":"-3.138607","tecnologia":"Sem serviço fixo","cidade":"Itacoatiara","color":"black"},{"longitude":"-68.260027","name":"Itamarati, AM <br> Sem serviço fixo","uf":"AM","latitude":"-6.424591","tecnologia":"Sem serviço fixo","cidade":"Itamarati","color":"black"},{"longitude":"-58.029257","name":"Itapiranga, AM <br> Sem serviço fixo","uf":"AM","latitude":"-2.74081","tecnologia":"Sem serviço fixo","cidade":"Itapiranga","color":"black"},{"longitude":"-66.929051","name":"Japurá, AM <br> Sem serviço fixo","uf":"AM","latitude":"-1.882366","tecnologia":"Sem serviço fixo","cidade":"Japurá","color":"black"},{"longitude":"-66.071795","name":"Juruá, AM <br> Sem serviço fixo","uf":"AM","latitude":"-3.484384","tecnologia":"Sem serviço fixo","cidade":"Juruá","color":"black"},{"longitude":"-66.75947","name":"Jutaí, AM <br> Sem serviço fixo","uf":"AM","latitude":"-2.758144","tecnologia":"Sem serviço fixo","cidade":"Jutaí","color":"black"},{"longitude":"-64.794765","name":"Lábrea, AM <br> Sem serviço fixo","uf":"AM","latitude":"-7.264133","tecnologia":"Sem serviço fixo","cidade":"Lábrea","color":"black"},{"longitude":"-60.621581","name":"Manacapuru, AM <br> Sem serviço fixo","uf":"AM","latitude":"-3.290657","tecnologia":"Sem serviço fixo","cidade":"Manacapuru","color":"black"},{"longitude":"-60.461239","name":"Manaquiri, AM <br> Sem serviço fixo","uf":"AM","latitude":"-3.440784","tecnologia":"Sem serviço fixo","cidade":"Manaquiri","color":"black"},{"longitude":"-61.289483","name":"Manicoré, AM <br> Sem serviço fixo","uf":"AM","latitude":"-5.804618","tecnologia":"Sem serviço fixo","cidade":"Manicoré","color":"black"},{"longitude":"-65.572995","name":"Maraã, AM <br> Sem serviço fixo","uf":"AM","latitude":"-1.853129","tecnologia":"Sem serviço fixo","cidade":"Maraã","color":"black"},{"longitude":"-57.706731","name":"Maués, AM <br> Sem serviço fixo","uf":"AM","latitude":"-3.392891","tecnologia":"Sem serviço fixo","cidade":"Maués","color":"black"},{"longitude":"-56.711151","name":"Nhamundá, AM <br> Sem serviço fixo","uf":"AM","latitude":"-2.207932","tecnologia":"Sem serviço fixo","cidade":"Nhamundá","color":"black"},{"longitude":"-59.09404","name":"Nova Olinda do Norte, AM <br> Sem serviço fixo","uf":"AM","latitude":"-3.900367","tecnologia":"Sem serviço fixo","cidade":"Nova Olinda do Norte","color":"black"},{"longitude":"-60.943404","name":"Novo Airão, AM <br> Sem serviço fixo","uf":"AM","latitude":"-2.636371","tecnologia":"Sem serviço fixo","cidade":"Novo Airão","color":"black"},{"longitude":"-60.373179","name":"Novo Aripuanã, AM <br> Sem serviço fixo","uf":"AM","latitude":"-5.125929","tecnologia":"Sem serviço fixo","cidade":"Novo Aripuanã","color":"black"},{"longitude":"-56.729045","name":"Parintins, AM <br> Sem serviço fixo","uf":"AM","latitude":"-2.637412","tecnologia":"Sem serviço fixo","cidade":"Parintins","color":"black"},{"longitude":"-66.992039","name":"Pauini, AM <br> Sem serviço fixo","uf":"AM","latitude":"-7.713109","tecnologia":"Sem serviço fixo","cidade":"Pauini","color":"black"},{"longitude":"-60.02338","name":"Presidente Figueiredo, AM <br> Sem serviço fixo","uf":"AM","latitude":"-2.029813","tecnologia":"Sem serviço fixo","cidade":"Presidente Figueiredo","color":"black"},{"longitude":"-59.685793","name":"Rio Preto da Eva, AM <br> Sem serviço fixo","uf":"AM","latitude":"-2.704497","tecnologia":"Sem serviço fixo","cidade":"Rio Preto da Eva","color":"black"},{"longitude":"-65.009205","name":"Santa Isabel do Rio Negro, AM <br> Sem serviço fixo","uf":"AM","latitude":"-0.410824","tecnologia":"Sem serviço fixo","cidade":"Santa Isabel do Rio Negro","color":"black"},{"longitude":"-67.946279","name":"Santo Antônio do Içá, AM <br> Sem serviço fixo","uf":"AM","latitude":"-3.095443","tecnologia":"Sem serviço fixo","cidade":"Santo Antônio do Içá","color":"black"},{"longitude":"-67.084042","name":"São Gabriel da Cachoeira, AM <br> Sem serviço fixo","uf":"AM","latitude":"-0.11909","tecnologia":"Sem serviço fixo","cidade":"São Gabriel da Cachoeira","color":"black"},{"longitude":"-68.964581","name":"São Paulo de Olivença, AM <br> Sem serviço fixo","uf":"AM","latitude":"-3.472919","tecnologia":"Sem serviço fixo","cidade":"São Paulo de Olivença","color":"black"},{"longitude":"-57.873049","name":"São Sebastião do Uatumã, AM <br> Sem serviço fixo","uf":"AM","latitude":"-2.559147","tecnologia":"Sem serviço fixo","cidade":"São Sebastião do Uatumã","color":"black"},{"longitude":"-58.248031","name":"Silves, AM <br> Sem serviço fixo","uf":"AM","latitude":"-2.81748","tecnologia":"Sem serviço fixo","cidade":"Silves","color":"black"},{"longitude":"-69.938273","name":"Tabatinga, AM <br> Sem serviço fixo","uf":"AM","latitude":"-4.241597","tecnologia":"Sem serviço fixo","cidade":"Tabatinga","color":"black"},{"longitude":"-63.1808","name":"Tapauá, AM <br> Sem serviço fixo","uf":"AM","latitude":"-5.620855","tecnologia":"Sem serviço fixo","cidade":"Tapauá","color":"black"},{"longitude":"-64.719343","name":"Tefé, AM <br> Sem serviço fixo","uf":"AM","latitude":"-3.368219","tecnologia":"Sem serviço fixo","cidade":"Tefé","color":"black"},{"longitude":"-67.791904","name":"Tonantins, AM <br> Sem serviço fixo","uf":"AM","latitude":"-2.865825","tecnologia":"Sem serviço fixo","cidade":"Tonantins","color":"black"},{"longitude":"-65.113298","name":"Uarini, AM <br> Sem serviço fixo","uf":"AM","latitude":"-2.996087","tecnologia":"Sem serviço fixo","cidade":"Uarini","color":"black"},{"longitude":"-57.753797","name":"Urucará, AM <br> Sem serviço fixo","uf":"AM","latitude":"-2.529364","tecnologia":"Sem serviço fixo","cidade":"Urucará","color":"black"},{"longitude":"-58.149637","name":"Urucurituba, AM <br> Sem serviço fixo","uf":"AM","latitude":"-3.128412","tecnologia":"Sem serviço fixo","cidade":"Urucurituba","color":"black"},{"longitude":"-50.795653","name":"Amapá, AP <br> Sem serviço fixo","uf":"AP","latitude":"2.052669","tecnologia":"Sem serviço fixo","cidade":"Amapá","color":"black"},{"longitude":"-50.951233","name":"Calçoene, AP <br> Sem serviço fixo","uf":"AP","latitude":"2.504747","tecnologia":"Sem serviço fixo","cidade":"Calçoene","color":"black"},{"longitude":"-50.799169","name":"Cutias, AP <br> Sem serviço fixo","uf":"AP","latitude":"0.987565","tecnologia":"Sem serviço fixo","cidade":"Cutias","color":"black"},{"longitude":"-51.179523","name":"Ferreira Gomes, AP <br> Sem serviço fixo","uf":"AP","latitude":"0.857256","tecnologia":"Sem serviço fixo","cidade":"Ferreira Gomes","color":"black"},{"longitude":"-50.670828","name":"Itaubal, AP <br> Sem serviço fixo","uf":"AP","latitude":"0.596137","tecnologia":"Sem serviço fixo","cidade":"Itaubal","color":"black"},{"longitude":"-52.452962","name":"Laranjal do Jari, AP <br> Sem serviço fixo","uf":"AP","latitude":"-0.804911","tecnologia":"Sem serviço fixo","cidade":"Laranjal do Jari","color":"black"},{"longitude":"-51.069395","name":"Macapá, AP <br> Sem serviço fixo","uf":"AP","latitude":"0.034934","tecnologia":"Sem serviço fixo","cidade":"Macapá","color":"black"},{"longitude":"-51.28913","name":"Mazagão, AP <br> Sem serviço fixo","uf":"AP","latitude":"-0.11336","tecnologia":"Sem serviço fixo","cidade":"Mazagão","color":"black"},{"longitude":"-51.833123","name":"Oiapoque, AP <br> Sem serviço fixo","uf":"AP","latitude":"3.84074","tecnologia":"Sem serviço fixo","cidade":"Oiapoque","color":"black"},{"longitude":"-51.415499","name":"Porto Grande, AP <br> Sem serviço fixo","uf":"AP","latitude":"0.71243","tecnologia":"Sem serviço fixo","cidade":"Porto Grande","color":"black"},{"longitude":"-50.789248","name":"Pracuúba, AP <br> Sem serviço fixo","uf":"AP","latitude":"1.745427","tecnologia":"Sem serviço fixo","cidade":"Pracuúba","color":"black"},{"longitude":"-52.003636","name":"Serra do Navio, AP <br> Sem serviço fixo","uf":"AP","latitude":"0.901357","tecnologia":"Sem serviço fixo","cidade":"Serra do Navio","color":"black"},{"longitude":"-50.90874","name":"Tartarugalzinho, AP <br> Sem serviço fixo","uf":"AP","latitude":"1.506519","tecnologia":"Sem serviço fixo","cidade":"Tartarugalzinho","color":"black"},{"longitude":"-52.424001","name":"Vitória do Jari, AP <br> Sem serviço fixo","uf":"AP","latitude":"-0.938","tecnologia":"Sem serviço fixo","cidade":"Vitória do Jari","color":"black"},{"longitude":"-41.661869","name":"Abaíra, BA <br> Sem serviço fixo","uf":"BA","latitude":"-13.24883","tecnologia":"Sem serviço fixo","cidade":"Abaíra","color":"black"},{"longitude":"-39.116178","name":"Abaré, BA <br> Sem serviço fixo","uf":"BA","latitude":"-8.720734","tecnologia":"Sem serviço fixo","cidade":"Abaré","color":"black"},{"longitude":"-38.019737","name":"Acajutiba, BA <br> Sem serviço fixo","uf":"BA","latitude":"-11.657522","tecnologia":"Sem serviço fixo","cidade":"Acajutiba","color":"black"},{"longitude":"-38.111265","name":"Adustina, BA <br> Sem serviço fixo","uf":"BA","latitude":"-10.54369","tecnologia":"Sem serviço fixo","cidade":"Adustina","color":"black"},{"longitude":"-38.763863","name":"Água Fria, BA <br> Sem serviço fixo","uf":"BA","latitude":"-11.861836","tecnologia":"Sem serviço fixo","cidade":"Água Fria","color":"black"},{"longitude":"-39.893653","name":"Aiquara, BA <br> Sem serviço fixo","uf":"BA","latitude":"-14.126918","tecnologia":"Sem serviço fixo","cidade":"Aiquara","color":"black"},{"longitude":"-39.203609","name":"Alcobaça, BA <br> Sem serviço fixo","uf":"BA","latitude":"-17.519468","tecnologia":"Sem serviço fixo","cidade":"Alcobaça","color":"black"},{"longitude":"-39.641491","name":"Almadina, BA <br> Sem serviço fixo","uf":"BA","latitude":"-14.708869","tecnologia":"Sem serviço fixo","cidade":"Almadina","color":"black"},{"longitude":"-39.601966","name":"Amargosa, BA <br> Sem serviço fixo","uf":"BA","latitude":"-13.021462","tecnologia":"Sem serviço fixo","cidade":"Amargosa","color":"black"},{"longitude":"-38.756289","name":"Amélia Rodrigues, BA <br> Sem serviço fixo","uf":"BA","latitude":"-12.391429","tecnologia":"Sem serviço fixo","cidade":"Amélia Rodrigues","color":"black"},{"longitude":"-41.439007","name":"América Dourada, BA <br> Sem serviço fixo","uf":"BA","latitude":"-11.442938","tecnologia":"Sem serviço fixo","cidade":"América Dourada","color":"black"},{"longitude":"-41.135569","name":"Anagé, BA <br> Sem serviço fixo","uf":"BA","latitude":"-14.61512","tecnologia":"Sem serviço fixo","cidade":"Anagé","color":"black"},{"longitude":"-41.329658","name":"Andaraí, BA <br> Sem serviço fixo","uf":"BA","latitude":"-12.804916","tecnologia":"Sem serviço fixo","cidade":"Andaraí","color":"black"},{"longitude":"-39.839142","name":"Andorinha, BA <br> Sem serviço fixo","uf":"BA","latitude":"-10.348214","tecnologia":"Sem serviço fixo","cidade":"Andorinha","color":"black"},{"longitude":"-44.700272","name":"Angical, BA <br> Sem serviço fixo","uf":"BA","latitude":"-12.006313","tecnologia":"Sem serviço fixo","cidade":"Angical","color":"black"},{"longitude":"-39.246186","name":"Anguera, BA <br> Sem serviço fixo","uf":"BA","latitude":"-12.146157","tecnologia":"Sem serviço fixo","cidade":"Anguera","color":"black"},{"longitude":"-38.340118","name":"Antas, BA <br> Sem serviço fixo","uf":"BA","latitude":"-10.385621","tecnologia":"Sem serviço fixo","cidade":"Antas","color":"black"},{"longitude":"-39.117555","name":"Antônio Cardoso, BA <br> Sem serviço fixo","uf":"BA","latitude":"-12.433493","tecnologia":"Sem serviço fixo","cidade":"Antônio Cardoso","color":"black"},{"longitude":"-40.278489","name":"Antônio Gonçalves, BA <br> Sem serviço fixo","uf":"BA","latitude":"-10.576686","tecnologia":"Sem serviço fixo","cidade":"Antônio Gonçalves","color":"black"},{"longitude":"-38.081418","name":"Aporá, BA <br> Sem serviço fixo","uf":"BA","latitude":"-11.657708","tecnologia":"Sem serviço fixo","cidade":"Aporá","color":"black"},{"longitude":"-39.750148","name":"Apuarema, BA <br> Sem serviço fixo","uf":"BA","latitude":"-13.854241","tecnologia":"Sem serviço fixo","cidade":"Apuarema","color":"black"},{"longitude":"-38.202658","name":"Araças, BA <br> Sem serviço fixo","uf":"BA","latitude":"-12.220038","tecnologia":"Sem serviço fixo","cidade":"Araças","color":"black"},{"longitude":"-41.464783","name":"Aracatu, BA <br> Sem serviço fixo","uf":"BA","latitude":"-14.427986","tecnologia":"Sem serviço fixo","cidade":"Aracatu","color":"black"},{"longitude":"-38.958385","name":"Araci, BA <br> Sem serviço fixo","uf":"BA","latitude":"-11.325316","tecnologia":"Sem serviço fixo","cidade":"Araci","color":"black"},{"longitude":"-38.496937","name":"Aramari, BA <br> Sem serviço fixo","uf":"BA","latitude":"-12.088399","tecnologia":"Sem serviço fixo","cidade":"Aramari","color":"black"},{"longitude":"-39.419017","name":"Arataca, BA <br> Sem serviço fixo","uf":"BA","latitude":"-15.265099","tecnologia":"Sem serviço fixo","cidade":"Arataca","color":"black"},{"longitude":"-39.003763","name":"Aratuípe, BA <br> Sem serviço fixo","uf":"BA","latitude":"-13.071595","tecnologia":"Sem serviço fixo","cidade":"Aratuípe","color":"black"},{"longitude":"-39.329035","name":"Aurelino Leal, BA <br> Sem serviço fixo","uf":"BA","latitude":"-14.320954","tecnologia":"Sem serviço fixo","cidade":"Aurelino Leal","color":"black"},{"longitude":"-44.538829","name":"Baianópolis, BA <br> Sem serviço fixo","uf":"BA","latitude":"-12.301641","tecnologia":"Sem serviço fixo","cidade":"Baianópolis","color":"black"},{"longitude":"-40.16897","name":"Baixa Grande, BA <br> Sem serviço fixo","uf":"BA","latitude":"-11.951884","tecnologia":"Sem serviço fixo","cidade":"Baixa Grande","color":"black"},{"longitude":"-38.621243","name":"Banzaê, BA <br> Sem serviço fixo","uf":"BA","latitude":"-10.578784","tecnologia":"Sem serviço fixo","cidade":"Banzaê","color":"black"},{"longitude":"-41.334697","name":"Barra da Estiva, BA <br> Sem serviço fixo","uf":"BA","latitude":"-13.623699","tecnologia":"Sem serviço fixo","cidade":"Barra da Estiva","color":"black"},{"longitude":"-40.579058","name":"Barra do Choça, BA <br> Sem serviço fixo","uf":"BA","latitude":"-14.865423","tecnologia":"Sem serviço fixo","cidade":"Barra do Choça","color":"black"},{"longitude":"-42.058999","name":"Barra do Mendes, BA <br> Sem serviço fixo","uf":"BA","latitude":"-11.81","tecnologia":"Sem serviço fixo","cidade":"Barra do Mendes","color":"black"},{"longitude":"-39.599098","name":"Barra do Rocha, BA <br> Sem serviço fixo","uf":"BA","latitude":"-14.199994","tecnologia":"Sem serviço fixo","cidade":"Barra do Rocha","color":"black"},{"longitude":"-43.145913","name":"Barra, BA <br> Sem serviço fixo","uf":"BA","latitude":"-11.0859","tecnologia":"Sem serviço fixo","cidade":"Barra","color":"black"},{"longitude":"-41.905441","name":"Barro Alto, BA <br> Sem serviço fixo","uf":"BA","latitude":"-11.760493","tecnologia":"Sem serviço fixo","cidade":"Barro Alto","color":"black"},{"longitude":"-39.077594","name":"Barrocas, BA <br> Sem serviço fixo","uf":"BA","latitude":"-11.527222","tecnologia":"Sem serviço fixo","cidade":"Barrocas","color":"black"},{"longitude":"-38.87578","name":"Belmonte, BA <br> Sem serviço fixo","uf":"BA","latitude":"-15.860789","tecnologia":"Sem serviço fixo","cidade":"Belmonte","color":"black"},{"longitude":"-41.265172","name":"Belo Campo, BA <br> Sem serviço fixo","uf":"BA","latitude":"-15.033362","tecnologia":"Sem serviço fixo","cidade":"Belo Campo","color":"black"},{"longitude":"-38.805055","name":"Biritinga, BA <br> Sem serviço fixo","uf":"BA","latitude":"-11.607156","tecnologia":"Sem serviço fixo","cidade":"Biritinga","color":"black"},{"longitude":"-40.206444","name":"Boa Nova, BA <br> Sem serviço fixo","uf":"BA","latitude":"-14.359754","tecnologia":"Sem serviço fixo","cidade":"Boa Nova","color":"black"},{"longitude":"-40.606376","name":"Boa Vista do Tupim, BA <br> Sem serviço fixo","uf":"BA","latitude":"-12.649774","tecnologia":"Sem serviço fixo","cidade":"Boa Vista do Tupim","color":"black"},{"longitude":"-43.410754","name":"Bom Jesus da Lapa, BA <br> Sem serviço fixo","uf":"BA","latitude":"-13.250571","tecnologia":"Sem serviço fixo","cidade":"Bom Jesus da Lapa","color":"black"},{"longitude":"-40.512556","name":"Bom Jesus da Serra, BA <br> Sem serviço fixo","uf":"BA","latitude":"-14.366312","tecnologia":"Sem serviço fixo","cidade":"Bom Jesus da Serra","color":"black"},{"longitude":"-41.828604","name":"Boninal, BA <br> Sem serviço fixo","uf":"BA","latitude":"-12.706887","tecnologia":"Sem serviço fixo","cidade":"Boninal","color":"black"},{"longitude":"-41.264698","name":"Bonito, BA <br> Sem serviço fixo","uf":"BA","latitude":"-11.966768","tecnologia":"Sem serviço fixo","cidade":"Bonito","color":"black"},{"longitude":"-42.732354","name":"Boquira, BA <br> Sem serviço fixo","uf":"BA","latitude":"-12.820536","tecnologia":"Sem serviço fixo","cidade":"Boquira","color":"black"},{"longitude":"-42.516301","name":"Botuporã, BA <br> Sem serviço fixo","uf":"BA","latitude":"-13.377235","tecnologia":"Sem serviço fixo","cidade":"Botuporã","color":"black"},{"longitude":"-39.798797","name":"Brejões, BA <br> Sem serviço fixo","uf":"BA","latitude":"-13.103948","tecnologia":"Sem serviço fixo","cidade":"Brejões","color":"black"},{"longitude":"-43.967855","name":"Brejolândia, BA <br> Sem serviço fixo","uf":"BA","latitude":"-12.481547","tecnologia":"Sem serviço fixo","cidade":"Brejolândia","color":"black"},{"longitude":"-42.632609","name":"Brotas de Macaúbas, BA <br> Sem serviço fixo","uf":"BA","latitude":"-11.991452","tecnologia":"Sem serviço fixo","cidade":"Brotas de Macaúbas","color":"black"},{"longitude":"-41.669592","name":"Brumado, BA <br> Sem serviço fixo","uf":"BA","latitude":"-14.202127","tecnologia":"Sem serviço fixo","cidade":"Brumado","color":"black"},{"longitude":"-39.302849","name":"Buerarema, BA <br> Sem serviço fixo","uf":"BA","latitude":"-14.959497","tecnologia":"Sem serviço fixo","cidade":"Buerarema","color":"black"},{"longitude":"-43.630231","name":"Buritirama, BA <br> Sem serviço fixo","uf":"BA","latitude":"-10.717055","tecnologia":"Sem serviço fixo","cidade":"Buritirama","color":"black"},{"longitude":"-40.409156","name":"Caatiba, BA <br> Sem serviço fixo","uf":"BA","latitude":"-14.969854","tecnologia":"Sem serviço fixo","cidade":"Caatiba","color":"black"},{"longitude":"-39.190231","name":"Cabaceiras do Paraguaçu, BA <br> Sem serviço fixo","uf":"BA","latitude":"-12.531694","tecnologia":"Sem serviço fixo","cidade":"Cabaceiras do Paraguaçu","color":"black"},{"longitude":"-38.958695","name":"Cachoeira, BA <br> Sem serviço fixo","uf":"BA","latitude":"-12.599443","tecnologia":"Sem serviço fixo","cidade":"Cachoeira","color":"black"},{"longitude":"-42.222872","name":"Caculé, BA <br> Sem serviço fixo","uf":"BA","latitude":"-14.500281","tecnologia":"Sem serviço fixo","cidade":"Caculé","color":"black"},{"longitude":"-40.432039","name":"Caém, BA <br> Sem serviço fixo","uf":"BA","latitude":"-11.067693","tecnologia":"Sem serviço fixo","cidade":"Caém","color":"black"},{"longitude":"-40.917506","name":"Caetanos, BA <br> Sem serviço fixo","uf":"BA","latitude":"-14.334745","tecnologia":"Sem serviço fixo","cidade":"Caetanos","color":"black"},{"longitude":"-42.486133","name":"Caetité, BA <br> Sem serviço fixo","uf":"BA","latitude":"-14.068422","tecnologia":"Sem serviço fixo","cidade":"Caetité","color":"black"},{"longitude":"-41.468823","name":"Cafarnaum, BA <br> Sem serviço fixo","uf":"BA","latitude":"-11.691399","tecnologia":"Sem serviço fixo","cidade":"Cafarnaum","color":"black"},{"longitude":"-39.046525","name":"Cairu, BA <br> Sem serviço fixo","uf":"BA","latitude":"-13.490377","tecnologia":"Sem serviço fixo","cidade":"Cairu","color":"black"},{"longitude":"-40.295577","name":"Caldeirão Grande, BA <br> Sem serviço fixo","uf":"BA","latitude":"-11.020798","tecnologia":"Sem serviço fixo","cidade":"Caldeirão Grande","color":"black"},{"longitude":"-39.491937","name":"Camacan, BA <br> Sem serviço fixo","uf":"BA","latitude":"-15.414157","tecnologia":"Sem serviço fixo","cidade":"Camacan","color":"black"},{"longitude":"-38.326265","name":"Camaçari, BA <br> Sem serviço fixo","uf":"BA","latitude":"-12.699638","tecnologia":"Sem serviço fixo","cidade":"Camaçari","color":"black"},{"longitude":"-39.107082","name":"Camamu, BA <br> Sem serviço fixo","uf":"BA","latitude":"-13.939773","tecnologia":"Sem serviço fixo","cidade":"Camamu","color":"black"},{"longitude":"-43.01258","name":"Campo Alegre de Lourdes, BA <br> Sem serviço fixo","uf":"BA","latitude":"-9.522212","tecnologia":"Sem serviço fixo","cidade":"Campo Alegre de Lourdes","color":"black"},{"longitude":"-40.320031","name":"Campo Formoso, BA <br> Sem serviço fixo","uf":"BA","latitude":"-10.51055","tecnologia":"Sem serviço fixo","cidade":"Campo Formoso","color":"black"},{"longitude":"-44.200949","name":"Canápolis, BA <br> Sem serviço fixo","uf":"BA","latitude":"-13.072454","tecnologia":"Sem serviço fixo","cidade":"Canápolis","color":"black"},{"longitude":"-41.767705","name":"Canarana, BA <br> Sem serviço fixo","uf":"BA","latitude":"-11.685831","tecnologia":"Sem serviço fixo","cidade":"Canarana","color":"black"},{"longitude":"-38.953648","name":"Canavieiras, BA <br> Sem serviço fixo","uf":"BA","latitude":"-15.672205","tecnologia":"Sem serviço fixo","cidade":"Canavieiras","color":"black"},{"longitude":"-39.120277","name":"Candeal, BA <br> Sem serviço fixo","uf":"BA","latitude":"-11.804851","tecnologia":"Sem serviço fixo","cidade":"Candeal","color":"black"},{"longitude":"-38.547152","name":"Candeias, BA <br> Sem serviço fixo","uf":"BA","latitude":"-12.671566","tecnologia":"Sem serviço fixo","cidade":"Candeias","color":"black"},{"longitude":"-42.866694","name":"Candiba, BA <br> Sem serviço fixo","uf":"BA","latitude":"-14.409738","tecnologia":"Sem serviço fixo","cidade":"Candiba","color":"black"},{"longitude":"-41.241438","name":"Cândido Sales, BA <br> Sem serviço fixo","uf":"BA","latitude":"-15.499309","tecnologia":"Sem serviço fixo","cidade":"Cândido Sales","color":"black"},{"longitude":"-39.494388","name":"Cansanção, BA <br> Sem serviço fixo","uf":"BA","latitude":"-10.664713","tecnologia":"Sem serviço fixo","cidade":"Cansanção","color":"black"},{"longitude":"-39.147059","name":"Canudos, BA <br> Sem serviço fixo","uf":"BA","latitude":"-9.900135","tecnologia":"Sem serviço fixo","cidade":"Canudos","color":"black"},{"longitude":"-39.834912","name":"Capela do Alto Alegre, BA <br> Sem serviço fixo","uf":"BA","latitude":"-11.665797","tecnologia":"Sem serviço fixo","cidade":"Capela do Alto Alegre","color":"black"},{"longitude":"-40.008951","name":"Capim Grosso, BA <br> Sem serviço fixo","uf":"BA","latitude":"-11.379659","tecnologia":"Sem serviço fixo","cidade":"Capim Grosso","color":"black"},{"longitude":"-41.260336","name":"Caraíbas, BA <br> Sem serviço fixo","uf":"BA","latitude":"-14.717677","tecnologia":"Sem serviço fixo","cidade":"Caraíbas","color":"black"},{"longitude":"-39.259679","name":"Caravelas, BA <br> Sem serviço fixo","uf":"BA","latitude":"-17.726839","tecnologia":"Sem serviço fixo","cidade":"Caravelas","color":"black"},{"longitude":"-37.946905","name":"Cardeal da Silva, BA <br> Sem serviço fixo","uf":"BA","latitude":"-11.947191","tecnologia":"Sem serviço fixo","cidade":"Cardeal da Silva","color":"black"},{"longitude":"-43.772349","name":"Carinhanha, BA <br> Sem serviço fixo","uf":"BA","latitude":"-14.298524","tecnologia":"Sem serviço fixo","cidade":"Carinhanha","color":"black"},{"longitude":"-40.973977","name":"Casa Nova, BA <br> Sem serviço fixo","uf":"BA","latitude":"-9.164083","tecnologia":"Sem serviço fixo","cidade":"Casa Nova","color":"black"},{"longitude":"-39.424753","name":"Castro Alves, BA <br> Sem serviço fixo","uf":"BA","latitude":"-12.75795","tecnologia":"Sem serviço fixo","cidade":"Castro Alves","color":"black"},{"longitude":"-44.864808","name":"Catolândia, BA <br> Sem serviço fixo","uf":"BA","latitude":"-12.310013","tecnologia":"Sem serviço fixo","cidade":"Catolândia","color":"black"},{"longitude":"-38.379108","name":"Catu, BA <br> Sem serviço fixo","uf":"BA","latitude":"-12.351274","tecnologia":"Sem serviço fixo","cidade":"Catu","color":"black"},{"longitude":"-42.290385","name":"Caturama, BA <br> Sem serviço fixo","uf":"BA","latitude":"-13.323938","tecnologia":"Sem serviço fixo","cidade":"Caturama","color":"black"},{"longitude":"-42.111625","name":"Central, BA <br> Sem serviço fixo","uf":"BA","latitude":"-11.137576","tecnologia":"Sem serviço fixo","cidade":"Central","color":"black"},{"longitude":"-39.097942","name":"Chorrochó, BA <br> Sem serviço fixo","uf":"BA","latitude":"-8.969498","tecnologia":"Sem serviço fixo","cidade":"Chorrochó","color":"black"},{"longitude":"-38.379377","name":"Cícero Dantas, BA <br> Sem serviço fixo","uf":"BA","latitude":"-10.589664","tecnologia":"Sem serviço fixo","cidade":"Cícero Dantas","color":"black"},{"longitude":"-38.517942","name":"Cipó, BA <br> Sem serviço fixo","uf":"BA","latitude":"-11.103172","tecnologia":"Sem serviço fixo","cidade":"Cipó","color":"black"},{"longitude":"-39.555609","name":"Coaraci, BA <br> Sem serviço fixo","uf":"BA","latitude":"-14.636996","tecnologia":"Sem serviço fixo","cidade":"Coaraci","color":"black"},{"longitude":"-44.53522","name":"Cocos, BA <br> Sem serviço fixo","uf":"BA","latitude":"-14.18136","tecnologia":"Sem serviço fixo","cidade":"Cocos","color":"black"},{"longitude":"-38.997823","name":"Conceição da Feira, BA <br> Sem serviço fixo","uf":"BA","latitude":"-12.507835","tecnologia":"Sem serviço fixo","cidade":"Conceição da Feira","color":"black"},{"longitude":"-39.171466","name":"Conceição do Almeida, BA <br> Sem serviço fixo","uf":"BA","latitude":"-12.783579","tecnologia":"Sem serviço fixo","cidade":"Conceição do Almeida","color":"black"},{"longitude":"-39.280827","name":"Conceição do Coité, BA <br> Sem serviço fixo","uf":"BA","latitude":"-11.559953","tecnologia":"Sem serviço fixo","cidade":"Conceição do Coité","color":"black"},{"longitude":"-38.768433","name":"Conceição do Jacuípe, BA <br> Sem serviço fixo","uf":"BA","latitude":"-12.326831","tecnologia":"Sem serviço fixo","cidade":"Conceição do Jacuípe","color":"black"},{"longitude":"-37.613094","name":"Conde, BA <br> Sem serviço fixo","uf":"BA","latitude":"-11.817937","tecnologia":"Sem serviço fixo","cidade":"Conde","color":"black"},{"longitude":"-41.971829","name":"Condeúba, BA <br> Sem serviço fixo","uf":"BA","latitude":"-14.902227","tecnologia":"Sem serviço fixo","cidade":"Condeúba","color":"black"},{"longitude":"-41.047953","name":"Contendas do Sincorá, BA <br> Sem serviço fixo","uf":"BA","latitude":"-13.75369","tecnologia":"Sem serviço fixo","cidade":"Contendas do Sincorá","color":"black"},{"longitude":"-38.748654","name":"Coração de Maria, BA <br> Sem serviço fixo","uf":"BA","latitude":"-12.233332","tecnologia":"Sem serviço fixo","cidade":"Coração de Maria","color":"black"},{"longitude":"-41.930796","name":"Cordeiros, BA <br> Sem serviço fixo","uf":"BA","latitude":"-15.035641","tecnologia":"Sem serviço fixo","cidade":"Cordeiros","color":"black"},{"longitude":"-44.458593","name":"Coribe, BA <br> Sem serviço fixo","uf":"BA","latitude":"-13.823216","tecnologia":"Sem serviço fixo","cidade":"Coribe","color":"black"},{"longitude":"-37.919825","name":"Coronel João sá, BA <br> Sem serviço fixo","uf":"BA","latitude":"-10.2847","tecnologia":"Sem serviço fixo","cidade":"Coronel João sá","color":"black"},{"longitude":"-44.633335","name":"Correntina, BA <br> Sem serviço fixo","uf":"BA","latitude":"-13.347674","tecnologia":"Sem serviço fixo","cidade":"Correntina","color":"black"},{"longitude":"-44.256559","name":"Cotegipe, BA <br> Sem serviço fixo","uf":"BA","latitude":"-12.022761","tecnologia":"Sem serviço fixo","cidade":"Cotegipe","color":"black"},{"longitude":"-39.803083","name":"Cravolândia, BA <br> Sem serviço fixo","uf":"BA","latitude":"-13.353063","tecnologia":"Sem serviço fixo","cidade":"Cravolândia","color":"black"},{"longitude":"-38.15148","name":"Crisópolis, BA <br> Sem serviço fixo","uf":"BA","latitude":"-11.505929","tecnologia":"Sem serviço fixo","cidade":"Crisópolis","color":"black"},{"longitude":"-44.421358","name":"Cristópolis, BA <br> Sem serviço fixo","uf":"BA","latitude":"-12.224899","tecnologia":"Sem serviço fixo","cidade":"Cristópolis","color":"black"},{"longitude":"-39.100787","name":"Cruz Das Almas, BA <br> Sem serviço fixo","uf":"BA","latitude":"-12.667516","tecnologia":"Sem serviço fixo","cidade":"Cruz Das Almas","color":"black"},{"longitude":"-39.899671","name":"Curaçá, BA <br> Sem serviço fixo","uf":"BA","latitude":"-8.984577","tecnologia":"Sem serviço fixo","cidade":"Curaçá","color":"black"},{"longitude":"-39.903129","name":"Dário Meira, BA <br> Sem serviço fixo","uf":"BA","latitude":"-14.4229","tecnologia":"Sem serviço fixo","cidade":"Dário Meira","color":"black"},{"longitude":"-41.767663","name":"Dom Basílio, BA <br> Sem serviço fixo","uf":"BA","latitude":"-13.756499","tecnologia":"Sem serviço fixo","cidade":"Dom Basílio","color":"black"},{"longitude":"-39.192259","name":"Dom Macedo Costa, BA <br> Sem serviço fixo","uf":"BA","latitude":"-12.901582","tecnologia":"Sem serviço fixo","cidade":"Dom Macedo Costa","color":"black"},{"longitude":"-39.519087","name":"Elísio Medrado, BA <br> Sem serviço fixo","uf":"BA","latitude":"-12.941743","tecnologia":"Sem serviço fixo","cidade":"Elísio Medrado","color":"black"},{"longitude":"-40.912432","name":"Encruzilhada, BA <br> Sem serviço fixo","uf":"BA","latitude":"-15.530168","tecnologia":"Sem serviço fixo","cidade":"Encruzilhada","color":"black"},{"longitude":"-38.087125","name":"Entre Rios, BA <br> Sem serviço fixo","uf":"BA","latitude":"-11.939164","tecnologia":"Sem serviço fixo","cidade":"Entre Rios","color":"black"},{"longitude":"-42.1352","name":"Érico Cardoso, BA <br> Sem serviço fixo","uf":"BA","latitude":"-13.421467","tecnologia":"Sem serviço fixo","cidade":"Érico Cardoso","color":"black"},{"longitude":"-37.943216","name":"Esplanada, BA <br> Sem serviço fixo","uf":"BA","latitude":"-11.794215","tecnologia":"Sem serviço fixo","cidade":"Esplanada","color":"black"},{"longitude":"-39.015286","name":"Euclides da Cunha, BA <br> Sem serviço fixo","uf":"BA","latitude":"-10.507754","tecnologia":"Sem serviço fixo","cidade":"Euclides da Cunha","color":"black"},{"longitude":"-39.582122","name":"Eunápolis, BA <br> Sem serviço fixo","uf":"BA","latitude":"-16.371498","tecnologia":"Sem serviço fixo","cidade":"Eunápolis","color":"black"},{"longitude":"-38.223891","name":"Fátima, BA <br> Sem serviço fixo","uf":"BA","latitude":"-10.616013","tecnologia":"Sem serviço fixo","cidade":"Fátima","color":"black"},{"longitude":"-44.274424","name":"Feira da Mata, BA <br> Sem serviço fixo","uf":"BA","latitude":"-14.204405","tecnologia":"Sem serviço fixo","cidade":"Feira da Mata","color":"black"},{"longitude":"-40.14371","name":"Filadélfia, BA <br> Sem serviço fixo","uf":"BA","latitude":"-10.740475","tecnologia":"Sem serviço fixo","cidade":"Filadélfia","color":"black"},{"longitude":"-39.926859","name":"Firmino Alves, BA <br> Sem serviço fixo","uf":"BA","latitude":"-14.982334","tecnologia":"Sem serviço fixo","cidade":"Firmino Alves","color":"black"},{"longitude":"-39.657877","name":"Floresta Azul, BA <br> Sem serviço fixo","uf":"BA","latitude":"-14.862934","tecnologia":"Sem serviço fixo","cidade":"Floresta Azul","color":"black"},{"longitude":"-45.19298","name":"Formosa do Rio Preto, BA <br> Sem serviço fixo","uf":"BA","latitude":"-11.032812","tecnologia":"Sem serviço fixo","cidade":"Formosa do Rio Preto","color":"black"},{"longitude":"-39.474651","name":"Gandu, BA <br> Sem serviço fixo","uf":"BA","latitude":"-13.744101","tecnologia":"Sem serviço fixo","cidade":"Gandu","color":"black"},{"longitude":"-39.775751","name":"Gavião, BA <br> Sem serviço fixo","uf":"BA","latitude":"-11.468796","tecnologia":"Sem serviço fixo","cidade":"Gavião","color":"black"},{"longitude":"-42.507652","name":"Gentio do Ouro, BA <br> Sem serviço fixo","uf":"BA","latitude":"-11.434233","tecnologia":"Sem serviço fixo","cidade":"Gentio do Ouro","color":"black"},{"longitude":"-38.254397","name":"Glória, BA <br> Sem serviço fixo","uf":"BA","latitude":"-9.343822","tecnologia":"Sem serviço fixo","cidade":"Glória","color":"black"},{"longitude":"-39.46899","name":"Gongogi, BA <br> Sem serviço fixo","uf":"BA","latitude":"-14.319481","tecnologia":"Sem serviço fixo","cidade":"Gongogi","color":"black"},{"longitude":"-39.041207","name":"Governador Mangabeira, BA <br> Sem serviço fixo","uf":"BA","latitude":"-12.599415","tecnologia":"Sem serviço fixo","cidade":"Governador Mangabeira","color":"black"},{"longitude":"-41.938064","name":"Guajeru, BA <br> Sem serviço fixo","uf":"BA","latitude":"-14.54668","tecnologia":"Sem serviço fixo","cidade":"Guajeru","color":"black"},{"longitude":"-42.779943","name":"Guanambi, BA <br> Sem serviço fixo","uf":"BA","latitude":"-14.223066","tecnologia":"Sem serviço fixo","cidade":"Guanambi","color":"black"},{"longitude":"-39.784713","name":"Guaratinga, BA <br> Sem serviço fixo","uf":"BA","latitude":"-16.583276","tecnologia":"Sem serviço fixo","cidade":"Guaratinga","color":"black"},{"longitude":"-38.290664","name":"Heliópolis, BA <br> Sem serviço fixo","uf":"BA","latitude":"-10.682539","tecnologia":"Sem serviço fixo","cidade":"Heliópolis","color":"black"},{"longitude":"-40.205609","name":"Iaçu, BA <br> Sem serviço fixo","uf":"BA","latitude":"-12.766637","tecnologia":"Sem serviço fixo","cidade":"Iaçu","color":"black"},{"longitude":"-42.257026","name":"Ibiassucê, BA <br> Sem serviço fixo","uf":"BA","latitude":"-14.271126","tecnologia":"Sem serviço fixo","cidade":"Ibiassucê","color":"black"},{"longitude":"-39.591434","name":"Ibicaraí, BA <br> Sem serviço fixo","uf":"BA","latitude":"-14.857877","tecnologia":"Sem serviço fixo","cidade":"Ibicaraí","color":"black"},{"longitude":"-41.283989","name":"Ibicoara, BA <br> Sem serviço fixo","uf":"BA","latitude":"-13.405918","tecnologia":"Sem serviço fixo","cidade":"Ibicoara","color":"black"},{"longitude":"-39.987915","name":"Ibicuí, BA <br> Sem serviço fixo","uf":"BA","latitude":"-14.84496","tecnologia":"Sem serviço fixo","cidade":"Ibicuí","color":"black"},{"longitude":"-42.019515","name":"Ibipeba, BA <br> Sem serviço fixo","uf":"BA","latitude":"-11.643775","tecnologia":"Sem serviço fixo","cidade":"Ibipeba","color":"black"},{"longitude":"-42.485568","name":"Ibipitanga, BA <br> Sem serviço fixo","uf":"BA","latitude":"-12.880435","tecnologia":"Sem serviço fixo","cidade":"Ibipitanga","color":"black"},{"longitude":"-40.933774","name":"Ibiquera, BA <br> Sem serviço fixo","uf":"BA","latitude":"-12.644354","tecnologia":"Sem serviço fixo","cidade":"Ibiquera","color":"black"},{"longitude":"-39.378737","name":"Ibirapitanga, BA <br> Sem serviço fixo","uf":"BA","latitude":"-14.164898","tecnologia":"Sem serviço fixo","cidade":"Ibirapitanga","color":"black"},{"longitude":"-40.112907","name":"Ibirapuã, BA <br> Sem serviço fixo","uf":"BA","latitude":"-17.683151","tecnologia":"Sem serviço fixo","cidade":"Ibirapuã","color":"black"},{"longitude":"-39.645935","name":"Ibirataia, BA <br> Sem serviço fixo","uf":"BA","latitude":"-14.064316","tecnologia":"Sem serviço fixo","cidade":"Ibirataia","color":"black"},{"longitude":"-42.217946","name":"Ibitiara, BA <br> Sem serviço fixo","uf":"BA","latitude":"-12.650181","tecnologia":"Sem serviço fixo","cidade":"Ibitiara","color":"black"},{"longitude":"-41.97481","name":"Ibititá, BA <br> Sem serviço fixo","uf":"BA","latitude":"-11.541426","tecnologia":"Sem serviço fixo","cidade":"Ibititá","color":"black"},{"longitude":"-43.21669","name":"Ibotirama, BA <br> Sem serviço fixo","uf":"BA","latitude":"-12.177876","tecnologia":"Sem serviço fixo","cidade":"Ibotirama","color":"black"},{"longitude":"-39.190523","name":"Ichu, BA <br> Sem serviço fixo","uf":"BA","latitude":"-11.743065","tecnologia":"Sem serviço fixo","cidade":"Ichu","color":"black"},{"longitude":"-42.715508","name":"Igaporã, BA <br> Sem serviço fixo","uf":"BA","latitude":"-13.774025","tecnologia":"Sem serviço fixo","cidade":"Igaporã","color":"black"},{"longitude":"-39.136129","name":"Igrapiúna, BA <br> Sem serviço fixo","uf":"BA","latitude":"-13.829543","tecnologia":"Sem serviço fixo","cidade":"Igrapiúna","color":"black"},{"longitude":"-40.089417","name":"Iguaí, BA <br> Sem serviço fixo","uf":"BA","latitude":"-14.752754","tecnologia":"Sem serviço fixo","cidade":"Iguaí","color":"black"},{"longitude":"-39.04602","name":"Ilhéus, BA <br> Sem serviço fixo","uf":"BA","latitude":"-14.793045","tecnologia":"Sem serviço fixo","cidade":"Ilhéus","color":"black"},{"longitude":"-38.355048","name":"Inhambupe, BA <br> Sem serviço fixo","uf":"BA","latitude":"-11.780955","tecnologia":"Sem serviço fixo","cidade":"Inhambupe","color":"black"},{"longitude":"-39.306921","name":"Ipecaetá, BA <br> Sem serviço fixo","uf":"BA","latitude":"-12.302846","tecnologia":"Sem serviço fixo","cidade":"Ipecaetá","color":"black"},{"longitude":"-39.735252","name":"Ipiaú, BA <br> Sem serviço fixo","uf":"BA","latitude":"-14.12263","tecnologia":"Sem serviço fixo","cidade":"Ipiaú","color":"black"},{"longitude":"-39.735941","name":"Ipirá, BA <br> Sem serviço fixo","uf":"BA","latitude":"-12.156057","tecnologia":"Sem serviço fixo","cidade":"Ipirá","color":"black"},{"longitude":"-42.617913","name":"Ipupiara, BA <br> Sem serviço fixo","uf":"BA","latitude":"-11.821881","tecnologia":"Sem serviço fixo","cidade":"Ipupiara","color":"black"},{"longitude":"-40.08482","name":"Irajuba, BA <br> Sem serviço fixo","uf":"BA","latitude":"-13.256331","tecnologia":"Sem serviço fixo","cidade":"Irajuba","color":"black"},{"longitude":"-40.959471","name":"Iramaia, BA <br> Sem serviço fixo","uf":"BA","latitude":"-13.290186","tecnologia":"Sem serviço fixo","cidade":"Iramaia","color":"black"},{"longitude":"-41.615504","name":"Iraquara, BA <br> Sem serviço fixo","uf":"BA","latitude":"-12.24288","tecnologia":"Sem serviço fixo","cidade":"Iraquara","color":"black"},{"longitude":"-38.763139","name":"Irará, BA <br> Sem serviço fixo","uf":"BA","latitude":"-12.050449","tecnologia":"Sem serviço fixo","cidade":"Irará","color":"black"},{"longitude":"-41.853462","name":"Irecê, BA <br> Sem serviço fixo","uf":"BA","latitude":"-11.303317","tecnologia":"Sem serviço fixo","cidade":"Irecê","color":"black"},{"longitude":"-39.559318","name":"Itabela, BA <br> Sem serviço fixo","uf":"BA","latitude":"-16.573188","tecnologia":"Sem serviço fixo","cidade":"Itabela","color":"black"},{"longitude":"-40.305897","name":"Itaberaba, BA <br> Sem serviço fixo","uf":"BA","latitude":"-12.524182","tecnologia":"Sem serviço fixo","cidade":"Itaberaba","color":"black"},{"longitude":"-38.99591","name":"Itacaré, BA <br> Sem serviço fixo","uf":"BA","latitude":"-14.278422","tecnologia":"Sem serviço fixo","cidade":"Itacaré","color":"black"},{"longitude":"-40.96774","name":"Itaeté, BA <br> Sem serviço fixo","uf":"BA","latitude":"-12.983121","tecnologia":"Sem serviço fixo","cidade":"Itaeté","color":"black"},{"longitude":"-40.013112","name":"Itagi, BA <br> Sem serviço fixo","uf":"BA","latitude":"-14.1615","tecnologia":"Sem serviço fixo","cidade":"Itagi","color":"black"},{"longitude":"-39.844945","name":"Itagibá, BA <br> Sem serviço fixo","uf":"BA","latitude":"-14.278239","tecnologia":"Sem serviço fixo","cidade":"Itagibá","color":"black"},{"longitude":"-39.613317","name":"Itagimirim, BA <br> Sem serviço fixo","uf":"BA","latitude":"-16.081919","tecnologia":"Sem serviço fixo","cidade":"Itagimirim","color":"black"},{"longitude":"-42.399671","name":"Itaguaçu da Bahia, BA <br> Sem serviço fixo","uf":"BA","latitude":"-11.014672","tecnologia":"Sem serviço fixo","cidade":"Itaguaçu da Bahia","color":"black"},{"longitude":"-39.728298","name":"Itaju do Colônia, BA <br> Sem serviço fixo","uf":"BA","latitude":"-15.136598","tecnologia":"Sem serviço fixo","cidade":"Itaju do Colônia","color":"black"},{"longitude":"-39.369823","name":"Itajuípe, BA <br> Sem serviço fixo","uf":"BA","latitude":"-14.678766","tecnologia":"Sem serviço fixo","cidade":"Itajuípe","color":"black"},{"longitude":"-39.538569","name":"Itamaraju, BA <br> Sem serviço fixo","uf":"BA","latitude":"-17.03782","tecnologia":"Sem serviço fixo","cidade":"Itamaraju","color":"black"},{"longitude":"-39.682959","name":"Itamari, BA <br> Sem serviço fixo","uf":"BA","latitude":"-13.778192","tecnologia":"Sem serviço fixo","cidade":"Itamari","color":"black"},{"longitude":"-40.629955","name":"Itambé, BA <br> Sem serviço fixo","uf":"BA","latitude":"-15.242913","tecnologia":"Sem serviço fixo","cidade":"Itambé","color":"black"},{"longitude":"-38.043595","name":"Itanagra, BA <br> Sem serviço fixo","uf":"BA","latitude":"-12.261435","tecnologia":"Sem serviço fixo","cidade":"Itanagra","color":"black"},{"longitude":"-40.332139","name":"Itanhém, BA <br> Sem serviço fixo","uf":"BA","latitude":"-17.164207","tecnologia":"Sem serviço fixo","cidade":"Itanhém","color":"black"},{"longitude":"-38.67995","name":"Itaparica, BA <br> Sem serviço fixo","uf":"BA","latitude":"-12.893205","tecnologia":"Sem serviço fixo","cidade":"Itaparica","color":"black"},{"longitude":"-39.423858","name":"Itapé, BA <br> Sem serviço fixo","uf":"BA","latitude":"-14.887641","tecnologia":"Sem serviço fixo","cidade":"Itapé","color":"black"},{"longitude":"-39.532863","name":"Itapebi, BA <br> Sem serviço fixo","uf":"BA","latitude":"-15.955063","tecnologia":"Sem serviço fixo","cidade":"Itapebi","color":"black"},{"longitude":"-40.248236","name":"Itapetinga, BA <br> Sem serviço fixo","uf":"BA","latitude":"-15.247533","tecnologia":"Sem serviço fixo","cidade":"Itapetinga","color":"black"},{"longitude":"-38.226229","name":"Itapicuru, BA <br> Sem serviço fixo","uf":"BA","latitude":"-11.308836","tecnologia":"Sem serviço fixo","cidade":"Itapicuru","color":"black"},{"longitude":"-39.565654","name":"Itapitanga, BA <br> Sem serviço fixo","uf":"BA","latitude":"-14.413932","tecnologia":"Sem serviço fixo","cidade":"Itapitanga","color":"black"},{"longitude":"-39.937767","name":"Itaquara, BA <br> Sem serviço fixo","uf":"BA","latitude":"-13.44589","tecnologia":"Sem serviço fixo","cidade":"Itaquara","color":"black"},{"longitude":"-40.06496","name":"Itarantim, BA <br> Sem serviço fixo","uf":"BA","latitude":"-15.652819","tecnologia":"Sem serviço fixo","cidade":"Itarantim","color":"black"},{"longitude":"-39.695199","name":"Itatim, BA <br> Sem serviço fixo","uf":"BA","latitude":"-12.709888","tecnologia":"Sem serviço fixo","cidade":"Itatim","color":"black"},{"longitude":"-40.147186","name":"Itiruçu, BA <br> Sem serviço fixo","uf":"BA","latitude":"-13.529043","tecnologia":"Sem serviço fixo","cidade":"Itiruçu","color":"black"},{"longitude":"-39.844616","name":"Itiúba, BA <br> Sem serviço fixo","uf":"BA","latitude":"-10.694761","tecnologia":"Sem serviço fixo","cidade":"Itiúba","color":"black"},{"longitude":"-40.068401","name":"Itororó, BA <br> Sem serviço fixo","uf":"BA","latitude":"-15.109988","tecnologia":"Sem serviço fixo","cidade":"Itororó","color":"black"},{"longitude":"-41.300284","name":"Ituaçu, BA <br> Sem serviço fixo","uf":"BA","latitude":"-13.810651","tecnologia":"Sem serviço fixo","cidade":"Ituaçu","color":"black"},{"longitude":"-39.148059","name":"Ituberá, BA <br> Sem serviço fixo","uf":"BA","latitude":"-13.724936","tecnologia":"Sem serviço fixo","cidade":"Ituberá","color":"black"},{"longitude":"-43.559547","name":"Iuiú, BA <br> Sem serviço fixo","uf":"BA","latitude":"-14.405424","tecnologia":"Sem serviço fixo","cidade":"Iuiú","color":"black"},{"longitude":"-44.425537","name":"Jaborandi, BA <br> Sem serviço fixo","uf":"BA","latitude":"-13.607082","tecnologia":"Sem serviço fixo","cidade":"Jaborandi","color":"black"},{"longitude":"-42.432878","name":"Jacaraci, BA <br> Sem serviço fixo","uf":"BA","latitude":"-14.85409","tecnologia":"Sem serviço fixo","cidade":"Jacaraci","color":"black"},{"longitude":"-40.511693","name":"Jacobina, BA <br> Sem serviço fixo","uf":"BA","latitude":"-11.181217","tecnologia":"Sem serviço fixo","cidade":"Jacobina","color":"black"},{"longitude":"-39.964009","name":"Jaguaquara, BA <br> Sem serviço fixo","uf":"BA","latitude":"-13.524834","tecnologia":"Sem serviço fixo","cidade":"Jaguaquara","color":"black"},{"longitude":"-40.199938","name":"Jaguarari, BA <br> Sem serviço fixo","uf":"BA","latitude":"-10.256859","tecnologia":"Sem serviço fixo","cidade":"Jaguarari","color":"black"},{"longitude":"-38.893891","name":"Jaguaripe, BA <br> Sem serviço fixo","uf":"BA","latitude":"-13.110924","tecnologia":"Sem serviço fixo","cidade":"Jaguaripe","color":"black"},{"longitude":"-37.785274","name":"Jandaíra, BA <br> Sem serviço fixo","uf":"BA","latitude":"-11.561614","tecnologia":"Sem serviço fixo","cidade":"Jandaíra","color":"black"},{"longitude":"-40.087704","name":"Jequié, BA <br> Sem serviço fixo","uf":"BA","latitude":"-13.850888","tecnologia":"Sem serviço fixo","cidade":"Jequié","color":"black"},{"longitude":"-38.347097","name":"Jeremoabo, BA <br> Sem serviço fixo","uf":"BA","latitude":"-10.06848","tecnologia":"Sem serviço fixo","cidade":"Jeremoabo","color":"black"},{"longitude":"-39.57365","name":"Jiquiriçá, BA <br> Sem serviço fixo","uf":"BA","latitude":"-13.262101","tecnologia":"Sem serviço fixo","cidade":"Jiquiriçá","color":"black"},{"longitude":"-39.896892","name":"Jitaúna, BA <br> Sem serviço fixo","uf":"BA","latitude":"-14.013085","tecnologia":"Sem serviço fixo","cidade":"Jitaúna","color":"black"},{"longitude":"-41.654799","name":"João Dourado, BA <br> Sem serviço fixo","uf":"BA","latitude":"-11.348642","tecnologia":"Sem serviço fixo","cidade":"João Dourado","color":"black"},{"longitude":"-40.164074","name":"Jucuruçu, BA <br> Sem serviço fixo","uf":"BA","latitude":"-16.848752","tecnologia":"Sem serviço fixo","cidade":"Jucuruçu","color":"black"},{"longitude":"-41.970235","name":"Jussara, BA <br> Sem serviço fixo","uf":"BA","latitude":"-11.043084","tecnologia":"Sem serviço fixo","cidade":"Jussara","color":"black"},{"longitude":"-39.490962","name":"Jussari, BA <br> Sem serviço fixo","uf":"BA","latitude":"-15.19201","tecnologia":"Sem serviço fixo","cidade":"Jussari","color":"black"},{"longitude":"-41.588209","name":"Jussiape, BA <br> Sem serviço fixo","uf":"BA","latitude":"-13.515514","tecnologia":"Sem serviço fixo","cidade":"Jussiape","color":"black"},{"longitude":"-40.21189","name":"Lafaiete Coutinho, BA <br> Sem serviço fixo","uf":"BA","latitude":"-13.6541","tecnologia":"Sem serviço fixo","cidade":"Lafaiete Coutinho","color":"black"},{"longitude":"-42.132764","name":"Lagoa Real, BA <br> Sem serviço fixo","uf":"BA","latitude":"-14.033443","tecnologia":"Sem serviço fixo","cidade":"Lagoa Real","color":"black"},{"longitude":"-39.421264","name":"Laje, BA <br> Sem serviço fixo","uf":"BA","latitude":"-13.167327","tecnologia":"Sem serviço fixo","cidade":"Laje","color":"black"},{"longitude":"-40.338307","name":"Lajedão, BA <br> Sem serviço fixo","uf":"BA","latitude":"-17.605641","tecnologia":"Sem serviço fixo","cidade":"Lajedão","color":"black"},{"longitude":"-40.904752","name":"Lajedinho, BA <br> Sem serviço fixo","uf":"BA","latitude":"-12.352889","tecnologia":"Sem serviço fixo","cidade":"Lajedinho","color":"black"},{"longitude":"-40.220429","name":"Lajedo do Tabocal, BA <br> Sem serviço fixo","uf":"BA","latitude":"-13.466286","tecnologia":"Sem serviço fixo","cidade":"Lajedo do Tabocal","color":"black"},{"longitude":"-38.887009","name":"Lamarão, BA <br> Sem serviço fixo","uf":"BA","latitude":"-11.773013","tecnologia":"Sem serviço fixo","cidade":"Lamarão","color":"black"},{"longitude":"-41.828615","name":"Lapão, BA <br> Sem serviço fixo","uf":"BA","latitude":"-11.385096","tecnologia":"Sem serviço fixo","cidade":"Lapão","color":"black"},{"longitude":"-41.392825","name":"Lençóis, BA <br> Sem serviço fixo","uf":"BA","latitude":"-12.561604","tecnologia":"Sem serviço fixo","cidade":"Lençóis","color":"black"},{"longitude":"-42.509527","name":"Licínio de Almeida, BA <br> Sem serviço fixo","uf":"BA","latitude":"-14.684215","tecnologia":"Sem serviço fixo","cidade":"Licínio de Almeida","color":"black"},{"longitude":"-41.843187","name":"Livramento de Nossa Senhora, BA <br> Sem serviço fixo","uf":"BA","latitude":"-13.636868","tecnologia":"Sem serviço fixo","cidade":"Livramento de Nossa Senhora","color":"black"},{"longitude":"-40.357058","name":"Macajuba, BA <br> Sem serviço fixo","uf":"BA","latitude":"-12.132592","tecnologia":"Sem serviço fixo","cidade":"Macajuba","color":"black"},{"longitude":"-40.420888","name":"Macarani, BA <br> Sem serviço fixo","uf":"BA","latitude":"-15.564563","tecnologia":"Sem serviço fixo","cidade":"Macarani","color":"black"},{"longitude":"-42.694515","name":"Macaúbas, BA <br> Sem serviço fixo","uf":"BA","latitude":"-13.018601","tecnologia":"Sem serviço fixo","cidade":"Macaúbas","color":"black"},{"longitude":"-39.051784","name":"Macururé, BA <br> Sem serviço fixo","uf":"BA","latitude":"-9.162258","tecnologia":"Sem serviço fixo","cidade":"Macururé","color":"black"},{"longitude":"-38.615316","name":"Madre de Deus, BA <br> Sem serviço fixo","uf":"BA","latitude":"-12.744621","tecnologia":"Sem serviço fixo","cidade":"Madre de Deus","color":"black"},{"longitude":"-41.49146","name":"Maetinga, BA <br> Sem serviço fixo","uf":"BA","latitude":"-14.662335","tecnologia":"Sem serviço fixo","cidade":"Maetinga","color":"black"},{"longitude":"-40.258722","name":"Maiquinique, BA <br> Sem serviço fixo","uf":"BA","latitude":"-15.623985","tecnologia":"Sem serviço fixo","cidade":"Maiquinique","color":"black"},{"longitude":"-40.143732","name":"Mairi, BA <br> Sem serviço fixo","uf":"BA","latitude":"-11.710704","tecnologia":"Sem serviço fixo","cidade":"Mairi","color":"black"},{"longitude":"-41.88422","name":"Malhada de Pedras, BA <br> Sem serviço fixo","uf":"BA","latitude":"-14.384673","tecnologia":"Sem serviço fixo","cidade":"Malhada de Pedras","color":"black"},{"longitude":"-43.768634","name":"Malhada, BA <br> Sem serviço fixo","uf":"BA","latitude":"-14.337134","tecnologia":"Sem serviço fixo","cidade":"Malhada","color":"black"},{"longitude":"-40.239895","name":"Manoel Vitorino, BA <br> Sem serviço fixo","uf":"BA","latitude":"-14.147617","tecnologia":"Sem serviço fixo","cidade":"Manoel Vitorino","color":"black"},{"longitude":"-44.042798","name":"Mansidão, BA <br> Sem serviço fixo","uf":"BA","latitude":"-10.722707","tecnologia":"Sem serviço fixo","cidade":"Mansidão","color":"black"},{"longitude":"-40.432333","name":"Maracás, BA <br> Sem serviço fixo","uf":"BA","latitude":"-13.435468","tecnologia":"Sem serviço fixo","cidade":"Maracás","color":"black"},{"longitude":"-38.917519","name":"Maragogipe, BA <br> Sem serviço fixo","uf":"BA","latitude":"-12.77602","tecnologia":"Sem serviço fixo","cidade":"Maragogipe","color":"black"},{"longitude":"-40.529457","name":"Marcionílio Souza, BA <br> Sem serviço fixo","uf":"BA","latitude":"-13.006437","tecnologia":"Sem serviço fixo","cidade":"Marcionílio Souza","color":"black"},{"longitude":"-39.301602","name":"Mascote, BA <br> Sem serviço fixo","uf":"BA","latitude":"-15.554159","tecnologia":"Sem serviço fixo","cidade":"Mascote","color":"black"},{"longitude":"-38.300898","name":"Mata de São João, BA <br> Sem serviço fixo","uf":"BA","latitude":"-12.530685","tecnologia":"Sem serviço fixo","cidade":"Mata de São João","color":"black"},{"longitude":"-42.843914","name":"Matina, BA <br> Sem serviço fixo","uf":"BA","latitude":"-13.910917","tecnologia":"Sem serviço fixo","cidade":"Matina","color":"black"},{"longitude":"-40.223776","name":"Medeiros Neto, BA <br> Sem serviço fixo","uf":"BA","latitude":"-17.370676","tecnologia":"Sem serviço fixo","cidade":"Medeiros Neto","color":"black"},{"longitude":"-40.603084","name":"Miguel Calmon, BA <br> Sem serviço fixo","uf":"BA","latitude":"-11.429891","tecnologia":"Sem serviço fixo","cidade":"Miguel Calmon","color":"black"},{"longitude":"-39.861092","name":"Milagres, BA <br> Sem serviço fixo","uf":"BA","latitude":"-12.864635","tecnologia":"Sem serviço fixo","cidade":"Milagres","color":"black"},{"longitude":"-40.573996","name":"Mirangaba, BA <br> Sem serviço fixo","uf":"BA","latitude":"-10.960983","tecnologia":"Sem serviço fixo","cidade":"Mirangaba","color":"black"},{"longitude":"-40.771799","name":"Mirante, BA <br> Sem serviço fixo","uf":"BA","latitude":"-14.238469","tecnologia":"Sem serviço fixo","cidade":"Mirante","color":"black"},{"longitude":"-39.332077","name":"Monte Santo, BA <br> Sem serviço fixo","uf":"BA","latitude":"-10.437413","tecnologia":"Sem serviço fixo","cidade":"Monte Santo","color":"black"},{"longitude":"-43.276566","name":"Morpará, BA <br> Sem serviço fixo","uf":"BA","latitude":"-11.556892","tecnologia":"Sem serviço fixo","cidade":"Morpará","color":"black"},{"longitude":"-41.156461","name":"Morro do Chapéu, BA <br> Sem serviço fixo","uf":"BA","latitude":"-11.548804","tecnologia":"Sem serviço fixo","cidade":"Morro do Chapéu","color":"black"},{"longitude":"-42.372663","name":"Mortugaba, BA <br> Sem serviço fixo","uf":"BA","latitude":"-15.022454","tecnologia":"Sem serviço fixo","cidade":"Mortugaba","color":"black"},{"longitude":"-41.370271","name":"Mucugê, BA <br> Sem serviço fixo","uf":"BA","latitude":"-13.0053","tecnologia":"Sem serviço fixo","cidade":"Mucugê","color":"black"},{"longitude":"-39.556467","name":"Mucuri, BA <br> Sem serviço fixo","uf":"BA","latitude":"-18.075392","tecnologia":"Sem serviço fixo","cidade":"Mucuri","color":"black"},{"longitude":"-41.637352","name":"Mulungu do Morro, BA <br> Sem serviço fixo","uf":"BA","latitude":"-11.964776","tecnologia":"Sem serviço fixo","cidade":"Mulungu do Morro","color":"black"},{"longitude":"-40.47139","name":"Mundo Novo, BA <br> Sem serviço fixo","uf":"BA","latitude":"-11.85408","tecnologia":"Sem serviço fixo","cidade":"Mundo Novo","color":"black"},{"longitude":"-39.109247","name":"Muniz Ferreira, BA <br> Sem serviço fixo","uf":"BA","latitude":"-13.009227","tecnologia":"Sem serviço fixo","cidade":"Muniz Ferreira","color":"black"},{"longitude":"-43.543808","name":"Muquém de São Francisco, BA <br> Sem serviço fixo","uf":"BA","latitude":"-12.063376","tecnologia":"Sem serviço fixo","cidade":"Muquém de São Francisco","color":"black"},{"longitude":"-38.992052","name":"Muritiba, BA <br> Sem serviço fixo","uf":"BA","latitude":"-12.632901","tecnologia":"Sem serviço fixo","cidade":"Muritiba","color":"black"},{"longitude":"-39.504367","name":"Mutuípe, BA <br> Sem serviço fixo","uf":"BA","latitude":"-13.228381","tecnologia":"Sem serviço fixo","cidade":"Mutuípe","color":"black"},{"longitude":"-39.010835","name":"Nazaré, BA <br> Sem serviço fixo","uf":"BA","latitude":"-13.023491","tecnologia":"Sem serviço fixo","cidade":"Nazaré","color":"black"},{"longitude":"-39.109111","name":"Nilo Peçanha, BA <br> Sem serviço fixo","uf":"BA","latitude":"-13.603992","tecnologia":"Sem serviço fixo","cidade":"Nilo Peçanha","color":"black"},{"longitude":"-39.429705","name":"Nordestina, BA <br> Sem serviço fixo","uf":"BA","latitude":"-10.819169","tecnologia":"Sem serviço fixo","cidade":"Nordestina","color":"black"},{"longitude":"-40.1458","name":"Nova Canaã, BA <br> Sem serviço fixo","uf":"BA","latitude":"-14.791242","tecnologia":"Sem serviço fixo","cidade":"Nova Canaã","color":"black"},{"longitude":"-39.630215","name":"Nova Fátima, BA <br> Sem serviço fixo","uf":"BA","latitude":"-11.603116","tecnologia":"Sem serviço fixo","cidade":"Nova Fátima","color":"black"},{"longitude":"-39.618174","name":"Nova Ibiá, BA <br> Sem serviço fixo","uf":"BA","latitude":"-13.811995","tecnologia":"Sem serviço fixo","cidade":"Nova Ibiá","color":"black"},{"longitude":"-40.065267","name":"Nova Itarana, BA <br> Sem serviço fixo","uf":"BA","latitude":"-13.024055","tecnologia":"Sem serviço fixo","cidade":"Nova Itarana","color":"black"},{"longitude":"-41.074785","name":"Nova Redenção, BA <br> Sem serviço fixo","uf":"BA","latitude":"-12.815001","tecnologia":"Sem serviço fixo","cidade":"Nova Redenção","color":"black"},{"longitude":"-38.487103","name":"Nova Soure, BA <br> Sem serviço fixo","uf":"BA","latitude":"-11.232948","tecnologia":"Sem serviço fixo","cidade":"Nova Soure","color":"black"},{"longitude":"-39.374331","name":"Nova Viçosa, BA <br> Sem serviço fixo","uf":"BA","latitude":"-17.892648","tecnologia":"Sem serviço fixo","cidade":"Nova Viçosa","color":"black"},{"longitude":"-42.168172","name":"Novo Horizonte, BA <br> Sem serviço fixo","uf":"BA","latitude":"-12.808318","tecnologia":"Sem serviço fixo","cidade":"Novo Horizonte","color":"black"},{"longitude":"-38.401374","name":"Novo Triunfo, BA <br> Sem serviço fixo","uf":"BA","latitude":"-10.318235","tecnologia":"Sem serviço fixo","cidade":"Novo Triunfo","color":"black"},{"longitude":"-38.337863","name":"Olindina, BA <br> Sem serviço fixo","uf":"BA","latitude":"-11.349693","tecnologia":"Sem serviço fixo","cidade":"Olindina","color":"black"},{"longitude":"-42.896872","name":"Oliveira Dos Brejinhos, BA <br> Sem serviço fixo","uf":"BA","latitude":"-12.313183","tecnologia":"Sem serviço fixo","cidade":"Oliveira Dos Brejinhos","color":"black"},{"longitude":"-38.616624","name":"Ouriçangas, BA <br> Sem serviço fixo","uf":"BA","latitude":"-12.017497","tecnologia":"Sem serviço fixo","cidade":"Ouriçangas","color":"black"},{"longitude":"-41.075576","name":"Ourolândia, BA <br> Sem serviço fixo","uf":"BA","latitude":"-10.957848","tecnologia":"Sem serviço fixo","cidade":"Ourolândia","color":"black"},{"longitude":"-43.16086","name":"Palmas de Monte Alto, BA <br> Sem serviço fixo","uf":"BA","latitude":"-14.267562","tecnologia":"Sem serviço fixo","cidade":"Palmas de Monte Alto","color":"black"},{"longitude":"-41.580886","name":"Palmeiras, BA <br> Sem serviço fixo","uf":"BA","latitude":"-12.505865","tecnologia":"Sem serviço fixo","cidade":"Palmeiras","color":"black"},{"longitude":"-42.239502","name":"Paramirim, BA <br> Sem serviço fixo","uf":"BA","latitude":"-13.438849","tecnologia":"Sem serviço fixo","cidade":"Paramirim","color":"black"},{"longitude":"-43.179794","name":"Paratinga, BA <br> Sem serviço fixo","uf":"BA","latitude":"-12.686974","tecnologia":"Sem serviço fixo","cidade":"Paratinga","color":"black"},{"longitude":"-37.862561","name":"Paripiranga, BA <br> Sem serviço fixo","uf":"BA","latitude":"-10.685885","tecnologia":"Sem serviço fixo","cidade":"Paripiranga","color":"black"},{"longitude":"-39.645794","name":"Pau Brasil, BA <br> Sem serviço fixo","uf":"BA","latitude":"-15.457226","tecnologia":"Sem serviço fixo","cidade":"Pau Brasil","color":"black"},{"longitude":"-38.22156","name":"Paulo Afonso, BA <br> Sem serviço fixo","uf":"BA","latitude":"-9.398296","tecnologia":"Sem serviço fixo","cidade":"Paulo Afonso","color":"black"},{"longitude":"-39.611037","name":"pé de Serra, BA <br> Sem serviço fixo","uf":"BA","latitude":"-11.831289","tecnologia":"Sem serviço fixo","cidade":"pé de Serra","color":"black"},{"longitude":"-38.648715","name":"Pedrão, BA <br> Sem serviço fixo","uf":"BA","latitude":"-12.14914","tecnologia":"Sem serviço fixo","cidade":"Pedrão","color":"black"},{"longitude":"-37.893178","name":"Pedro Alexandre, BA <br> Sem serviço fixo","uf":"BA","latitude":"-10.012005","tecnologia":"Sem serviço fixo","cidade":"Pedro Alexandre","color":"black"},{"longitude":"-41.770177","name":"Piatã, BA <br> Sem serviço fixo","uf":"BA","latitude":"-13.146549","tecnologia":"Sem serviço fixo","cidade":"Piatã","color":"black"},{"longitude":"-42.493607","name":"Pilão Arcado, BA <br> Sem serviço fixo","uf":"BA","latitude":"-10.005079","tecnologia":"Sem serviço fixo","cidade":"Pilão Arcado","color":"black"},{"longitude":"-42.685984","name":"Pindaí, BA <br> Sem serviço fixo","uf":"BA","latitude":"-14.492128","tecnologia":"Sem serviço fixo","cidade":"Pindaí","color":"black"},{"longitude":"-40.367472","name":"Pindobaçu, BA <br> Sem serviço fixo","uf":"BA","latitude":"-10.743338","tecnologia":"Sem serviço fixo","cidade":"Pindobaçu","color":"black"},{"longitude":"-39.900859","name":"Pintadas, BA <br> Sem serviço fixo","uf":"BA","latitude":"-11.811712","tecnologia":"Sem serviço fixo","cidade":"Pintadas","color":"black"},{"longitude":"-39.383592","name":"Piraí do Norte, BA <br> Sem serviço fixo","uf":"BA","latitude":"-13.758962","tecnologia":"Sem serviço fixo","cidade":"Piraí do Norte","color":"black"},{"longitude":"-41.716841","name":"Piripá, BA <br> Sem serviço fixo","uf":"BA","latitude":"-14.944379","tecnologia":"Sem serviço fixo","cidade":"Piripá","color":"black"},{"longitude":"-40.558739","name":"Piritiba, BA <br> Sem serviço fixo","uf":"BA","latitude":"-11.730008","tecnologia":"Sem serviço fixo","cidade":"Piritiba","color":"black"},{"longitude":"-40.369519","name":"Planaltino, BA <br> Sem serviço fixo","uf":"BA","latitude":"-13.261789","tecnologia":"Sem serviço fixo","cidade":"Planaltino","color":"black"},{"longitude":"-40.471843","name":"Planalto, BA <br> Sem serviço fixo","uf":"BA","latitude":"-14.66537","tecnologia":"Sem serviço fixo","cidade":"Planalto","color":"black"},{"longitude":"-40.363354","name":"Poções, BA <br> Sem serviço fixo","uf":"BA","latitude":"-14.523391","tecnologia":"Sem serviço fixo","cidade":"Poções","color":"black"},{"longitude":"-38.337436","name":"Pojuca, BA <br> Sem serviço fixo","uf":"BA","latitude":"-12.430336","tecnologia":"Sem serviço fixo","cidade":"Pojuca","color":"black"},{"longitude":"-40.131144","name":"Ponto Novo, BA <br> Sem serviço fixo","uf":"BA","latitude":"-10.8653","tecnologia":"Sem serviço fixo","cidade":"Ponto Novo","color":"black"},{"longitude":"-39.863846","name":"Potiraguá, BA <br> Sem serviço fixo","uf":"BA","latitude":"-15.59429","tecnologia":"Sem serviço fixo","cidade":"Potiraguá","color":"black"},{"longitude":"-39.222721","name":"Prado, BA <br> Sem serviço fixo","uf":"BA","latitude":"-17.336357","tecnologia":"Sem serviço fixo","cidade":"Prado","color":"black"},{"longitude":"-41.984341","name":"Presidente Dutra, BA <br> Sem serviço fixo","uf":"BA","latitude":"-11.292345","tecnologia":"Sem serviço fixo","cidade":"Presidente Dutra","color":"black"},{"longitude":"-41.679792","name":"Presidente Jânio Quadros, BA <br> Sem serviço fixo","uf":"BA","latitude":"-14.688485","tecnologia":"Sem serviço fixo","cidade":"Presidente Jânio Quadros","color":"black"},{"longitude":"-39.420267","name":"Presidente Tancredo Neves, BA <br> Sem serviço fixo","uf":"BA","latitude":"-13.447064","tecnologia":"Sem serviço fixo","cidade":"Presidente Tancredo Neves","color":"black"},{"longitude":"-39.629347","name":"Queimadas, BA <br> Sem serviço fixo","uf":"BA","latitude":"-10.973561","tecnologia":"Sem serviço fixo","cidade":"Queimadas","color":"black"},{"longitude":"-39.213694","name":"Quijingue, BA <br> Sem serviço fixo","uf":"BA","latitude":"-10.750519","tecnologia":"Sem serviço fixo","cidade":"Quijingue","color":"black"},{"longitude":"-40.120045","name":"Quixabeira, BA <br> Sem serviço fixo","uf":"BA","latitude":"-11.403061","tecnologia":"Sem serviço fixo","cidade":"Quixabeira","color":"black"},{"longitude":"-39.500658","name":"Rafael Jambeiro, BA <br> Sem serviço fixo","uf":"BA","latitude":"-12.405257","tecnologia":"Sem serviço fixo","cidade":"Rafael Jambeiro","color":"black"},{"longitude":"-42.084839","name":"Remanso, BA <br> Sem serviço fixo","uf":"BA","latitude":"-9.61944","tecnologia":"Sem serviço fixo","cidade":"Remanso","color":"black"},{"longitude":"-39.423358","name":"Retirolândia, BA <br> Sem serviço fixo","uf":"BA","latitude":"-11.483198","tecnologia":"Sem serviço fixo","cidade":"Retirolândia","color":"black"},{"longitude":"-44.914259","name":"Riachão Das Neves, BA <br> Sem serviço fixo","uf":"BA","latitude":"-11.750755","tecnologia":"Sem serviço fixo","cidade":"Riachão Das Neves","color":"black"},{"longitude":"-39.381812","name":"Riachão do Jacuípe, BA <br> Sem serviço fixo","uf":"BA","latitude":"-11.806681","tecnologia":"Sem serviço fixo","cidade":"Riachão do Jacuípe","color":"black"},{"longitude":"-42.939675","name":"Riacho de Santana, BA <br> Sem serviço fixo","uf":"BA","latitude":"-13.605941","tecnologia":"Sem serviço fixo","cidade":"Riacho de Santana","color":"black"},{"longitude":"-38.424211","name":"Ribeira do Amparo, BA <br> Sem serviço fixo","uf":"BA","latitude":"-11.042071","tecnologia":"Sem serviço fixo","cidade":"Ribeira do Amparo","color":"black"},{"longitude":"-38.538152","name":"Ribeira do Pombal, BA <br> Sem serviço fixo","uf":"BA","latitude":"-10.837299","tecnologia":"Sem serviço fixo","cidade":"Ribeira do Pombal","color":"black"},{"longitude":"-40.744137","name":"Ribeirão do Largo, BA <br> Sem serviço fixo","uf":"BA","latitude":"-15.450775","tecnologia":"Sem serviço fixo","cidade":"Ribeirão do Largo","color":"black"},{"longitude":"-41.804764","name":"Rio de Contas, BA <br> Sem serviço fixo","uf":"BA","latitude":"-13.585218","tecnologia":"Sem serviço fixo","cidade":"Rio de Contas","color":"black"},{"longitude":"-42.072103","name":"Rio do Antônio, BA <br> Sem serviço fixo","uf":"BA","latitude":"-14.407144","tecnologia":"Sem serviço fixo","cidade":"Rio do Antônio","color":"black"},{"longitude":"-42.290166","name":"Rio do Pires, BA <br> Sem serviço fixo","uf":"BA","latitude":"-13.11853","tecnologia":"Sem serviço fixo","cidade":"Rio do Pires","color":"black"},{"longitude":"-37.933243","name":"Rio Real, BA <br> Sem serviço fixo","uf":"BA","latitude":"-11.48137","tecnologia":"Sem serviço fixo","cidade":"Rio Real","color":"black"},{"longitude":"-38.77999","name":"Rodelas, BA <br> Sem serviço fixo","uf":"BA","latitude":"-8.850214","tecnologia":"Sem serviço fixo","cidade":"Rodelas","color":"black"},{"longitude":"-40.493101","name":"Ruy Barbosa, BA <br> Sem serviço fixo","uf":"BA","latitude":"-12.281612","tecnologia":"Sem serviço fixo","cidade":"Ruy Barbosa","color":"black"},{"longitude":"-38.756164","name":"Salinas da Margarida, BA <br> Sem serviço fixo","uf":"BA","latitude":"-12.873014","tecnologia":"Sem serviço fixo","cidade":"Salinas da Margarida","color":"black"},{"longitude":"-38.968085","name":"Santa Bárbara, BA <br> Sem serviço fixo","uf":"BA","latitude":"-11.95149","tecnologia":"Sem serviço fixo","cidade":"Santa Bárbara","color":"black"},{"longitude":"-38.120935","name":"Santa Brígida, BA <br> Sem serviço fixo","uf":"BA","latitude":"-9.732273","tecnologia":"Sem serviço fixo","cidade":"Santa Brígida","color":"black"},{"longitude":"-39.029495","name":"Santa Cruz Cabrália, BA <br> Sem serviço fixo","uf":"BA","latitude":"-16.282529","tecnologia":"Sem serviço fixo","cidade":"Santa Cruz Cabrália","color":"black"},{"longitude":"-39.811503","name":"Santa Cruz da Vitória, BA <br> Sem serviço fixo","uf":"BA","latitude":"-14.963975","tecnologia":"Sem serviço fixo","cidade":"Santa Cruz da Vitória","color":"black"},{"longitude":"-39.813979","name":"Santa Inês, BA <br> Sem serviço fixo","uf":"BA","latitude":"-13.2793","tecnologia":"Sem serviço fixo","cidade":"Santa Inês","color":"black"},{"longitude":"-44.201057","name":"Santa Maria da Vitória, BA <br> Sem serviço fixo","uf":"BA","latitude":"-13.385867","tecnologia":"Sem serviço fixo","cidade":"Santa Maria da Vitória","color":"black"},{"longitude":"-44.525496","name":"Santa Rita de Cássia, BA <br> Sem serviço fixo","uf":"BA","latitude":"-11.006253","tecnologia":"Sem serviço fixo","cidade":"Santa Rita de Cássia","color":"black"},{"longitude":"-39.520111","name":"Santa Teresinha, BA <br> Sem serviço fixo","uf":"BA","latitude":"-12.76913","tecnologia":"Sem serviço fixo","cidade":"Santa Teresinha","color":"black"},{"longitude":"-39.375005","name":"Santaluz, BA <br> Sem serviço fixo","uf":"BA","latitude":"-11.250826","tecnologia":"Sem serviço fixo","cidade":"Santaluz","color":"black"},{"longitude":"-38.869372","name":"Santanópolis, BA <br> Sem serviço fixo","uf":"BA","latitude":"-12.031109","tecnologia":"Sem serviço fixo","cidade":"Santanópolis","color":"black"},{"longitude":"-38.713679","name":"Santo Amaro, BA <br> Sem serviço fixo","uf":"BA","latitude":"-12.547206","tecnologia":"Sem serviço fixo","cidade":"Santo Amaro","color":"black"},{"longitude":"-39.258403","name":"Santo Antônio de Jesus, BA <br> Sem serviço fixo","uf":"BA","latitude":"-12.961387","tecnologia":"Sem serviço fixo","cidade":"Santo Antônio de Jesus","color":"black"},{"longitude":"-39.250541","name":"Santo Estêvão, BA <br> Sem serviço fixo","uf":"BA","latitude":"-12.427981","tecnologia":"Sem serviço fixo","cidade":"Santo Estêvão","color":"black"},{"longitude":"-44.976881","name":"São Desidério, BA <br> Sem serviço fixo","uf":"BA","latitude":"-12.357196","tecnologia":"Sem serviço fixo","cidade":"São Desidério","color":"black"},{"longitude":"-39.526792","name":"São Domingos, BA <br> Sem serviço fixo","uf":"BA","latitude":"-11.464927","tecnologia":"Sem serviço fixo","cidade":"São Domingos","color":"black"},{"longitude":"-39.08932","name":"São Felipe, BA <br> Sem serviço fixo","uf":"BA","latitude":"-12.839439","tecnologia":"Sem serviço fixo","cidade":"São Felipe","color":"black"},{"longitude":"-44.183708","name":"São Félix do Coribe, BA <br> Sem serviço fixo","uf":"BA","latitude":"-13.401883","tecnologia":"Sem serviço fixo","cidade":"São Félix do Coribe","color":"black"},{"longitude":"-38.97271","name":"São Félix, BA <br> Sem serviço fixo","uf":"BA","latitude":"-12.610433","tecnologia":"Sem serviço fixo","cidade":"São Félix","color":"black"},{"longitude":"-38.678601","name":"São Francisco do Conde, BA <br> Sem serviço fixo","uf":"BA","latitude":"-12.618345","tecnologia":"Sem serviço fixo","cidade":"São Francisco do Conde","color":"black"},{"longitude":"-41.884267","name":"São Gabriel, BA <br> Sem serviço fixo","uf":"BA","latitude":"-11.217453","tecnologia":"Sem serviço fixo","cidade":"São Gabriel","color":"black"},{"longitude":"-38.966294","name":"São Gonçalo Dos Campos, BA <br> Sem serviço fixo","uf":"BA","latitude":"-12.433096","tecnologia":"Sem serviço fixo","cidade":"São Gonçalo Dos Campos","color":"black"},{"longitude":"-39.343685","name":"São José da Vitória, BA <br> Sem serviço fixo","uf":"BA","latitude":"-15.078666","tecnologia":"Sem serviço fixo","cidade":"São José da Vitória","color":"black"},{"longitude":"-39.866934","name":"São José do Jacuípe, BA <br> Sem serviço fixo","uf":"BA","latitude":"-11.41368","tecnologia":"Sem serviço fixo","cidade":"São José do Jacuípe","color":"black"},{"longitude":"-39.457844","name":"São Miguel Das Matas, BA <br> Sem serviço fixo","uf":"BA","latitude":"-13.043387","tecnologia":"Sem serviço fixo","cidade":"São Miguel Das Matas","color":"black"},{"longitude":"-38.490513","name":"São Sebastião do Passé, BA <br> Sem serviço fixo","uf":"BA","latitude":"-12.512264","tecnologia":"Sem serviço fixo","cidade":"São Sebastião do Passé","color":"black"},{"longitude":"-39.182426","name":"Sapeaçu, BA <br> Sem serviço fixo","uf":"BA","latitude":"-12.720764","tecnologia":"Sem serviço fixo","cidade":"Sapeaçu","color":"black"},{"longitude":"-38.593822","name":"Sátiro Dias, BA <br> Sem serviço fixo","uf":"BA","latitude":"-11.592928","tecnologia":"Sem serviço fixo","cidade":"Sátiro Dias","color":"black"},{"longitude":"-38.762473","name":"Saubara, BA <br> Sem serviço fixo","uf":"BA","latitude":"-12.738664","tecnologia":"Sem serviço fixo","cidade":"Saubara","color":"black"},{"longitude":"-40.415458","name":"Saúde, BA <br> Sem serviço fixo","uf":"BA","latitude":"-10.94279","tecnologia":"Sem serviço fixo","cidade":"Saúde","color":"black"},{"longitude":"-41.772159","name":"Seabra, BA <br> Sem serviço fixo","uf":"BA","latitude":"-12.416905","tecnologia":"Sem serviço fixo","cidade":"Seabra","color":"black"},{"longitude":"-42.943438","name":"Sebastião Laranjeiras, BA <br> Sem serviço fixo","uf":"BA","latitude":"-14.571002","tecnologia":"Sem serviço fixo","cidade":"Sebastião Laranjeiras","color":"black"},{"longitude":"-40.186532","name":"Senhor do Bonfim, BA <br> Sem serviço fixo","uf":"BA","latitude":"-10.459354","tecnologia":"Sem serviço fixo","cidade":"Senhor do Bonfim","color":"black"},{"longitude":"-41.878563","name":"Sento sé, BA <br> Sem serviço fixo","uf":"BA","latitude":"-9.741378","tecnologia":"Sem serviço fixo","cidade":"Sento sé","color":"black"},{"longitude":"-43.592907","name":"Serra do Ramalho, BA <br> Sem serviço fixo","uf":"BA","latitude":"-13.565889","tecnologia":"Sem serviço fixo","cidade":"Serra do Ramalho","color":"black"},{"longitude":"-43.950434","name":"Serra Dourada, BA <br> Sem serviço fixo","uf":"BA","latitude":"-12.759004","tecnologia":"Sem serviço fixo","cidade":"Serra Dourada","color":"black"},{"longitude":"-39.33049","name":"Serra Preta, BA <br> Sem serviço fixo","uf":"BA","latitude":"-12.156039","tecnologia":"Sem serviço fixo","cidade":"Serra Preta","color":"black"},{"longitude":"-39.009976","name":"Serrinha, BA <br> Sem serviço fixo","uf":"BA","latitude":"-11.658407","tecnologia":"Sem serviço fixo","cidade":"Serrinha","color":"black"},{"longitude":"-40.298327","name":"Serrolândia, BA <br> Sem serviço fixo","uf":"BA","latitude":"-11.408476","tecnologia":"Sem serviço fixo","cidade":"Serrolândia","color":"black"},{"longitude":"-38.402944","name":"Simões Filho, BA <br> Sem serviço fixo","uf":"BA","latitude":"-12.786587","tecnologia":"Sem serviço fixo","cidade":"Simões Filho","color":"black"},{"longitude":"-43.468921","name":"Sítio do Mato, BA <br> Sem serviço fixo","uf":"BA","latitude":"-13.080149","tecnologia":"Sem serviço fixo","cidade":"Sítio do Mato","color":"black"},{"longitude":"-38.221325","name":"Sítio do Quinto, BA <br> Sem serviço fixo","uf":"BA","latitude":"-10.354453","tecnologia":"Sem serviço fixo","cidade":"Sítio do Quinto","color":"black"},{"longitude":"-40.81455","name":"Sobradinho, BA <br> Sem serviço fixo","uf":"BA","latitude":"-9.450243","tecnologia":"Sem serviço fixo","cidade":"Sobradinho","color":"black"},{"longitude":"-41.642717","name":"Souto Soares, BA <br> Sem serviço fixo","uf":"BA","latitude":"-12.088046","tecnologia":"Sem serviço fixo","cidade":"Souto Soares","color":"black"},{"longitude":"-44.007449","name":"Tabocas do Brejo Velho, BA <br> Sem serviço fixo","uf":"BA","latitude":"-12.702634","tecnologia":"Sem serviço fixo","cidade":"Tabocas do Brejo Velho","color":"black"},{"longitude":"-41.247271","name":"Tanhaçu, BA <br> Sem serviço fixo","uf":"BA","latitude":"-14.019662","tecnologia":"Sem serviço fixo","cidade":"Tanhaçu","color":"black"},{"longitude":"-42.493412","name":"Tanque Novo, BA <br> Sem serviço fixo","uf":"BA","latitude":"-13.548509","tecnologia":"Sem serviço fixo","cidade":"Tanque Novo","color":"black"},{"longitude":"-39.103312","name":"Tanquinho, BA <br> Sem serviço fixo","uf":"BA","latitude":"-11.967965","tecnologia":"Sem serviço fixo","cidade":"Tanquinho","color":"black"},