[{"name":"São Gonçalo, RJ <br> HFC","uf":"RJ","latitude":"-22.82679","cidade":"São Gonçalo","color":"red","tecnologia":"HFC","longitude":"-43.063351"},{"name":"Criciúma, SC <br> HFC","uf":"SC","latitude":"-28.672267","cidade":"Criciúma","color":"red","tecnologia":"HFC","longitude":"-49.372887"},{"name":"Mogi das Cruzes, SP <br> HFC","uf":"SP","latitude":"-23.52082","cidade":"Mogi das Cruzes","color":"red","tecnologia":"HFC","longitude":"-46.18541"},{"name":"Santa Branca, SP <br> HFC","uf":"SP","latitude":"-23.393311","cidade":"Santa Branca","color":"red","tecnologia":"HFC","longitude":"-45.887521"},{"name":"Palmas, TO <br> HFC","uf":"TO","latitude":"-10.239973","cidade":"Palmas","color":"red","tecnologia":"HFC","longitude":"-48.355751"},{"name":"Rio Branco, AC <br> HFC","uf":"AC","latitude":"-9.97499","cidade":"Rio Branco","color":"red","tecnologia":"HFC","longitude":"-67.824348"},{"name":"Manaus, AM <br> HFC","uf":"AM","latitude":"-3.118662","cidade":"Manaus","color":"red","tecnologia":"HFC","longitude":"-60.02123"},{"name":"Lauro de Freitas, BA <br> HFC","uf":"BA","latitude":"-12.8978","cidade":"Lauro de Freitas","color":"red","tecnologia":"HFC","longitude":"-38.321008"},{"name":"Salvador, BA <br> HFC","uf":"BA","latitude":"-12.97178","cidade":"Salvador","color":"red","tecnologia":"HFC","longitude":"-38.501068"},{"name":"Fortaleza, CE <br> HFC","uf":"CE","latitude":"-3.716638","cidade":"Fortaleza","color":"red","tecnologia":"HFC","longitude":"-38.542298"},{"name":"Cariacica, ES <br> HFC","uf":"ES","latitude":"-20.263202","cidade":"Cariacica","color":"red","tecnologia":"HFC","longitude":"-40.416549"},{"name":"Serra, ES <br> HFC","uf":"ES","latitude":"-20.121032","cidade":"Serra","color":"red","tecnologia":"HFC","longitude":"-40.307408"},{"name":"Vila Velha, ES <br> HFC","uf":"ES","latitude":"-20.341705","cidade":"Vila Velha","color":"red","tecnologia":"HFC","longitude":"-40.287458"},{"name":"Belo Horizonte, MG <br> HFC","uf":"MG","latitude":"-19.910183","cidade":"Belo Horizonte","color":"red","tecnologia":"HFC","longitude":"-43.926572"},{"name":"Contagem, MG <br> HFC","uf":"MG","latitude":"-19.932079","cidade":"Contagem","color":"red","tecnologia":"HFC","longitude":"-44.05392"},{"name":"Campo Grande, MS <br> HFC","uf":"MS","latitude":"-20.448589","cidade":"Campo Grande","color":"red","tecnologia":"HFC","longitude":"-54.629463"},{"name":"Ananindeua, PA <br> HFC","uf":"PA","latitude":"-1.363914","cidade":"Ananindeua","color":"red","tecnologia":"HFC","longitude":"-48.374298"},{"name":"Cabedelo, PB <br> HFC","uf":"PB","latitude":"-6.987314","cidade":"Cabedelo","color":"red","tecnologia":"HFC","longitude":"-34.828409"},{"name":"Olinda, PE <br> HFC","uf":"PE","latitude":"-8.010166","cidade":"Olinda","color":"red","tecnologia":"HFC","longitude":"-34.854504"},{"name":"Paulista, PE <br> HFC","uf":"PE","latitude":"-7.934007","cidade":"Paulista","color":"red","tecnologia":"HFC","longitude":"-34.868407"},{"name":"Recife, PE <br> HFC","uf":"PE","latitude":"-8.046658","cidade":"Recife","color":"red","tecnologia":"HFC","longitude":"-34.877065"},{"name":"Arapongas, PR <br> HFC","uf":"PR","latitude":"-23.415296","cidade":"Arapongas","color":"red","tecnologia":"HFC","longitude":"-51.42592"},{"name":"Campo Largo, PR <br> HFC","uf":"PR","latitude":"-25.452535","cidade":"Campo Largo","color":"red","tecnologia":"HFC","longitude":"-49.529026"},{"name":"Colombo, PR <br> HFC","uf":"PR","latitude":"-25.292487","cidade":"Colombo","color":"red","tecnologia":"HFC","longitude":"-49.22616"},{"name":"Curitiba, PR <br> HFC","uf":"PR","latitude":"-25.419547","cidade":"Curitiba","color":"red","tecnologia":"HFC","longitude":"-49.264622"},{"name":"Pinhais, PR <br> HFC","uf":"PR","latitude":"-25.442949","cidade":"Pinhais","color":"red","tecnologia":"HFC","longitude":"-49.19267"},{"name":"Rio de Janeiro, RJ <br> HFC","uf":"RJ","latitude":"-22.912897","cidade":"Rio de Janeiro","color":"red","tecnologia":"HFC","longitude":"-43.200295"},{"name":"Natal, RN <br> HFC","uf":"RN","latitude":"-5.793567","cidade":"Natal","color":"red","tecnologia":"HFC","longitude":"-35.198604"},{"name":"Porto Velho, RO <br> HFC","uf":"RO","latitude":"-8.760772","cidade":"Porto Velho","color":"red","tecnologia":"HFC","longitude":"-63.899902"},{"name":"Alvorada, RS <br> HFC","uf":"RS","latitude":"-29.9914","cidade":"Alvorada","color":"red","tecnologia":"HFC","longitude":"-51.080857"},{"name":"Cachoeirinha, RS <br> HFC","uf":"RS","latitude":"-29.947222","cidade":"Cachoeirinha","color":"red","tecnologia":"HFC","longitude":"-51.101606"},{"name":"Canoas, RS <br> HFC","uf":"RS","latitude":"-29.912758","cidade":"Canoas","color":"red","tecnologia":"HFC","longitude":"-51.185681"},{"name":"Caxias do Sul, RS <br> HFC","uf":"RS","latitude":"-29.162905","cidade":"Caxias do Sul","color":"red","tecnologia":"HFC","longitude":"-51.179161"},{"name":"Esteio, RS <br> HFC","uf":"RS","latitude":"-29.851963","cidade":"Esteio","color":"red","tecnologia":"HFC","longitude":"-51.184065"},{"name":"Farroupilha, RS <br> HFC","uf":"RS","latitude":"-29.222689","cidade":"Farroupilha","color":"red","tecnologia":"HFC","longitude":"-51.341853"},{"name":"Novo Hamburgo, RS <br> HFC","uf":"RS","latitude":"-29.687548","cidade":"Novo Hamburgo","color":"red","tecnologia":"HFC","longitude":"-51.132828"},{"name":"Porto Alegre, RS <br> HFC","uf":"RS","latitude":"-30.031771","cidade":"Porto Alegre","color":"red","tecnologia":"HFC","longitude":"-51.206533"},{"name":"Rio Grande, RS <br> HFC","uf":"RS","latitude":"-32.034875","cidade":"Rio Grande","color":"red","tecnologia":"HFC","longitude":"-52.10705"},{"name":"Sapucaia do Sul, RS <br> HFC","uf":"RS","latitude":"-29.827575","cidade":"Sapucaia do Sul","color":"red","tecnologia":"HFC","longitude":"-51.144975"},{"name":"Florianópolis, SC <br> HFC","uf":"SC","latitude":"-27.594486","cidade":"Florianópolis","color":"red","tecnologia":"HFC","longitude":"-48.547696"},{"name":"Joinville, SC <br> HFC","uf":"SC","latitude":"-26.304497","cidade":"Joinville","color":"red","tecnologia":"HFC","longitude":"-48.848675"},{"name":"Americana, SP <br> HFC","uf":"SP","latitude":"-22.73736","cidade":"Americana","color":"red","tecnologia":"HFC","longitude":"-47.333119"},{"name":"Araraquara, SP <br> HFC","uf":"SP","latitude":"-21.784511","cidade":"Araraquara","color":"red","tecnologia":"HFC","longitude":"-48.178014"},{"name":"Araras, SP <br> HFC","uf":"SP","latitude":"-22.357238","cidade":"Araras","color":"red","tecnologia":"HFC","longitude":"-47.384235"},{"name":"Atibaia, SP <br> HFC","uf":"SP","latitude":"-23.117059","cidade":"Atibaia","color":"red","tecnologia":"HFC","longitude":"-46.556262"},{"name":"Barueri, SP <br> HFC","uf":"SP","latitude":"-23.505689","cidade":"Barueri","color":"red","tecnologia":"HFC","longitude":"-46.879042"},{"name":"Bauru, SP <br> HFC","uf":"SP","latitude":"-22.324569","cidade":"Bauru","color":"red","tecnologia":"HFC","longitude":"-49.087142"},{"name":"Campinas, SP <br> HFC","uf":"SP","latitude":"-22.905346","cidade":"Campinas","color":"red","tecnologia":"HFC","longitude":"-47.06595"},{"name":"Capivari, SP <br> HFC","uf":"SP","latitude":"-22.995144","cidade":"Capivari","color":"red","tecnologia":"HFC","longitude":"-47.50715"},{"name":"Carapicuíba, SP <br> HFC","uf":"SP","latitude":"-23.523471","cidade":"Carapicuíba","color":"red","tecnologia":"HFC","longitude":"-46.840676"},{"name":"Cotia, SP <br> HFC","uf":"SP","latitude":"-23.602177","cidade":"Cotia","color":"red","tecnologia":"HFC","longitude":"-46.91902"},{"name":"Diadema, SP <br> HFC","uf":"SP","latitude":"-23.681347","cidade":"Diadema","color":"red","tecnologia":"HFC","longitude":"-46.62052"},{"name":"Elias Fausto, SP <br> HFC","uf":"SP","latitude":"-23.042822","cidade":"Elias Fausto","color":"red","tecnologia":"HFC","longitude":"-47.368153"},{"name":"Franca, SP <br> HFC","uf":"SP","latitude":"-20.53523","cidade":"Franca","color":"red","tecnologia":"HFC","longitude":"-47.403861"},{"name":"Guarulhos, SP <br> HFC","uf":"SP","latitude":"-23.453758","cidade":"Guarulhos","color":"red","tecnologia":"HFC","longitude":"-46.533347"},{"name":"Indaiatuba, SP <br> HFC","uf":"SP","latitude":"-23.081591","cidade":"Indaiatuba","color":"red","tecnologia":"HFC","longitude":"-47.210093"},{"name":"Itapevi, SP <br> HFC","uf":"SP","latitude":"-23.548774","cidade":"Itapevi","color":"red","tecnologia":"HFC","longitude":"-46.932747"},{"name":"Itu, SP <br> HFC","uf":"SP","latitude":"-23.254397","cidade":"Itu","color":"red","tecnologia":"HFC","longitude":"-47.292688"},{"name":"Jandira, SP <br> HFC","uf":"SP","latitude":"-23.527537","cidade":"Jandira","color":"red","tecnologia":"HFC","longitude":"-46.902314"},{"name":"Monte Mor, SP <br> HFC","uf":"SP","latitude":"-22.945043","cidade":"Monte Mor","color":"red","tecnologia":"HFC","longitude":"-47.312182"},{"name":"Osasco, SP <br> HFC","uf":"SP","latitude":"-23.53239","cidade":"Osasco","color":"red","tecnologia":"HFC","longitude":"-46.791555"},{"name":"Piracicaba, SP <br> HFC","uf":"SP","latitude":"-22.733801","cidade":"Piracicaba","color":"red","tecnologia":"HFC","longitude":"-47.647612"},{"name":"Porto Feliz, SP <br> HFC","uf":"SP","latitude":"-23.209318","cidade":"Porto Feliz","color":"red","tecnologia":"HFC","longitude":"-47.52512"},{"name":"Praia Grande, SP <br> HFC","uf":"SP","latitude":"-24.008378","cidade":"Praia Grande","color":"red","tecnologia":"HFC","longitude":"-46.412057"},{"name":"Rafard, SP <br> HFC","uf":"SP","latitude":"-23.010508","cidade":"Rafard","color":"red","tecnologia":"HFC","longitude":"-47.531795"},{"name":"Rio Claro, SP <br> HFC","uf":"SP","latitude":"-22.398378","cidade":"Rio Claro","color":"red","tecnologia":"HFC","longitude":"-47.554632"},{"name":"Salto, SP <br> HFC","uf":"SP","latitude":"-23.199592","cidade":"Salto","color":"red","tecnologia":"HFC","longitude":"-47.293087"},{"name":"Santos, SP <br> HFC","uf":"SP","latitude":"-23.953543","cidade":"Santos","color":"red","tecnologia":"HFC","longitude":"-46.335042"},{"name":"Sorocaba, SP <br> HFC","uf":"SP","latitude":"-23.496886","cidade":"Sorocaba","color":"red","tecnologia":"HFC","longitude":"-47.445073"},{"name":"Suzano, SP <br> HFC","uf":"SP","latitude":"-23.544828","cidade":"Suzano","color":"red","tecnologia":"HFC","longitude":"-46.311181"},{"name":"Valinhos, SP <br> HFC","uf":"SP","latitude":"-22.969805","cidade":"Valinhos","color":"red","tecnologia":"HFC","longitude":"-46.997367"},{"name":"Vargem Grande Paulista, SP <br> HFC","uf":"SP","latitude":"-23.599338","cidade":"Vargem Grande Paulista","color":"red","tecnologia":"HFC","longitude":"-47.022038"},{"name":"Vinhedo, SP <br> HFC","uf":"SP","latitude":"-23.030184","cidade":"Vinhedo","color":"red","tecnologia":"HFC","longitude":"-46.983312"},{"name":"Votorantim, SP <br> HFC","uf":"SP","latitude":"-23.54459","cidade":"Votorantim","color":"red","tecnologia":"HFC","longitude":"-47.438753"}]
