[{"latitude":"-9.754866","uf":"AL","color":"green","longitude":"-36.661471","cidade":"Arapiraca","name":"Arapiraca, AL <br> GPON","tecnologia":"GPON"},{"latitude":"-16.651708","uf":"GO","color":"green","longitude":"-49.492667","cidade":"Trindade","name":"Trindade, GO <br> GPON","tecnologia":"GPON"},{"latitude":"-19.590176","uf":"MG","color":"green","longitude":"-46.943804","cidade":"Araxá","name":"Araxá, MG <br> GPON","tecnologia":"GPON"},{"latitude":"-22.422481","uf":"MG","color":"green","longitude":"-45.459818","cidade":"Itajubá","name":"Itajubá, MG <br> GPON","tecnologia":"GPON"},{"latitude":"-22.158462","uf":"RJ","color":"green","longitude":"-43.304004","cidade":"Paraíba Do Sul","name":"Paraíba Do Sul, RJ <br> GPON","tecnologia":"GPON"},{"latitude":"-10.877741","uf":"RO","color":"green","longitude":"-61.932152","cidade":"Ji-Paraná","name":"Ji-Paraná, RO <br> GPON","tecnologia":"GPON"},{"latitude":"-30.848897","uf":"RS","color":"green","longitude":"-51.80431","cidade":"Camaquã","name":"Camaquã, RS <br> GPON","tecnologia":"GPON"},{"latitude":"-29.58356","uf":"RS","color":"green","longitude":"-51.089776","cidade":"Dois Irmãos","name":"Dois Irmãos, RS <br> GPON","tecnologia":"GPON"},{"latitude":"-28.449754","uf":"RS","color":"green","longitude":"-52.198625","cidade":"Marau","name":"Marau, RS <br> GPON","tecnologia":"GPON"},{"latitude":"-28.507868","uf":"RS","color":"green","longitude":"-50.941791","cidade":"Vacaria","name":"Vacaria, RS <br> GPON","tecnologia":"GPON"},{"latitude":"-28.713206","uf":"SC","color":"green","longitude":"-49.308654","cidade":"Içara","name":"Içara, SC <br> GPON","tecnologia":"GPON"},{"latitude":"-22.469433","uf":"SP","color":"green","longitude":"-48.98632","cidade":"Agudos","name":"Agudos, SP <br> GPON","tecnologia":"GPON"},{"latitude":"-21.77081","uf":"SP","color":"green","longitude":"-47.085245","cidade":"Casa Branca","name":"Casa Branca, SP <br> GPON","tecnologia":"GPON"},{"latitude":"-21.958358","uf":"SP","color":"green","longitude":"-47.988211","cidade":"Ibaté","name":"Ibaté, SP <br> GPON","tecnologia":"GPON"},{"latitude":"-22.70374","uf":"SP","color":"green","longitude":"-46.985062","cidade":"Jaguariúna","name":"Jaguariúna, SP <br> GPON","tecnologia":"GPON"},{"latitude":"-23.713941","uf":"SP","color":"green","longitude":"-47.425572","cidade":"Piedade","name":"Piedade, SP <br> GPON","tecnologia":"GPON"},{"latitude":"-21.823475","uf":"SP","color":"green","longitude":"-47.248023","cidade":"Santa Cruz das Palmeiras","name":"Santa Cruz das Palmeiras, SP <br> GPON","tecnologia":"GPON"},{"latitude":"-21.70292","uf":"SP","color":"green","longitude":"-47.270344","cidade":"Tambaú","name":"Tambaú, SP <br> GPON","tecnologia":"GPON"},{"latitude":"-7.192375","uf":"TO","color":"green","longitude":"-48.204402","cidade":"Araguaína","name":"Araguaína, TO <br> GPON","tecnologia":"GPON"},{"latitude":"-11.72794","uf":"TO","color":"green","longitude":"-49.068046","cidade":"Gurupi","name":"Gurupi, TO <br> GPON","tecnologia":"GPON"},{"latitude":"0.034934","uf":"AP","color":"green","longitude":"-51.069395","cidade":"Macapá","name":"Macapá, AP <br> GPON","tecnologia":"GPON"},{"latitude":"-0.045434","uf":"AP","color":"green","longitude":"-51.172924","cidade":"Santana","name":"Santana, AP <br> GPON","tecnologia":"GPON"},{"latitude":"-12.133526","uf":"BA","color":"green","longitude":"-38.420772","cidade":"Alagoinhas","name":"Alagoinhas, BA <br> GPON","tecnologia":"GPON"},{"latitude":"-12.143864","uf":"BA","color":"green","longitude":"-44.996838","cidade":"Barreiras","name":"Barreiras, BA <br> GPON","tecnologia":"GPON"},{"latitude":"-12.699638","uf":"BA","color":"green","longitude":"-38.326265","cidade":"Camaçari","name":"Camaçari, BA <br> GPON","tecnologia":"GPON"},{"latitude":"-16.371498","uf":"BA","color":"green","longitude":"-39.582122","cidade":"Eunápolis","name":"Eunápolis, BA <br> GPON","tecnologia":"GPON"},{"latitude":"-12.266429","uf":"BA","color":"green","longitude":"-38.966293","cidade":"Feira de Santana","name":"Feira de Santana, BA <br> GPON","tecnologia":"GPON"},{"latitude":"-14.793045","uf":"BA","color":"green","longitude":"-39.04602","cidade":"Ilhéus","name":"Ilhéus, BA <br> GPON","tecnologia":"GPON"},{"latitude":"-14.787573","uf":"BA","color":"green","longitude":"-39.278056","cidade":"Itabuna","name":"Itabuna, BA <br> GPON","tecnologia":"GPON"},{"latitude":"-13.850888","uf":"BA","color":"green","longitude":"-40.087704","cidade":"Jequié","name":"Jequié, BA <br> GPON","tecnologia":"GPON"},{"latitude":"-9.416217","uf":"BA","color":"green","longitude":"-40.503251","cidade":"Juazeiro","name":"Juazeiro, BA <br> GPON","tecnologia":"GPON"},{"latitude":"-12.530685","uf":"BA","color":"green","longitude":"-38.300898","cidade":"Mata de São João","name":"Mata de São João, BA <br> GPON","tecnologia":"GPON"},{"latitude":"-16.443473","uf":"BA","color":"green","longitude":"-39.064251","cidade":"Porto Seguro","name":"Porto Seguro, BA <br> GPON","tecnologia":"GPON"},{"latitude":"-17.539915","uf":"BA","color":"green","longitude":"-39.739962","cidade":"Teixeira de Freitas","name":"Teixeira de Freitas, BA <br> GPON","tecnologia":"GPON"},{"latitude":"-3.899293","uf":"CE","color":"green","longitude":"-38.389563","cidade":"Aquiraz","name":"Aquiraz, CE <br> GPON","tecnologia":"GPON"},{"latitude":"-3.892501","uf":"CE","color":"green","longitude":"-38.455875","cidade":"Eusébio","name":"Eusébio, CE <br> GPON","tecnologia":"GPON"},{"latitude":"-7.196207","uf":"CE","color":"green","longitude":"-39.307593","cidade":"Juazeiro do Norte","name":"Juazeiro do Norte, CE <br> GPON","tecnologia":"GPON"},{"latitude":"-3.689133","uf":"CE","color":"green","longitude":"-40.34821","cidade":"Sobral","name":"Sobral, CE <br> GPON","tecnologia":"GPON"},{"latitude":"-19.820045","uf":"ES","color":"green","longitude":"-40.276441","cidade":"Aracruz","name":"Aracruz, ES <br> GPON","tecnologia":"GPON"},{"latitude":"-19.549316","uf":"ES","color":"green","longitude":"-40.626898","cidade":"Colatina","name":"Colatina, ES <br> GPON","tecnologia":"GPON"},{"latitude":"-17.74406","uf":"GO","color":"green","longitude":"-48.624579","cidade":"Caldas Novas","name":"Caldas Novas, GO <br> GPON","tecnologia":"GPON"},{"latitude":"-15.539991","uf":"GO","color":"green","longitude":"-47.336999","cidade":"Formosa","name":"Formosa, GO <br> GPON","tecnologia":"GPON"},{"latitude":"-18.409267","uf":"GO","color":"green","longitude":"-49.215845","cidade":"Itumbiara","name":"Itumbiara, GO <br> GPON","tecnologia":"GPON"},{"latitude":"-17.878383","uf":"GO","color":"green","longitude":"-51.720424","cidade":"Jataí","name":"Jataí, GO <br> GPON","tecnologia":"GPON"},{"latitude":"-17.792266","uf":"GO","color":"green","longitude":"-50.919195","cidade":"Rio Verde","name":"Rio Verde, GO <br> GPON","tecnologia":"GPON"},{"latitude":"-17.81152","uf":"GO","color":"green","longitude":"-50.597664","cidade":"Santa Helena de Goiás","name":"Santa Helena de Goiás, GO <br> GPON","tecnologia":"GPON"},{"latitude":"-16.708401","uf":"GO","color":"green","longitude":"-49.091398","cidade":"Senador Canedo","name":"Senador Canedo, GO <br> GPON","tecnologia":"GPON"},{"latitude":"-16.065078","uf":"GO","color":"green","longitude":"-47.975675","cidade":"Valparaíso de Goiás","name":"Valparaíso de Goiás, GO <br> GPON","tecnologia":"GPON"},{"latitude":"-4.865053","uf":"MA","color":"green","longitude":"-43.361749","cidade":"Caxias","name":"Caxias, MA <br> GPON","tecnologia":"GPON"},{"latitude":"-5.518471","uf":"MA","color":"green","longitude":"-47.477726","cidade":"Imperatriz","name":"Imperatriz, MA <br> GPON","tecnologia":"GPON"},{"latitude":"-5.097692","uf":"MA","color":"green","longitude":"-42.83292","cidade":"Timon","name":"Timon, MA <br> GPON","tecnologia":"GPON"},{"latitude":"-18.645575","uf":"MG","color":"green","longitude":"-48.193392","cidade":"Araguari","name":"Araguari, MG <br> GPON","tecnologia":"GPON"},{"latitude":"-21.221446","uf":"MG","color":"green","longitude":"-43.770266","cidade":"Barbacena","name":"Barbacena, MG <br> GPON","tecnologia":"GPON"},{"latitude":"-21.39239","uf":"MG","color":"green","longitude":"-42.689647","cidade":"Cataguases","name":"Cataguases, MG <br> GPON","tecnologia":"GPON"},{"latitude":"-20.663445","uf":"MG","color":"green","longitude":"-43.784609","cidade":"Conselheiro Lafaiete","name":"Conselheiro Lafaiete, MG <br> GPON","tecnologia":"GPON"},{"latitude":"-19.517879","uf":"MG","color":"green","longitude":"-42.627585","cidade":"Coronel Fabriciano","name":"Coronel Fabriciano, MG <br> GPON","tecnologia":"GPON"},{"latitude":"-20.144646","uf":"MG","color":"green","longitude":"-44.891223","cidade":"Divinópolis","name":"Divinópolis, MG <br> GPON","tecnologia":"GPON"},{"latitude":"-19.623936","uf":"MG","color":"green","longitude":"-43.23123","cidade":"Itabira","name":"Itabira, MG <br> GPON","tecnologia":"GPON"},{"latitude":"-20.081798","uf":"MG","color":"green","longitude":"-44.580112","cidade":"Itaúna","name":"Itaúna, MG <br> GPON","tecnologia":"GPON"},{"latitude":"-18.977191","uf":"MG","color":"green","longitude":"-49.463945","cidade":"Ituiutaba","name":"Ituiutaba, MG <br> GPON","tecnologia":"GPON"},{"latitude":"-19.63967","uf":"MG","color":"green","longitude":"-43.893216","cidade":"Lagoa Santa","name":"Lagoa Santa, MG <br> GPON","tecnologia":"GPON"},{"latitude":"-21.248002","uf":"MG","color":"green","longitude":"-45.000949","cidade":"Lavras","name":"Lavras, MG <br> GPON","tecnologia":"GPON"},{"latitude":"-20.257226","uf":"MG","color":"green","longitude":"-42.027987","cidade":"Manhuaçu","name":"Manhuaçu, MG <br> GPON","tecnologia":"GPON"},{"latitude":"-16.728177","uf":"MG","color":"green","longitude":"-43.857809","cidade":"Montes Claros","name":"Montes Claros, MG <br> GPON","tecnologia":"GPON"},{"latitude":"-19.853441","uf":"MG","color":"green","longitude":"-44.611355","cidade":"Pará de Minas","name":"Pará de Minas, MG <br> GPON","tecnologia":"GPON"},{"latitude":"-18.569938","uf":"MG","color":"green","longitude":"-46.501268","cidade":"Patos de Minas","name":"Patos de Minas, MG <br> GPON","tecnologia":"GPON"},{"latitude":"-21.779975","uf":"MG","color":"green","longitude":"-46.569184","cidade":"Poços de Caldas","name":"Poços de Caldas, MG <br> GPON","tecnologia":"GPON"},{"latitude":"-22.22659","uf":"MG","color":"green","longitude":"-45.938935","cidade":"Pouso Alegre","name":"Pouso Alegre, MG <br> GPON","tecnologia":"GPON"},{"latitude":"-19.754824","uf":"MG","color":"green","longitude":"-43.849658","cidade":"Santa Luzia","name":"Santa Luzia, MG <br> GPON","tecnologia":"GPON"},{"latitude":"-21.131054","uf":"MG","color":"green","longitude":"-44.252646","cidade":"São João Del Rei","name":"São João Del Rei, MG <br> GPON","tecnologia":"GPON"},{"latitude":"-19.581086","uf":"MG","color":"green","longitude":"-42.64713","cidade":"Timóteo","name":"Timóteo, MG <br> GPON","tecnologia":"GPON"},{"latitude":"-21.692091","uf":"MG","color":"green","longitude":"-45.251117","cidade":"Três Corações","name":"Três Corações, MG <br> GPON","tecnologia":"GPON"},{"latitude":"-21.120444","uf":"MG","color":"green","longitude":"-42.935931","cidade":"Ubá","name":"Ubá, MG <br> GPON","tecnologia":"GPON"},{"latitude":"-19.688326","uf":"MG","color":"green","longitude":"-43.9239","cidade":"Vespasiano","name":"Vespasiano, MG <br> GPON","tecnologia":"GPON"},{"latitude":"-20.755916","uf":"MG","color":"green","longitude":"-42.87417","cidade":"Viçosa","name":"Viçosa, MG <br> GPON","tecnologia":"GPON"},{"latitude":"-23.06181","uf":"MS","color":"green","longitude":"-54.199465","cidade":"Naviraí","name":"Naviraí, MS <br> GPON","tecnologia":"GPON"},{"latitude":"-22.529617","uf":"MS","color":"green","longitude":"-55.720326","cidade":"Ponta Porã","name":"Ponta Porã, MS <br> GPON","tecnologia":"GPON"},{"latitude":"-20.784853","uf":"MS","color":"green","longitude":"-51.700731","cidade":"Três Lagoas","name":"Três Lagoas, MS <br> GPON","tecnologia":"GPON"},{"latitude":"-13.058796","uf":"MT","color":"green","longitude":"-55.904202","cidade":"Lucas do Rio Verde","name":"Lucas do Rio Verde, MT <br> GPON","tecnologia":"GPON"},{"latitude":"-13.837389","uf":"MT","color":"green","longitude":"-56.074316","cidade":"Nova Mutum","name":"Nova Mutum, MT <br> GPON","tecnologia":"GPON"},{"latitude":"-11.86043","uf":"MT","color":"green","longitude":"-55.509062","cidade":"Sinop","name":"Sinop, MT <br> GPON","tecnologia":"GPON"},{"latitude":"-12.542527","uf":"MT","color":"green","longitude":"-55.721051","cidade":"Sorriso","name":"Sorriso, MT <br> GPON","tecnologia":"GPON"},{"latitude":"-1.297971","uf":"PA","color":"green","longitude":"-47.916742","cidade":"Castanhal","name":"Castanhal, PA <br> GPON","tecnologia":"GPON"},{"latitude":"-5.38075","uf":"PA","color":"green","longitude":"-49.132672","cidade":"Marabá","name":"Marabá, PA <br> GPON","tecnologia":"GPON"},{"latitude":"-3.002116","uf":"PA","color":"green","longitude":"-47.352692","cidade":"Paragominas","name":"Paragominas, PA <br> GPON","tecnologia":"GPON"},{"latitude":"-6.067812","uf":"PA","color":"green","longitude":"-49.903733","cidade":"Parauapebas","name":"Parauapebas, PA <br> GPON","tecnologia":"GPON"},{"latitude":"-9.388662","uf":"PE","color":"green","longitude":"-40.502731","cidade":"Petrolina","name":"Petrolina, PE <br> GPON","tecnologia":"GPON"},{"latitude":"-2.905847","uf":"PI","color":"green","longitude":"-41.775388","cidade":"Parnaíba","name":"Parnaíba, PI <br> GPON","tecnologia":"GPON"},{"latitude":"-23.549961","uf":"PR","color":"green","longitude":"-51.463486","cidade":"Apucarana","name":"Apucarana, PR <br> GPON","tecnologia":"GPON"},{"latitude":"-23.276575","uf":"PR","color":"green","longitude":"-51.279832","cidade":"Cambé","name":"Cambé, PR <br> GPON","tecnologia":"GPON"},{"latitude":"-25.516078","uf":"PR","color":"green","longitude":"-48.522528","cidade":"Paranaguá","name":"Paranaguá, PR <br> GPON","tecnologia":"GPON"},{"latitude":"-23.31012","uf":"PR","color":"green","longitude":"-51.365928","cidade":"Rolândia","name":"Rolândia, PR <br> GPON","tecnologia":"GPON"},{"latitude":"-22.752846","uf":"RJ","color":"green","longitude":"-41.884559","cidade":"Armação Dos Búzios","name":"Armação Dos Búzios, RJ <br> GPON","tecnologia":"GPON"},{"latitude":"-22.88943","uf":"RJ","color":"green","longitude":"-42.028595","cidade":"Cabo Frio","name":"Cabo Frio, RJ <br> GPON","tecnologia":"GPON"},{"latitude":"-22.863566","uf":"RJ","color":"green","longitude":"-43.779821","cidade":"Itaguaí","name":"Itaguaí, RJ <br> GPON","tecnologia":"GPON"},{"latitude":"-22.457242","uf":"RJ","color":"green","longitude":"-43.480275","cidade":"Miguel Pereira","name":"Miguel Pereira, RJ <br> GPON","tecnologia":"GPON"},{"latitude":"-22.293224","uf":"RJ","color":"green","longitude":"-42.537692","cidade":"Nova Friburgo","name":"Nova Friburgo, RJ <br> GPON","tecnologia":"GPON"},{"latitude":"-22.842859","uf":"RJ","color":"green","longitude":"-42.102596","cidade":"São Pedro da Aldeia","name":"São Pedro da Aldeia, RJ <br> GPON","tecnologia":"GPON"},{"latitude":"-22.11651","uf":"RJ","color":"green","longitude":"-43.218533","cidade":"Três Rios","name":"Três Rios, RJ <br> GPON","tecnologia":"GPON"},{"latitude":"-22.244496","uf":"RJ","color":"green","longitude":"-43.71288","cidade":"Valença","name":"Valença, RJ <br> GPON","tecnologia":"GPON"},{"latitude":"-22.405889","uf":"RJ","color":"green","longitude":"-43.668555","cidade":"Vassouras","name":"Vassouras, RJ <br> GPON","tecnologia":"GPON"},{"latitude":"-5.183737","uf":"RN","color":"green","longitude":"-37.347446","cidade":"Mossoró","name":"Mossoró, RN <br> GPON","tecnologia":"GPON"},{"latitude":"-9.905711","uf":"RO","color":"green","longitude":"-63.032516","cidade":"Ariquemes","name":"Ariquemes, RO <br> GPON","tecnologia":"GPON"},{"latitude":"-11.434271","uf":"RO","color":"green","longitude":"-61.456167","cidade":"Cacoal","name":"Cacoal, RO <br> GPON","tecnologia":"GPON"},{"latitude":"-12.750183","uf":"RO","color":"green","longitude":"-60.148847","cidade":"Vilhena","name":"Vilhena, RO <br> GPON","tecnologia":"GPON"},{"latitude":"-29.790166","uf":"RS","color":"green","longitude":"-55.794862","cidade":"Alegrete","name":"Alegrete, RS <br> GPON","tecnologia":"GPON"},{"latitude":"-29.401353","uf":"RS","color":"green","longitude":"-51.955735","cidade":"Arroio do Meio","name":"Arroio do Meio, RS <br> GPON","tecnologia":"GPON"},{"latitude":"-30.032988","uf":"RS","color":"green","longitude":"-52.892756","cidade":"Cachoeira do Sul","name":"Cachoeira do Sul, RS <br> GPON","tecnologia":"GPON"},{"latitude":"-29.355993","uf":"RS","color":"green","longitude":"-50.811921","cidade":"Canela","name":"Canela, RS <br> GPON","tecnologia":"GPON"},{"latitude":"-28.295844","uf":"RS","color":"green","longitude":"-52.79326","cidade":"Carazinho","name":"Carazinho, RS <br> GPON","tecnologia":"GPON"},{"latitude":"-29.296949","uf":"RS","color":"green","longitude":"-51.502847","cidade":"Carlos Barbosa","name":"Carlos Barbosa, RS <br> GPON","tecnologia":"GPON"},{"latitude":"-29.962478","uf":"RS","color":"green","longitude":"-51.628872","cidade":"Charqueadas","name":"Charqueadas, RS <br> GPON","tecnologia":"GPON"},{"latitude":"-30.084676","uf":"RS","color":"green","longitude":"-51.618702","cidade":"Eldorado do Sul","name":"Eldorado do Sul, RS <br> GPON","tecnologia":"GPON"},{"latitude":"-29.235141","uf":"RS","color":"green","longitude":"-51.870282","cidade":"Encantado","name":"Encantado, RS <br> GPON","tecnologia":"GPON"},{"latitude":"-29.500207","uf":"RS","color":"green","longitude":"-51.949508","cidade":"Estrela","name":"Estrela, RS <br> GPON","tecnologia":"GPON"},{"latitude":"-27.358644","uf":"RS","color":"green","longitude":"-53.395824","cidade":"Frederico Westphalen","name":"Frederico Westphalen, RS <br> GPON","tecnologia":"GPON"},{"latitude":"-29.258979","uf":"RS","color":"green","longitude":"-51.535179","cidade":"Garibaldi","name":"Garibaldi, RS <br> GPON","tecnologia":"GPON"},{"latitude":"-29.373351","uf":"RS","color":"green","longitude":"-50.876164","cidade":"Gramado","name":"Gramado, RS <br> GPON","tecnologia":"GPON"},{"latitude":"-30.108592","uf":"RS","color":"green","longitude":"-51.323314","cidade":"Guaíba","name":"Guaíba, RS <br> GPON","tecnologia":"GPON"},{"latitude":"-29.569318","uf":"RS","color":"green","longitude":"-50.791894","cidade":"Igrejinha","name":"Igrejinha, RS <br> GPON","tecnologia":"GPON"},{"latitude":"-29.975269","uf":"RS","color":"green","longitude":"-50.128068","cidade":"Imbé","name":"Imbé, RS <br> GPON","tecnologia":"GPON"},{"latitude":"-29.131051","uf":"RS","color":"green","longitude":"-56.551478","cidade":"Itaqui","name":"Itaqui, RS <br> GPON","tecnologia":"GPON"},{"latitude":"-29.599463","uf":"RS","color":"green","longitude":"-51.153326","cidade":"Ivoti","name":"Ivoti, RS <br> GPON","tecnologia":"GPON"},{"latitude":"-29.682414","uf":"RS","color":"green","longitude":"-51.467903","cidade":"Montenegro","name":"Montenegro, RS <br> GPON","tecnologia":"GPON"},{"latitude":"-29.374112","uf":"RS","color":"green","longitude":"-51.113552","cidade":"Nova Petrópolis","name":"Nova Petrópolis, RS <br> GPON","tecnologia":"GPON"},{"latitude":"-29.888089","uf":"RS","color":"green","longitude":"-50.266713","cidade":"Osório","name":"Osório, RS <br> GPON","tecnologia":"GPON"},{"latitude":"-27.900652","uf":"RS","color":"green","longitude":"-53.313378","cidade":"Palmeira Das Missões","name":"Palmeira Das Missões, RS <br> GPON","tecnologia":"GPON"},{"latitude":"-28.283328","uf":"RS","color":"green","longitude":"-53.502261","cidade":"Panambi","name":"Panambi, RS <br> GPON","tecnologia":"GPON"},{"latitude":"-29.624257","uf":"RS","color":"green","longitude":"-50.83118","cidade":"Parobé","name":"Parobé, RS <br> GPON","tecnologia":"GPON"},{"latitude":"-29.98803","uf":"RS","color":"green","longitude":"-52.37113","cidade":"Rio Pardo","name":"Rio Pardo, RS <br> GPON","tecnologia":"GPON"},{"latitude":"-30.251483","uf":"RS","color":"green","longitude":"-54.922106","cidade":"Rosário do Sul","name":"Rosário do Sul, RS <br> GPON","tecnologia":"GPON"},{"latitude":"-27.8702","uf":"RS","color":"green","longitude":"-54.479629","cidade":"Santa Rosa","name":"Santa Rosa, RS <br> GPON","tecnologia":"GPON"},{"latitude":"-30.88772","uf":"RS","color":"green","longitude":"-55.531467","cidade":"Santana do Livramento","name":"Santana do Livramento, RS <br> GPON","tecnologia":"GPON"},{"latitude":"-28.300128","uf":"RS","color":"green","longitude":"-54.266781","cidade":"Santo Ângelo","name":"Santo Ângelo, RS <br> GPON","tecnologia":"GPON"},{"latitude":"-28.657828","uf":"RS","color":"green","longitude":"-56.003603","cidade":"São Borja","name":"São Borja, RS <br> GPON","tecnologia":"GPON"},{"latitude":"-30.333688","uf":"RS","color":"green","longitude":"-54.321657","cidade":"São Gabriel","name":"São Gabriel, RS <br> GPON","tecnologia":"GPON"},{"latitude":"-31.356374","uf":"RS","color":"green","longitude":"-51.971531","cidade":"São Lourenço do Sul","name":"São Lourenço do Sul, RS <br> GPON","tecnologia":"GPON"},{"latitude":"-28.412032","uf":"RS","color":"green","longitude":"-54.955942","cidade":"São Luiz Gonzaga","name":"São Luiz Gonzaga, RS <br> GPON","tecnologia":"GPON"},{"latitude":"-29.650471","uf":"RS","color":"green","longitude":"-50.775278","cidade":"Taquara","name":"Taquara, RS <br> GPON","tecnologia":"GPON"},{"latitude":"-29.448205","uf":"RS","color":"green","longitude":"-51.804375","cidade":"Teutônia","name":"Teutônia, RS <br> GPON","tecnologia":"GPON"},{"latitude":"-29.333438","uf":"RS","color":"green","longitude":"-49.733289","cidade":"Torres","name":"Torres, RS <br> GPON","tecnologia":"GPON"},{"latitude":"-29.98414","uf":"RS","color":"green","longitude":"-50.132187","cidade":"Tramandaí","name":"Tramandaí, RS <br> GPON","tecnologia":"GPON"},{"latitude":"-29.513719","uf":"RS","color":"green","longitude":"-50.773869","cidade":"Três Coroas","name":"Três Coroas, RS <br> GPON","tecnologia":"GPON"},{"latitude":"-29.614306","uf":"RS","color":"green","longitude":"-52.193159","cidade":"Venâncio Aires","name":"Venâncio Aires, RS <br> GPON","tecnologia":"GPON"},{"latitude":"-29.718435","uf":"RS","color":"green","longitude":"-52.515176","cidade":"Vera Cruz","name":"Vera Cruz, RS <br> GPON","tecnologia":"GPON"},{"latitude":"-28.931197","uf":"RS","color":"green","longitude":"-51.551614","cidade":"Veranópolis","name":"Veranópolis, RS <br> GPON","tecnologia":"GPON"},{"latitude":"-28.935615","uf":"SC","color":"green","longitude":"-49.491809","cidade":"Araranguá","name":"Araranguá, SC <br> GPON","tecnologia":"GPON"},{"latitude":"-27.496004","uf":"SC","color":"green","longitude":"-48.65979","cidade":"Biguaçu","name":"Biguaçu, SC <br> GPON","tecnologia":"GPON"},{"latitude":"-26.77567","uf":"SC","color":"green","longitude":"-51.012004","cidade":"Caçador","name":"Caçador, SC <br> GPON","tecnologia":"GPON"},{"latitude":"-27.024078","uf":"SC","color":"green","longitude":"-48.650338","cidade":"Camboriú","name":"Camboriú, SC <br> GPON","tecnologia":"GPON"},{"latitude":"-27.233461","uf":"SC","color":"green","longitude":"-52.025962","cidade":"Concórdia","name":"Concórdia, SC <br> GPON","tecnologia":"GPON"},{"latitude":"-27.023288","uf":"SC","color":"green","longitude":"-50.919978","cidade":"Fraiburgo","name":"Fraiburgo, SC <br> GPON","tecnologia":"GPON"},{"latitude":"-26.933597","uf":"SC","color":"green","longitude":"-48.953428","cidade":"Gaspar","name":"Gaspar, SC <br> GPON","tecnologia":"GPON"},{"latitude":"-26.468753","uf":"SC","color":"green","longitude":"-49.002628","cidade":"Guaramirim","name":"Guaramirim, SC <br> GPON","tecnologia":"GPON"},{"latitude":"-26.899247","uf":"SC","color":"green","longitude":"-49.235417","cidade":"Indaial","name":"Indaial, SC <br> GPON","tecnologia":"GPON"},{"latitude":"-26.485083","uf":"SC","color":"green","longitude":"-49.07125","cidade":"Jaraguá do Sul","name":"Jaraguá do Sul, SC <br> GPON","tecnologia":"GPON"},{"latitude":"-27.172105","uf":"SC","color":"green","longitude":"-51.510788","cidade":"Joaçaba","name":"Joaçaba, SC <br> GPON","tecnologia":"GPON"},{"latitude":"-27.814966","uf":"SC","color":"green","longitude":"-50.325862","cidade":"Lages","name":"Lages, SC <br> GPON","tecnologia":"GPON"},{"latitude":"-26.115935","uf":"SC","color":"green","longitude":"-49.808624","cidade":"Mafra","name":"Mafra, SC <br> GPON","tecnologia":"GPON"},{"latitude":"-27.215596","uf":"SC","color":"green","longitude":"-49.643016","cidade":"Rio do Sul","name":"Rio do Sul, SC <br> GPON","tecnologia":"GPON"},{"latitude":"-26.259075","uf":"SC","color":"green","longitude":"-49.517746","cidade":"Rio Negrinho","name":"Rio Negrinho, SC <br> GPON","tecnologia":"GPON"},{"latitude":"-26.249542","uf":"SC","color":"green","longitude":"-49.383077","cidade":"São Bento do Sul","name":"São Bento do Sul, SC <br> GPON","tecnologia":"GPON"},{"latitude":"-26.257917","uf":"SC","color":"green","longitude":"-48.634372","cidade":"São Francisco do Sul","name":"São Francisco do Sul, SC <br> GPON","tecnologia":"GPON"},{"latitude":"-26.82464","uf":"SC","color":"green","longitude":"-49.269039","cidade":"Timbó","name":"Timbó, SC <br> GPON","tecnologia":"GPON"},{"latitude":"-28.47131","uf":"SC","color":"green","longitude":"-49.014371","cidade":"Tubarão","name":"Tubarão, SC <br> GPON","tecnologia":"GPON"},{"latitude":"-27.008624","uf":"SC","color":"green","longitude":"-51.154274","cidade":"Videira","name":"Videira, SC <br> GPON","tecnologia":"GPON"},{"latitude":"-26.874694","uf":"SC","color":"green","longitude":"-52.403579","cidade":"Xanxerê","name":"Xanxerê, SC <br> GPON","tecnologia":"GPON"},{"latitude":"-26.959643","uf":"SC","color":"green","longitude":"-52.537446","cidade":"Xaxim","name":"Xaxim, SC <br> GPON","tecnologia":"GPON"},{"latitude":"-21.682012","uf":"SP","color":"green","longitude":"-51.073695","cidade":"Adamantina","name":"Adamantina, SP <br> GPON","tecnologia":"GPON"},{"latitude":"-23.530553","uf":"SP","color":"green","longitude":"-47.254571","cidade":"Alumínio","name":"Alumínio, SP <br> GPON","tecnologia":"GPON"},{"latitude":"-22.076415","uf":"SP","color":"green","longitude":"-51.47224","cidade":"Álvares Machado","name":"Álvares Machado, SP <br> GPON","tecnologia":"GPON"},{"latitude":"-21.728771","uf":"SP","color":"green","longitude":"-48.11467","cidade":"Américo Brasiliense","name":"Américo Brasiliense, SP <br> GPON","tecnologia":"GPON"},{"latitude":"-22.70879","uf":"SP","color":"green","longitude":"-46.772022","cidade":"Amparo","name":"Amparo, SP <br> GPON","tecnologia":"GPON"},{"latitude":"-20.894761","uf":"SP","color":"green","longitude":"-51.378568","cidade":"Andradina","name":"Andradina, SP <br> GPON","tecnologia":"GPON"},{"latitude":"-23.396476","uf":"SP","color":"green","longitude":"-46.319983","cidade":"Arujá","name":"Arujá, SP <br> GPON","tecnologia":"GPON"},{"latitude":"-23.106732","uf":"SP","color":"green","longitude":"-48.925052","cidade":"Avaré","name":"Avaré, SP <br> GPON","tecnologia":"GPON"},{"latitude":"-20.919689","uf":"SP","color":"green","longitude":"-49.4385","cidade":"Bady Bassitt","name":"Bady Bassitt, SP <br> GPON","tecnologia":"GPON"},{"latitude":"-20.553146","uf":"SP","color":"green","longitude":"-48.569832","cidade":"Barretos","name":"Barretos, SP <br> GPON","tecnologia":"GPON"},{"latitude":"-21.186374","uf":"SP","color":"green","longitude":"-48.163614","cidade":"Barrinha","name":"Barrinha, SP <br> GPON","tecnologia":"GPON"},{"latitude":"-20.892867","uf":"SP","color":"green","longitude":"-47.592149","cidade":"Batatais","name":"Batatais, SP <br> GPON","tecnologia":"GPON"},{"latitude":"-20.949077","uf":"SP","color":"green","longitude":"-48.479083","cidade":"Bebedouro","name":"Bebedouro, SP <br> GPON","tecnologia":"GPON"},{"latitude":"-21.291034","uf":"SP","color":"green","longitude":"-50.343162","cidade":"Birigui","name":"Birigui, SP <br> GPON","tecnologia":"GPON"},{"latitude":"-23.285531","uf":"SP","color":"green","longitude":"-47.678574","cidade":"Boituva","name":"Boituva, SP <br> GPON","tecnologia":"GPON"},{"latitude":"-23.30533","uf":"SP","color":"green","longitude":"-47.136251","cidade":"Cabreúva","name":"Cabreúva, SP <br> GPON","tecnologia":"GPON"},{"latitude":"-23.360729","uf":"SP","color":"green","longitude":"-46.73974","cidade":"Caieiras","name":"Caieiras, SP <br> GPON","tecnologia":"GPON"},{"latitude":"-23.355014","uf":"SP","color":"green","longitude":"-46.878146","cidade":"Cajamar","name":"Cajamar, SP <br> GPON","tecnologia":"GPON"},{"latitude":"-23.207791","uf":"SP","color":"green","longitude":"-46.788919","cidade":"Campo Limpo Paulista","name":"Campo Limpo Paulista, SP <br> GPON","tecnologia":"GPON"},{"latitude":"-22.729618","uf":"SP","color":"green","longitude":"-45.583337","cidade":"Campos do Jordão","name":"Campos do Jordão, SP <br> GPON","tecnologia":"GPON"},{"latitude":"-23.612535","uf":"SP","color":"green","longitude":"-45.412533","cidade":"Caraguatatuba","name":"Caraguatatuba, SP <br> GPON","tecnologia":"GPON"},{"latitude":"-21.131381","uf":"SP","color":"green","longitude":"-48.977015","cidade":"Catanduva","name":"Catanduva, SP <br> GPON","tecnologia":"GPON"},{"latitude":"-23.166487","uf":"SP","color":"green","longitude":"-47.745862","cidade":"Cerquilho","name":"Cerquilho, SP <br> GPON","tecnologia":"GPON"},{"latitude":"-22.477778","uf":"SP","color":"green","longitude":"-47.451886","cidade":"Cordeirópolis","name":"Cordeirópolis, SP <br> GPON","tecnologia":"GPON"},{"latitude":"-21.337959","uf":"SP","color":"green","longitude":"-47.732427","cidade":"Cravinhos","name":"Cravinhos, SP <br> GPON","tecnologia":"GPON"},{"latitude":"-21.900211","uf":"SP","color":"green","longitude":"-47.618105","cidade":"Descalvado","name":"Descalvado, SP <br> GPON","tecnologia":"GPON"},{"latitude":"-21.484311","uf":"SP","color":"green","longitude":"-51.535034","cidade":"Dracena","name":"Dracena, SP <br> GPON","tecnologia":"GPON"},{"latitude":"-22.190871","uf":"SP","color":"green","longitude":"-46.74767","cidade":"Espírito Santo do Pinhal","name":"Espírito Santo do Pinhal, SP <br> GPON","tecnologia":"GPON"},{"latitude":"-20.280556","uf":"SP","color":"green","longitude":"-50.247115","cidade":"Fernandópolis","name":"Fernandópolis, SP <br> GPON","tecnologia":"GPON"},{"latitude":"-22.212516","uf":"SP","color":"green","longitude":"-49.654596","cidade":"Garça","name":"Garça, SP <br> GPON","tecnologia":"GPON"},{"latitude":"-20.319591","uf":"SP","color":"green","longitude":"-48.31197","cidade":"Guaíra","name":"Guaíra, SP <br> GPON","tecnologia":"GPON"},{"latitude":"-20.795885","uf":"SP","color":"green","longitude":"-49.217201","cidade":"Guapiaçu","name":"Guapiaçu, SP <br> GPON","tecnologia":"GPON"},{"latitude":"-21.254431","uf":"SP","color":"green","longitude":"-50.645338","cidade":"Guararapes","name":"Guararapes, SP <br> GPON","tecnologia":"GPON"},{"latitude":"-23.65961","uf":"SP","color":"green","longitude":"-47.223037","cidade":"Ibiúna","name":"Ibiúna, SP <br> GPON","tecnologia":"GPON"},{"latitude":"-23.351296","uf":"SP","color":"green","longitude":"-47.692717","cidade":"Iperó","name":"Iperó, SP <br> GPON","tecnologia":"GPON"},{"latitude":"-24.173633","uf":"SP","color":"green","longitude":"-46.787986","cidade":"Itanhaém","name":"Itanhaém, SP <br> GPON","tecnologia":"GPON"},{"latitude":"-23.978823","uf":"SP","color":"green","longitude":"-48.876433","cidade":"Itapeva","name":"Itapeva, SP <br> GPON","tecnologia":"GPON"},{"latitude":"-22.435731","uf":"SP","color":"green","longitude":"-46.822434","cidade":"Itapira","name":"Itapira, SP <br> GPON","tecnologia":"GPON"},{"latitude":"-23.483481","uf":"SP","color":"green","longitude":"-46.345724","cidade":"Itaquaquecetuba","name":"Itaquaquecetuba, SP <br> GPON","tecnologia":"GPON"},{"latitude":"-23.003497","uf":"SP","color":"green","longitude":"-46.846353","cidade":"Itatiba","name":"Itatiba, SP <br> GPON","tecnologia":"GPON"},{"latitude":"-23.152635","uf":"SP","color":"green","longitude":"-47.059262","cidade":"Itupeva","name":"Itupeva, SP <br> GPON","tecnologia":"GPON"},{"latitude":"-20.335465","uf":"SP","color":"green","longitude":"-47.790207","cidade":"Ituverava","name":"Ituverava, SP <br> GPON","tecnologia":"GPON"},{"latitude":"-21.252037","uf":"SP","color":"green","longitude":"-48.325223","cidade":"Jaboticabal","name":"Jaboticabal, SP <br> GPON","tecnologia":"GPON"},{"latitude":"-20.267227","uf":"SP","color":"green","longitude":"-50.549442","cidade":"Jales","name":"Jales, SP <br> GPON","tecnologia":"GPON"},{"latitude":"-21.017612","uf":"SP","color":"green","longitude":"-47.760583","cidade":"Jardinópolis","name":"Jardinópolis, SP <br> GPON","tecnologia":"GPON"},{"latitude":"-23.103855","uf":"SP","color":"green","longitude":"-46.728015","cidade":"Jarinu","name":"Jarinu, SP <br> GPON","tecnologia":"GPON"},{"latitude":"-21.055062","uf":"SP","color":"green","longitude":"-49.689233","cidade":"José Bonifácio","name":"José Bonifácio, SP <br> GPON","tecnologia":"GPON"},{"latitude":"-23.050564","uf":"SP","color":"green","longitude":"-47.837549","cidade":"Laranjal Paulista","name":"Laranjal Paulista, SP <br> GPON","tecnologia":"GPON"},{"latitude":"-22.180857","uf":"SP","color":"green","longitude":"-47.384109","cidade":"Leme","name":"Leme, SP <br> GPON","tecnologia":"GPON"},{"latitude":"-22.602693","uf":"SP","color":"green","longitude":"-48.803683","cidade":"Lençóis Paulista","name":"Lençóis Paulista, SP <br> GPON","tecnologia":"GPON"},{"latitude":"-21.67182","uf":"SP","color":"green","longitude":"-49.752555","cidade":"Lins","name":"Lins, SP <br> GPON","tecnologia":"GPON"},{"latitude":"-23.085572","uf":"SP","color":"green","longitude":"-46.948369","cidade":"Louveira","name":"Louveira, SP <br> GPON","tecnologia":"GPON"},{"latitude":"-23.539822","uf":"SP","color":"green","longitude":"-47.184995","cidade":"Mairinque","name":"Mairinque, SP <br> GPON","tecnologia":"GPON"},{"latitude":"-21.602511","uf":"SP","color":"green","longitude":"-48.363968","cidade":"Matão","name":"Matão, SP <br> GPON","tecnologia":"GPON"},{"latitude":"-21.131345","uf":"SP","color":"green","longitude":"-51.1035","cidade":"Mirandópolis","name":"Mirandópolis, SP <br> GPON","tecnologia":"GPON"},{"latitude":"-20.816874","uf":"SP","color":"green","longitude":"-49.52061","cidade":"Mirassol","name":"Mirassol, SP <br> GPON","tecnologia":"GPON"},{"latitude":"-21.464731","uf":"SP","color":"green","longitude":"-47.002405","cidade":"Mococa","name":"Mococa, SP <br> GPON","tecnologia":"GPON"},{"latitude":"-24.080901","uf":"SP","color":"green","longitude":"-46.626526","cidade":"Mongaguá","name":"Mongaguá, SP <br> GPON","tecnologia":"GPON"},{"latitude":"-21.265545","uf":"SP","color":"green","longitude":"-48.497066","cidade":"Monte Alto","name":"Monte Alto, SP <br> GPON","tecnologia":"GPON"},{"latitude":"-22.881071","uf":"SP","color":"green","longitude":"-46.789601","cidade":"Morungaba","name":"Morungaba, SP <br> GPON","tecnologia":"GPON"},{"latitude":"-20.716925","uf":"SP","color":"green","longitude":"-47.885205","cidade":"Orlândia","name":"Orlândia, SP <br> GPON","tecnologia":"GPON"},{"latitude":"-22.979695","uf":"SP","color":"green","longitude":"-49.869702","cidade":"Ourinhos","name":"Ourinhos, SP <br> GPON","tecnologia":"GPON"},{"latitude":"-22.741347","uf":"SP","color":"green","longitude":"-46.894846","cidade":"Pedreira","name":"Pedreira, SP <br> GPON","tecnologia":"GPON"},{"latitude":"-21.414765","uf":"SP","color":"green","longitude":"-50.076855","cidade":"Penápolis","name":"Penápolis, SP <br> GPON","tecnologia":"GPON"},{"latitude":"-24.311974","uf":"SP","color":"green","longitude":"-47.0012","cidade":"Peruíbe","name":"Peruíbe, SP <br> GPON","tecnologia":"GPON"},{"latitude":"-23.052545","uf":"SP","color":"green","longitude":"-46.359374","cidade":"Piracaia","name":"Piracaia, SP <br> GPON","tecnologia":"GPON"},{"latitude":"-21.995982","uf":"SP","color":"green","longitude":"-47.425746","cidade":"Pirassununga","name":"Pirassununga, SP <br> GPON","tecnologia":"GPON"},{"latitude":"-21.021565","uf":"SP","color":"green","longitude":"-48.042261","cidade":"Pontal","name":"Pontal, SP <br> GPON","tecnologia":"GPON"},{"latitude":"-21.849814","uf":"SP","color":"green","longitude":"-47.487034","cidade":"Porto Ferreira","name":"Porto Ferreira, SP <br> GPON","tecnologia":"GPON"},{"latitude":"-21.042789","uf":"SP","color":"green","longitude":"-49.381509","cidade":"Potirendaba","name":"Potirendaba, SP <br> GPON","tecnologia":"GPON"},{"latitude":"-22.008198","uf":"SP","color":"green","longitude":"-51.556507","cidade":"Presidente Bernardes","name":"Presidente Bernardes, SP <br> GPON","tecnologia":"GPON"},{"latitude":"-21.535572","uf":"SP","color":"green","longitude":"-49.85989","cidade":"Promissão","name":"Promissão, SP <br> GPON","tecnologia":"GPON"},{"latitude":"-24.497942","uf":"SP","color":"green","longitude":"-47.844895","cidade":"Registro","name":"Registro, SP <br> GPON","tecnologia":"GPON"},{"latitude":"-23.706669","uf":"SP","color":"green","longitude":"-46.405805","cidade":"Ribeirão Pires","name":"Ribeirão Pires, SP <br> GPON","tecnologia":"GPON"},{"latitude":"-22.89875","uf":"SP","color":"green","longitude":"-49.635444","cidade":"Santa Cruz do Rio Pardo","name":"Santa Cruz do Rio Pardo, SP <br> GPON","tecnologia":"GPON"},{"latitude":"-22.457229","uf":"SP","color":"green","longitude":"-47.52716","cidade":"Santa Gertrudes","name":"Santa Gertrudes, SP <br> GPON","tecnologia":"GPON"},{"latitude":"-23.317194","uf":"SP","color":"green","longitude":"-46.223668","cidade":"Santa Isabel","name":"Santa Isabel, SP <br> GPON","tecnologia":"GPON"},{"latitude":"-21.477568","uf":"SP","color":"green","longitude":"-47.362213","cidade":"Santa Rosa de Viterbo","name":"Santa Rosa de Viterbo, SP <br> GPON","tecnologia":"GPON"},{"latitude":"-21.970747","uf":"SP","color":"green","longitude":"-46.794356","cidade":"São João da Boa Vista","name":"São João da Boa Vista, SP <br> GPON","tecnologia":"GPON"},{"latitude":"-20.581158","uf":"SP","color":"green","longitude":"-47.859316","cidade":"São Joaquim da Barra","name":"São Joaquim da Barra, SP <br> GPON","tecnologia":"GPON"},{"latitude":"-21.595288","uf":"SP","color":"green","longitude":"-46.887303","cidade":"São José do Rio Pardo","name":"São José do Rio Pardo, SP <br> GPON","tecnologia":"GPON"},{"latitude":"-23.522598","uf":"SP","color":"green","longitude":"-47.13567","cidade":"São Roque","name":"São Roque, SP <br> GPON","tecnologia":"GPON"},{"latitude":"-23.795059","uf":"SP","color":"green","longitude":"-45.414314","cidade":"São Sebastião","name":"São Sebastião, SP <br> GPON","tecnologia":"GPON"},{"latitude":"-22.613941","uf":"SP","color":"green","longitude":"-46.703271","cidade":"Serra Negra","name":"Serra Negra, SP <br> GPON","tecnologia":"GPON"},{"latitude":"-21.204336","uf":"SP","color":"green","longitude":"-47.595239","cidade":"Serrana","name":"Serrana, SP <br> GPON","tecnologia":"GPON"},{"latitude":"-23.348731","uf":"SP","color":"green","longitude":"-47.84612","cidade":"Tatuí","name":"Tatuí, SP <br> GPON","tecnologia":"GPON"},{"latitude":"-22.95714","uf":"SP","color":"green","longitude":"-45.547526","cidade":"Tremembé","name":"Tremembé, SP <br> GPON","tecnologia":"GPON"},{"latitude":"-23.433162","uf":"SP","color":"green","longitude":"-45.083415","cidade":"Ubatuba","name":"Ubatuba, SP <br> GPON","tecnologia":"GPON"},{"latitude":"-21.222929","uf":"SP","color":"green","longitude":"-50.869874","cidade":"Valparaíso","name":"Valparaíso, SP <br> GPON","tecnologia":"GPON"},{"latitude":"-23.213582","uf":"SP","color":"green","longitude":"-46.823444","cidade":"Várzea Paulista","name":"Várzea Paulista, SP <br> GPON","tecnologia":"GPON"},{"latitude":"-20.423659","uf":"SP","color":"green","longitude":"-49.978112","cidade":"Votuporanga","name":"Votuporanga, SP <br> GPON","tecnologia":"GPON"},{"latitude":"-10.174998","uf":"TO","color":"green","longitude":"-48.882269","cidade":"Paraíso do Tocantins","name":"Paraíso do Tocantins, TO <br> GPON","tecnologia":"GPON"}]
