[{"cidade":"João Monlevade","uf":"MG","longitude":"-43.173463","name":"João Monlevade, MG <br> HFC REDE NEUTRA","color":"violet","tecnologia":"HFC REDE NEUTRA","latitude":"-19.812646"},{"cidade":"Palmas","uf":"PR","longitude":"-51.988812","name":"Palmas, PR <br> HFC REDE NEUTRA","color":"violet","tecnologia":"HFC REDE NEUTRA","latitude":"-26.483868"},{"cidade":"Piraquara","uf":"PR","longitude":"-49.062411","name":"Piraquara, PR <br> HFC REDE NEUTRA","color":"violet","tecnologia":"HFC REDE NEUTRA","latitude":"-25.442171"},{"cidade":"Alfenas","uf":"MG","longitude":"-45.947727","name":"Alfenas, MG <br> HFC REDE NEUTRA","color":"violet","tecnologia":"HFC REDE NEUTRA","latitude":"-21.425629"},{"cidade":"Arcos","uf":"MG","longitude":"-45.537345","name":"Arcos, MG <br> HFC REDE NEUTRA","color":"violet","tecnologia":"HFC REDE NEUTRA","latitude":"-20.286333"},{"cidade":"Formiga","uf":"MG","longitude":"-45.426793","name":"Formiga, MG <br> HFC REDE NEUTRA","color":"violet","tecnologia":"HFC REDE NEUTRA","latitude":"-20.461819"},{"cidade":"Lagoa da Prata","uf":"MG","longitude":"-45.540149","name":"Lagoa da Prata, MG <br> HFC REDE NEUTRA","color":"violet","tecnologia":"HFC REDE NEUTRA","latitude":"-20.023728"},{"cidade":"Matozinhos","uf":"MG","longitude":"-44.086786","name":"Matozinhos, MG <br> HFC REDE NEUTRA","color":"violet","tecnologia":"HFC REDE NEUTRA","latitude":"-19.554318"},{"cidade":"Nova Serrana","uf":"MG","longitude":"-44.984661","name":"Nova Serrana, MG <br> HFC REDE NEUTRA","color":"violet","tecnologia":"HFC REDE NEUTRA","latitude":"-19.871299"},{"cidade":"Pedro Leopoldo","uf":"MG","longitude":"-44.038258","name":"Pedro Leopoldo, MG <br> HFC REDE NEUTRA","color":"violet","tecnologia":"HFC REDE NEUTRA","latitude":"-19.630811"},{"cidade":"Piumhi","uf":"MG","longitude":"-45.95891","name":"Piumhi, MG <br> HFC REDE NEUTRA","color":"violet","tecnologia":"HFC REDE NEUTRA","latitude":"-20.47623"},{"cidade":"Santa Cruz de Minas","uf":"MG","longitude":"-44.220251","name":"Santa Cruz de Minas, MG <br> HFC REDE NEUTRA","color":"violet","tecnologia":"HFC REDE NEUTRA","latitude":"-21.124148"},{"cidade":"Foz do Iguaçu","uf":"PR","longitude":"-54.582689","name":"Foz do Iguaçu, PR <br> HFC REDE NEUTRA","color":"violet","tecnologia":"HFC REDE NEUTRA","latitude":"-25.542748"},{"cidade":"Guaratuba","uf":"PR","longitude":"-48.575223","name":"Guaratuba, PR <br> HFC REDE NEUTRA","color":"violet","tecnologia":"HFC REDE NEUTRA","latitude":"-25.881672"},{"cidade":"Ibiporã","uf":"PR","longitude":"-51.052243","name":"Ibiporã, PR <br> HFC REDE NEUTRA","color":"violet","tecnologia":"HFC REDE NEUTRA","latitude":"-23.265941"},{"cidade":"Marechal Cândido Rondon","uf":"PR","longitude":"-54.056115","name":"Marechal Cândido Rondon, PR <br> HFC REDE NEUTRA","color":"violet","tecnologia":"HFC REDE NEUTRA","latitude":"-24.557891"},{"cidade":"Medianeira","uf":"PR","longitude":"-54.094308","name":"Medianeira, PR <br> HFC REDE NEUTRA","color":"violet","tecnologia":"HFC REDE NEUTRA","latitude":"-25.297665"},{"cidade":"Paiçandu","uf":"PR","longitude":"-52.046013","name":"Paiçandu, PR <br> HFC REDE NEUTRA","color":"violet","tecnologia":"HFC REDE NEUTRA","latitude":"-23.455534"},{"cidade":"Quatro Barras","uf":"PR","longitude":"-49.076306","name":"Quatro Barras, PR <br> HFC REDE NEUTRA","color":"violet","tecnologia":"HFC REDE NEUTRA","latitude":"-25.367317"},{"cidade":"Telêmaco Borba","uf":"PR","longitude":"-50.617585","name":"Telêmaco Borba, PR <br> HFC REDE NEUTRA","color":"violet","tecnologia":"HFC REDE NEUTRA","latitude":"-24.32452"},{"cidade":"União da Vitória","uf":"PR","longitude":"-51.087313","name":"União da Vitória, PR <br> HFC REDE NEUTRA","color":"violet","tecnologia":"HFC REDE NEUTRA","latitude":"-26.227319"}]
