[{"latitude":"-9.825808","uf":"AC","tecnologia":"Sem serviço fixo","name":"Acrelândia, AC <br> Sem serviço fixo","longitude":"-66.897166","cidade":"Acrelândia","color":"black"},{"latitude":"-10.929765","uf":"AC","tecnologia":"Sem serviço fixo","name":"Assis Brasil, AC <br> Sem serviço fixo","longitude":"-69.573794","cidade":"Assis Brasil","color":"black"},{"latitude":"-10.994994","uf":"AC","tecnologia":"Sem serviço fixo","name":"Brasiléia, AC <br> Sem serviço fixo","longitude":"-68.749696","cidade":"Brasiléia","color":"black"},{"latitude":"-9.815277","uf":"AC","tecnologia":"Sem serviço fixo","name":"Bujari, AC <br> Sem serviço fixo","longitude":"-67.955029","cidade":"Bujari","color":"black"},{"latitude":"-10.566031","uf":"AC","tecnologia":"Sem serviço fixo","name":"Capixaba, AC <br> Sem serviço fixo","longitude":"-67.686006","cidade":"Capixaba","color":"black"},{"latitude":"-7.627625","uf":"AC","tecnologia":"Sem serviço fixo","name":"Cruzeiro do Sul, AC <br> Sem serviço fixo","longitude":"-72.675582","cidade":"Cruzeiro do Sul","color":"black"},{"latitude":"-11.018771","uf":"AC","tecnologia":"Sem serviço fixo","name":"Epitaciolândia, AC <br> Sem serviço fixo","longitude":"-68.734109","cidade":"Epitaciolândia","color":"black"},{"latitude":"-8.170536","uf":"AC","tecnologia":"Sem serviço fixo","name":"Feijó, AC <br> Sem serviço fixo","longitude":"-70.350973","cidade":"Feijó","color":"black"},{"latitude":"-9.430912","uf":"AC","tecnologia":"Sem serviço fixo","name":"Jordão, AC <br> Sem serviço fixo","longitude":"-71.897391","cidade":"Jordão","color":"black"},{"latitude":"-7.616575","uf":"AC","tecnologia":"Sem serviço fixo","name":"Mâncio Lima, AC <br> Sem serviço fixo","longitude":"-72.899708","cidade":"Mâncio Lima","color":"black"},{"latitude":"-8.832911","uf":"AC","tecnologia":"Sem serviço fixo","name":"Manoel Urbano, AC <br> Sem serviço fixo","longitude":"-69.267862","cidade":"Manoel Urbano","color":"black"},{"latitude":"-8.938983","uf":"AC","tecnologia":"Sem serviço fixo","name":"Marechal Thaumaturgo, AC <br> Sem serviço fixo","longitude":"-72.799704","cidade":"Marechal Thaumaturgo","color":"black"},{"latitude":"-10.28064","uf":"AC","tecnologia":"Sem serviço fixo","name":"Plácido de Castro, AC <br> Sem serviço fixo","longitude":"-67.137133","cidade":"Plácido de Castro","color":"black"},{"latitude":"-9.581378","uf":"AC","tecnologia":"Sem serviço fixo","name":"Porto Acre, AC <br> Sem serviço fixo","longitude":"-67.547815","cidade":"Porto Acre","color":"black"},{"latitude":"-8.263233","uf":"AC","tecnologia":"Sem serviço fixo","name":"Porto Walter, AC <br> Sem serviço fixo","longitude":"-72.753747","cidade":"Porto Walter","color":"black"},{"latitude":"-7.738638","uf":"AC","tecnologia":"Sem serviço fixo","name":"Rodrigues Alves, AC <br> Sem serviço fixo","longitude":"-72.661015","cidade":"Rodrigues Alves","color":"black"},{"latitude":"-9.446515","uf":"AC","tecnologia":"Sem serviço fixo","name":"Santa Rosa do Purus, AC <br> Sem serviço fixo","longitude":"-70.49025","cidade":"Santa Rosa do Purus","color":"black"},{"latitude":"-9.063499","uf":"AC","tecnologia":"Sem serviço fixo","name":"Sena Madureira, AC <br> Sem serviço fixo","longitude":"-68.671278","cidade":"Sena Madureira","color":"black"},{"latitude":"-10.149686","uf":"AC","tecnologia":"Sem serviço fixo","name":"Senador Guiomard, AC <br> Sem serviço fixo","longitude":"-67.736185","cidade":"Senador Guiomard","color":"black"},{"latitude":"-8.156975","uf":"AC","tecnologia":"Sem serviço fixo","name":"Tarauacá, AC <br> Sem serviço fixo","longitude":"-70.772154","cidade":"Tarauacá","color":"black"},{"latitude":"-10.651598","uf":"AC","tecnologia":"Sem serviço fixo","name":"Xapuri, AC <br> Sem serviço fixo","longitude":"-68.496857","cidade":"Xapuri","color":"black"},{"latitude":"-9.261996","uf":"AL","tecnologia":"Sem serviço fixo","name":"Água Branca, AL <br> Sem serviço fixo","longitude":"-37.937988","cidade":"Água Branca","color":"black"},{"latitude":"-9.684886","uf":"AL","tecnologia":"Sem serviço fixo","name":"Anadia, AL <br> Sem serviço fixo","longitude":"-36.307783","cidade":"Anadia","color":"black"},{"latitude":"-9.511898","uf":"AL","tecnologia":"Sem serviço fixo","name":"Atalaia, AL <br> Sem serviço fixo","longitude":"-36.008552","cidade":"Atalaia","color":"black"},{"latitude":"-9.402297","uf":"AL","tecnologia":"Sem serviço fixo","name":"Barra de Santo Antônio, AL <br> Sem serviço fixo","longitude":"-35.510083","cidade":"Barra de Santo Antônio","color":"black"},{"latitude":"-9.83842","uf":"AL","tecnologia":"Sem serviço fixo","name":"Barra de São Miguel, AL <br> Sem serviço fixo","longitude":"-35.905667","cidade":"Barra de São Miguel","color":"black"},{"latitude":"-9.674195","uf":"AL","tecnologia":"Sem serviço fixo","name":"Batalha, AL <br> Sem serviço fixo","longitude":"-37.133014","cidade":"Batalha","color":"black"},{"latitude":"-9.822718","uf":"AL","tecnologia":"Sem serviço fixo","name":"Belo Monte, AL <br> Sem serviço fixo","longitude":"-37.277014","cidade":"Belo Monte","color":"black"},{"latitude":"-9.643082","uf":"AL","tecnologia":"Sem serviço fixo","name":"Boca da Mata, AL <br> Sem serviço fixo","longitude":"-36.212498","cidade":"Boca da Mata","color":"black"},{"latitude":"-9.23342","uf":"AL","tecnologia":"Sem serviço fixo","name":"Branquinha, AL <br> Sem serviço fixo","longitude":"-36.016152","cidade":"Branquinha","color":"black"},{"latitude":"-9.401212","uf":"AL","tecnologia":"Sem serviço fixo","name":"Cacimbinhas, AL <br> Sem serviço fixo","longitude":"-36.991082","cidade":"Cacimbinhas","color":"black"},{"latitude":"-9.399402","uf":"AL","tecnologia":"Sem serviço fixo","name":"Cajueiro, AL <br> Sem serviço fixo","longitude":"-36.155937","cidade":"Cajueiro","color":"black"},{"latitude":"-8.847228","uf":"AL","tecnologia":"Sem serviço fixo","name":"Campestre, AL <br> Sem serviço fixo","longitude":"-35.56847","cidade":"Campestre","color":"black"},{"latitude":"-9.784512","uf":"AL","tecnologia":"Sem serviço fixo","name":"Campo Alegre, AL <br> Sem serviço fixo","longitude":"-36.352461","cidade":"Campo Alegre","color":"black"},{"latitude":"-9.119319","uf":"AL","tecnologia":"Sem serviço fixo","name":"Canapi, AL <br> Sem serviço fixo","longitude":"-37.5967","cidade":"Canapi","color":"black"},{"latitude":"-9.415041","uf":"AL","tecnologia":"Sem serviço fixo","name":"Capela, AL <br> Sem serviço fixo","longitude":"-36.082583","cidade":"Capela","color":"black"},{"latitude":"-9.484762","uf":"AL","tecnologia":"Sem serviço fixo","name":"Carneiros, AL <br> Sem serviço fixo","longitude":"-37.377303","cidade":"Carneiros","color":"black"},{"latitude":"-9.255605","uf":"AL","tecnologia":"Sem serviço fixo","name":"Chã Preta, AL <br> Sem serviço fixo","longitude":"-36.298334","cidade":"Chã Preta","color":"black"},{"latitude":"-9.633484","uf":"AL","tecnologia":"Sem serviço fixo","name":"Coité do Nóia, AL <br> Sem serviço fixo","longitude":"-36.584493","cidade":"Coité do Nóia","color":"black"},{"latitude":"-8.918058","uf":"AL","tecnologia":"Sem serviço fixo","name":"Colônia Leopoldina, AL <br> Sem serviço fixo","longitude":"-35.721414","cidade":"Colônia Leopoldina","color":"black"},{"latitude":"-9.637147","uf":"AL","tecnologia":"Sem serviço fixo","name":"Coqueiro Seco, AL <br> Sem serviço fixo","longitude":"-35.799377","cidade":"Coqueiro Seco","color":"black"},{"latitude":"-10.127632","uf":"AL","tecnologia":"Sem serviço fixo","name":"Coruripe, AL <br> Sem serviço fixo","longitude":"-36.171724","cidade":"Coruripe","color":"black"},{"latitude":"-9.617798","uf":"AL","tecnologia":"Sem serviço fixo","name":"Craíbas, AL <br> Sem serviço fixo","longitude":"-36.769726","cidade":"Craíbas","color":"black"},{"latitude":"-9.385336","uf":"AL","tecnologia":"Sem serviço fixo","name":"Delmiro Gouveia, AL <br> Sem serviço fixo","longitude":"-37.998676","cidade":"Delmiro Gouveia","color":"black"},{"latitude":"-9.384645","uf":"AL","tecnologia":"Sem serviço fixo","name":"Dois Riachos, AL <br> Sem serviço fixo","longitude":"-37.096502","cidade":"Dois Riachos","color":"black"},{"latitude":"-9.390894","uf":"AL","tecnologia":"Sem serviço fixo","name":"Estrela de Alagoas, AL <br> Sem serviço fixo","longitude":"-36.764407","cidade":"Estrela de Alagoas","color":"black"},{"latitude":"-9.898586","uf":"AL","tecnologia":"Sem serviço fixo","name":"Feira Grande, AL <br> Sem serviço fixo","longitude":"-36.681521","cidade":"Feira Grande","color":"black"},{"latitude":"-10.293491","uf":"AL","tecnologia":"Sem serviço fixo","name":"Feliz Deserto, AL <br> Sem serviço fixo","longitude":"-36.302788","cidade":"Feliz Deserto","color":"black"},{"latitude":"-9.272807","uf":"AL","tecnologia":"Sem serviço fixo","name":"Flexeiras, AL <br> Sem serviço fixo","longitude":"-35.713933","cidade":"Flexeiras","color":"black"},{"latitude":"-9.884041","uf":"AL","tecnologia":"Sem serviço fixo","name":"Girau do Ponciano, AL <br> Sem serviço fixo","longitude":"-36.831592","cidade":"Girau do Ponciano","color":"black"},{"latitude":"-8.978232","uf":"AL","tecnologia":"Sem serviço fixo","name":"Ibateguara, AL <br> Sem serviço fixo","longitude":"-35.937325","cidade":"Ibateguara","color":"black"},{"latitude":"-9.537678","uf":"AL","tecnologia":"Sem serviço fixo","name":"Igaci, AL <br> Sem serviço fixo","longitude":"-36.637191","cidade":"Igaci","color":"black"},{"latitude":"-10.123463","uf":"AL","tecnologia":"Sem serviço fixo","name":"Igreja Nova, AL <br> Sem serviço fixo","longitude":"-36.659705","cidade":"Igreja Nova","color":"black"},{"latitude":"-9.225936","uf":"AL","tecnologia":"Sem serviço fixo","name":"Inhapi, AL <br> Sem serviço fixo","longitude":"-37.750871","cidade":"Inhapi","color":"black"},{"latitude":"-9.635446","uf":"AL","tecnologia":"Sem serviço fixo","name":"Jacaré Dos Homens, AL <br> Sem serviço fixo","longitude":"-37.207636","cidade":"Jacaré Dos Homens","color":"black"},{"latitude":"-8.83951","uf":"AL","tecnologia":"Sem serviço fixo","name":"Jacuípe, AL <br> Sem serviço fixo","longitude":"-35.459074","cidade":"Jacuípe","color":"black"},{"latitude":"-9.087464","uf":"AL","tecnologia":"Sem serviço fixo","name":"Japaratinga, AL <br> Sem serviço fixo","longitude":"-35.263403","cidade":"Japaratinga","color":"black"},{"latitude":"-9.662243","uf":"AL","tecnologia":"Sem serviço fixo","name":"Jaramataia, AL <br> Sem serviço fixo","longitude":"-37.004558","cidade":"Jaramataia","color":"black"},{"latitude":"-9.132805","uf":"AL","tecnologia":"Sem serviço fixo","name":"Joaquim Gomes, AL <br> Sem serviço fixo","longitude":"-35.747381","cidade":"Joaquim Gomes","color":"black"},{"latitude":"-8.932968","uf":"AL","tecnologia":"Sem serviço fixo","name":"Jundiá, AL <br> Sem serviço fixo","longitude":"-35.566925","cidade":"Jundiá","color":"black"},{"latitude":"-9.906961","uf":"AL","tecnologia":"Sem serviço fixo","name":"Junqueiro, AL <br> Sem serviço fixo","longitude":"-36.480346","cidade":"Junqueiro","color":"black"},{"latitude":"-9.832909","uf":"AL","tecnologia":"Sem serviço fixo","name":"Lagoa da Canoa, AL <br> Sem serviço fixo","longitude":"-36.741257","cidade":"Lagoa da Canoa","color":"black"},{"latitude":"-9.740983","uf":"AL","tecnologia":"Sem serviço fixo","name":"Limoeiro de Anadia, AL <br> Sem serviço fixo","longitude":"-36.512097","cidade":"Limoeiro de Anadia","color":"black"},{"latitude":"-9.530086","uf":"AL","tecnologia":"Sem serviço fixo","name":"Major Isidoro, AL <br> Sem serviço fixo","longitude":"-36.992006","cidade":"Major Isidoro","color":"black"},{"latitude":"-9.447393","uf":"AL","tecnologia":"Sem serviço fixo","name":"Mar Vermelho, AL <br> Sem serviço fixo","longitude":"-36.388076","cidade":"Mar Vermelho","color":"black"},{"latitude":"-9.007443","uf":"AL","tecnologia":"Sem serviço fixo","name":"Maragogi, AL <br> Sem serviço fixo","longitude":"-35.226692","cidade":"Maragogi","color":"black"},{"latitude":"-9.230449","uf":"AL","tecnologia":"Sem serviço fixo","name":"Maravilha, AL <br> Sem serviço fixo","longitude":"-37.352419","cidade":"Maravilha","color":"black"},{"latitude":"-9.709715","uf":"AL","tecnologia":"Sem serviço fixo","name":"Marechal Deodoro, AL <br> Sem serviço fixo","longitude":"-35.896731","cidade":"Marechal Deodoro","color":"black"},{"latitude":"-9.583528","uf":"AL","tecnologia":"Sem serviço fixo","name":"Maribondo, AL <br> Sem serviço fixo","longitude":"-36.304488","cidade":"Maribondo","color":"black"},{"latitude":"-9.118243","uf":"AL","tecnologia":"Sem serviço fixo","name":"Mata Grande, AL <br> Sem serviço fixo","longitude":"-37.732298","cidade":"Mata Grande","color":"black"},{"latitude":"-9.154373","uf":"AL","tecnologia":"Sem serviço fixo","name":"Matriz de Camaragibe, AL <br> Sem serviço fixo","longitude":"-35.524302","cidade":"Matriz de Camaragibe","color":"black"},{"latitude":"-9.393843","uf":"AL","tecnologia":"Sem serviço fixo","name":"Messias, AL <br> Sem serviço fixo","longitude":"-35.839182","cidade":"Messias","color":"black"},{"latitude":"-9.312358","uf":"AL","tecnologia":"Sem serviço fixo","name":"Minador do Negrão, AL <br> Sem serviço fixo","longitude":"-36.869553","cidade":"Minador do Negrão","color":"black"},{"latitude":"-9.603569","uf":"AL","tecnologia":"Sem serviço fixo","name":"Monteirópolis, AL <br> Sem serviço fixo","longitude":"-37.250463","cidade":"Monteirópolis","color":"black"},{"latitude":"-9.306823","uf":"AL","tecnologia":"Sem serviço fixo","name":"Murici, AL <br> Sem serviço fixo","longitude":"-35.942798","cidade":"Murici","color":"black"},{"latitude":"-8.941905","uf":"AL","tecnologia":"Sem serviço fixo","name":"Novo Lino, AL <br> Sem serviço fixo","longitude":"-35.664001","cidade":"Novo Lino","color":"black"},{"latitude":"-9.519538","uf":"AL","tecnologia":"Sem serviço fixo","name":"Olivença, AL <br> Sem serviço fixo","longitude":"-37.195441","cidade":"Olivença","color":"black"},{"latitude":"-9.158842","uf":"AL","tecnologia":"Sem serviço fixo","name":"Ouro Branco, AL <br> Sem serviço fixo","longitude":"-37.355639","cidade":"Ouro Branco","color":"black"},{"latitude":"-9.674928","uf":"AL","tecnologia":"Sem serviço fixo","name":"Palestina, AL <br> Sem serviço fixo","longitude":"-37.339037","cidade":"Palestina","color":"black"},{"latitude":"-9.405681","uf":"AL","tecnologia":"Sem serviço fixo","name":"Palmeira Dos Índios, AL <br> Sem serviço fixo","longitude":"-36.632812","cidade":"Palmeira Dos Índios","color":"black"},{"latitude":"-9.740325","uf":"AL","tecnologia":"Sem serviço fixo","name":"Pão de Açúcar, AL <br> Sem serviço fixo","longitude":"-37.440336","cidade":"Pão de Açúcar","color":"black"},{"latitude":"-9.256342","uf":"AL","tecnologia":"Sem serviço fixo","name":"Pariconha, AL <br> Sem serviço fixo","longitude":"-37.998751","cidade":"Pariconha","color":"black"},{"latitude":"-9.463133","uf":"AL","tecnologia":"Sem serviço fixo","name":"Paripueira, AL <br> Sem serviço fixo","longitude":"-35.551977","cidade":"Paripueira","color":"black"},{"latitude":"-9.24511","uf":"AL","tecnologia":"Sem serviço fixo","name":"Passo de Camaragibe, AL <br> Sem serviço fixo","longitude":"-35.47449","cidade":"Passo de Camaragibe","color":"black"},{"latitude":"-9.367918","uf":"AL","tecnologia":"Sem serviço fixo","name":"Paulo Jacinto, AL <br> Sem serviço fixo","longitude":"-36.367241","cidade":"Paulo Jacinto","color":"black"},{"latitude":"-10.287422","uf":"AL","tecnologia":"Sem serviço fixo","name":"Penedo, AL <br> Sem serviço fixo","longitude":"-36.581905","cidade":"Penedo","color":"black"},{"latitude":"-10.405989","uf":"AL","tecnologia":"Sem serviço fixo","name":"Piaçabuçu, AL <br> Sem serviço fixo","longitude":"-36.433968","cidade":"Piaçabuçu","color":"black"},{"latitude":"-9.601348","uf":"AL","tecnologia":"Sem serviço fixo","name":"Pilar, AL <br> Sem serviço fixo","longitude":"-35.954294","cidade":"Pilar","color":"black"},{"latitude":"-9.473822","uf":"AL","tecnologia":"Sem serviço fixo","name":"Pindoba, AL <br> Sem serviço fixo","longitude":"-36.291829","cidade":"Pindoba","color":"black"},{"latitude":"-9.623996","uf":"AL","tecnologia":"Sem serviço fixo","name":"Piranhas, AL <br> Sem serviço fixo","longitude":"-37.756987","cidade":"Piranhas","color":"black"},{"latitude":"-9.307417","uf":"AL","tecnologia":"Sem serviço fixo","name":"Poço Das Trincheiras, AL <br> Sem serviço fixo","longitude":"-37.288932","cidade":"Poço Das Trincheiras","color":"black"},{"latitude":"-9.051948","uf":"AL","tecnologia":"Sem serviço fixo","name":"Porto Calvo, AL <br> Sem serviço fixo","longitude":"-35.398653","cidade":"Porto Calvo","color":"black"},{"latitude":"-9.160065","uf":"AL","tecnologia":"Sem serviço fixo","name":"Porto de Pedras, AL <br> Sem serviço fixo","longitude":"-35.304914","cidade":"Porto de Pedras","color":"black"},{"latitude":"-10.18489","uf":"AL","tecnologia":"Sem serviço fixo","name":"Porto Real do Colégio, AL <br> Sem serviço fixo","longitude":"-36.837551","cidade":"Porto Real do Colégio","color":"black"},{"latitude":"-9.32001","uf":"AL","tecnologia":"Sem serviço fixo","name":"Quebrangulo, AL <br> Sem serviço fixo","longitude":"-36.469239","cidade":"Quebrangulo","color":"black"},{"latitude":"-9.477829","uf":"AL","tecnologia":"Sem serviço fixo","name":"Rio Largo, AL <br> Sem serviço fixo","longitude":"-35.839435","cidade":"Rio Largo","color":"black"},{"latitude":"-9.835029","uf":"AL","tecnologia":"Sem serviço fixo","name":"Roteiro, AL <br> Sem serviço fixo","longitude":"-35.978247","cidade":"Roteiro","color":"black"},{"latitude":"-9.6037","uf":"AL","tecnologia":"Sem serviço fixo","name":"Santa Luzia do Norte, AL <br> Sem serviço fixo","longitude":"-35.823196","cidade":"Santa Luzia do Norte","color":"black"},{"latitude":"-9.369989","uf":"AL","tecnologia":"Sem serviço fixo","name":"Santana do Ipanema, AL <br> Sem serviço fixo","longitude":"-37.248018","cidade":"Santana do Ipanema","color":"black"},{"latitude":"-9.171413","uf":"AL","tecnologia":"Sem serviço fixo","name":"Santana do Mundaú, AL <br> Sem serviço fixo","longitude":"-36.217608","cidade":"Santana do Mundaú","color":"black"},{"latitude":"-10.120734","uf":"AL","tecnologia":"Sem serviço fixo","name":"São Brás, AL <br> Sem serviço fixo","longitude":"-36.896529","cidade":"São Brás","color":"black"},{"latitude":"-9.012779","uf":"AL","tecnologia":"Sem serviço fixo","name":"São José da Laje, AL <br> Sem serviço fixo","longitude":"-36.051489","cidade":"São José da Laje","color":"black"},{"latitude":"-9.557684","uf":"AL","tecnologia":"Sem serviço fixo","name":"São José da Tapera, AL <br> Sem serviço fixo","longitude":"-37.383125","cidade":"São José da Tapera","color":"black"},{"latitude":"-9.31816","uf":"AL","tecnologia":"Sem serviço fixo","name":"São Luís do Quitunde, AL <br> Sem serviço fixo","longitude":"-35.560553","cidade":"São Luís do Quitunde","color":"black"},{"latitude":"-9.78301","uf":"AL","tecnologia":"Sem serviço fixo","name":"São Miguel Dos Campos, AL <br> Sem serviço fixo","longitude":"-36.097142","cidade":"São Miguel Dos Campos","color":"black"},{"latitude":"-9.264925","uf":"AL","tecnologia":"Sem serviço fixo","name":"São Miguel Dos Milagres, AL <br> Sem serviço fixo","longitude":"-35.376253","cidade":"São Miguel Dos Milagres","color":"black"},{"latitude":"-9.569113","uf":"AL","tecnologia":"Sem serviço fixo","name":"Satuba, AL <br> Sem serviço fixo","longitude":"-35.822697","cidade":"Satuba","color":"black"},{"latitude":"-9.469865","uf":"AL","tecnologia":"Sem serviço fixo","name":"Senador Rui Palmeira, AL <br> Sem serviço fixo","longitude":"-37.457606","cidade":"Senador Rui Palmeira","color":"black"},{"latitude":"-9.64529","uf":"AL","tecnologia":"Sem serviço fixo","name":"Taquarana, AL <br> Sem serviço fixo","longitude":"-36.492844","cidade":"Taquarana","color":"black"},{"latitude":"-9.916562","uf":"AL","tecnologia":"Sem serviço fixo","name":"Teotônio Vilela, AL <br> Sem serviço fixo","longitude":"-36.349212","cidade":"Teotônio Vilela","color":"black"},{"latitude":"-9.962625","uf":"AL","tecnologia":"Sem serviço fixo","name":"Traipu, AL <br> Sem serviço fixo","longitude":"-37.007119","cidade":"Traipu","color":"black"},{"latitude":"-9.15921","uf":"AL","tecnologia":"Sem serviço fixo","name":"União Dos Palmares, AL <br> Sem serviço fixo","longitude":"-36.02227","cidade":"União Dos Palmares","color":"black"},{"latitude":"-3.22727","uf":"AM","tecnologia":"Sem serviço fixo","name":"Alvarães, AM <br> Sem serviço fixo","longitude":"-64.800654","cidade":"Alvarães","color":"black"},{"latitude":"-3.374547","uf":"AM","tecnologia":"Sem serviço fixo","name":"Amaturá, AM <br> Sem serviço fixo","longitude":"-68.200456","cidade":"Amaturá","color":"black"},{"latitude":"-3.566966","uf":"AM","tecnologia":"Sem serviço fixo","name":"Anamã, AM <br> Sem serviço fixo","longitude":"-61.396337","cidade":"Anamã","color":"black"},{"latitude":"-3.746027","uf":"AM","tecnologia":"Sem serviço fixo","name":"Anori, AM <br> Sem serviço fixo","longitude":"-61.657485","cidade":"Anori","color":"black"},{"latitude":"-7.194091","uf":"AM","tecnologia":"Sem serviço fixo","name":"Apuí, AM <br> Sem serviço fixo","longitude":"-59.895956","cidade":"Apuí","color":"black"},{"latitude":"-4.370551","uf":"AM","tecnologia":"Sem serviço fixo","name":"Atalaia do Norte, AM <br> Sem serviço fixo","longitude":"-70.1967","cidade":"Atalaia do Norte","color":"black"},{"latitude":"-3.585743","uf":"AM","tecnologia":"Sem serviço fixo","name":"Autazes, AM <br> Sem serviço fixo","longitude":"-59.125589","cidade":"Autazes","color":"black"},{"latitude":"-0.983373","uf":"AM","tecnologia":"Sem serviço fixo","name":"Barcelos, AM <br> Sem serviço fixo","longitude":"-62.931053","cidade":"Barcelos","color":"black"},{"latitude":"-2.798863","uf":"AM","tecnologia":"Sem serviço fixo","name":"Barreirinha, AM <br> Sem serviço fixo","longitude":"-57.067897","cidade":"Barreirinha","color":"black"},{"latitude":"-4.37768","uf":"AM","tecnologia":"Sem serviço fixo","name":"Benjamin Constant, AM <br> Sem serviço fixo","longitude":"-70.034157","cidade":"Benjamin Constant","color":"black"},{"latitude":"-3.898736","uf":"AM","tecnologia":"Sem serviço fixo","name":"Beruri, AM <br> Sem serviço fixo","longitude":"-61.36162","cidade":"Beruri","color":"black"},{"latitude":"-2.974087","uf":"AM","tecnologia":"Sem serviço fixo","name":"Boa Vista do Ramos, AM <br> Sem serviço fixo","longitude":"-57.587333","cidade":"Boa Vista do Ramos","color":"black"},{"latitude":"-8.742322","uf":"AM","tecnologia":"Sem serviço fixo","name":"Boca do Acre, AM <br> Sem serviço fixo","longitude":"-67.391926","cidade":"Boca do Acre","color":"black"},{"latitude":"-4.391539","uf":"AM","tecnologia":"Sem serviço fixo","name":"Borba, AM <br> Sem serviço fixo","longitude":"-59.58738","cidade":"Borba","color":"black"},{"latitude":"-3.315372","uf":"AM","tecnologia":"Sem serviço fixo","name":"Caapiranga, AM <br> Sem serviço fixo","longitude":"-61.220557","cidade":"Caapiranga","color":"black"},{"latitude":"-6.52582","uf":"AM","tecnologia":"Sem serviço fixo","name":"Canutama, AM <br> Sem serviço fixo","longitude":"-64.39528","cidade":"Canutama","color":"black"},{"latitude":"-4.881605","uf":"AM","tecnologia":"Sem serviço fixo","name":"Carauari, AM <br> Sem serviço fixo","longitude":"-66.908559","cidade":"Carauari","color":"black"},{"latitude":"-3.196979","uf":"AM","tecnologia":"Sem serviço fixo","name":"Careiro da Várzea, AM <br> Sem serviço fixo","longitude":"-59.79639","cidade":"Careiro da Várzea","color":"black"},{"latitude":"-3.768027","uf":"AM","tecnologia":"Sem serviço fixo","name":"Careiro, AM <br> Sem serviço fixo","longitude":"-60.369046","cidade":"Careiro","color":"black"},{"latitude":"-4.094121","uf":"AM","tecnologia":"Sem serviço fixo","name":"Coari, AM <br> Sem serviço fixo","longitude":"-63.144091","cidade":"Coari","color":"black"},{"latitude":"-3.830528","uf":"AM","tecnologia":"Sem serviço fixo","name":"Codajás, AM <br> Sem serviço fixo","longitude":"-62.065787","cidade":"Codajás","color":"black"},{"latitude":"-6.656767","uf":"AM","tecnologia":"Sem serviço fixo","name":"Eirunepé, AM <br> Sem serviço fixo","longitude":"-69.86616","cidade":"Eirunepé","color":"black"},{"latitude":"-7.437889","uf":"AM","tecnologia":"Sem serviço fixo","name":"Envira, AM <br> Sem serviço fixo","longitude":"-70.028143","cidade":"Envira","color":"black"},{"latitude":"-2.523424","uf":"AM","tecnologia":"Sem serviço fixo","name":"Fonte Boa, AM <br> Sem serviço fixo","longitude":"-66.094212","cidade":"Fonte Boa","color":"black"},{"latitude":"-7.537971","uf":"AM","tecnologia":"Sem serviço fixo","name":"Guajará, AM <br> Sem serviço fixo","longitude":"-72.590713","cidade":"Guajará","color":"black"},{"latitude":"-7.511712","uf":"AM","tecnologia":"Sem serviço fixo","name":"Humaitá, AM <br> Sem serviço fixo","longitude":"-63.032743","cidade":"Humaitá","color":"black"},{"latitude":"-7.047909","uf":"AM","tecnologia":"Sem serviço fixo","name":"Ipixuna, AM <br> Sem serviço fixo","longitude":"-71.693426","cidade":"Ipixuna","color":"black"},{"latitude":"-3.274792","uf":"AM","tecnologia":"Sem serviço fixo","name":"Iranduba, AM <br> Sem serviço fixo","longitude":"-60.189953","cidade":"Iranduba","color":"black"},{"latitude":"-3.138607","uf":"AM","tecnologia":"Sem serviço fixo","name":"Itacoatiara, AM <br> Sem serviço fixo","longitude":"-58.444874","cidade":"Itacoatiara","color":"black"},{"latitude":"-6.424591","uf":"AM","tecnologia":"Sem serviço fixo","name":"Itamarati, AM <br> Sem serviço fixo","longitude":"-68.260027","cidade":"Itamarati","color":"black"},{"latitude":"-2.74081","uf":"AM","tecnologia":"Sem serviço fixo","name":"Itapiranga, AM <br> Sem serviço fixo","longitude":"-58.029257","cidade":"Itapiranga","color":"black"},{"latitude":"-1.882366","uf":"AM","tecnologia":"Sem serviço fixo","name":"Japurá, AM <br> Sem serviço fixo","longitude":"-66.929051","cidade":"Japurá","color":"black"},{"latitude":"-3.484384","uf":"AM","tecnologia":"Sem serviço fixo","name":"Juruá, AM <br> Sem serviço fixo","longitude":"-66.071795","cidade":"Juruá","color":"black"},{"latitude":"-2.758144","uf":"AM","tecnologia":"Sem serviço fixo","name":"Jutaí, AM <br> Sem serviço fixo","longitude":"-66.75947","cidade":"Jutaí","color":"black"},{"latitude":"-7.264133","uf":"AM","tecnologia":"Sem serviço fixo","name":"Lábrea, AM <br> Sem serviço fixo","longitude":"-64.794765","cidade":"Lábrea","color":"black"},{"latitude":"-3.290657","uf":"AM","tecnologia":"Sem serviço fixo","name":"Manacapuru, AM <br> Sem serviço fixo","longitude":"-60.621581","cidade":"Manacapuru","color":"black"},{"latitude":"-3.440784","uf":"AM","tecnologia":"Sem serviço fixo","name":"Manaquiri, AM <br> Sem serviço fixo","longitude":"-60.461239","cidade":"Manaquiri","color":"black"},{"latitude":"-5.804618","uf":"AM","tecnologia":"Sem serviço fixo","name":"Manicoré, AM <br> Sem serviço fixo","longitude":"-61.289483","cidade":"Manicoré","color":"black"},{"latitude":"-1.853129","uf":"AM","tecnologia":"Sem serviço fixo","name":"Maraã, AM <br> Sem serviço fixo","longitude":"-65.572995","cidade":"Maraã","color":"black"},{"latitude":"-3.392891","uf":"AM","tecnologia":"Sem serviço fixo","name":"Maués, AM <br> Sem serviço fixo","longitude":"-57.706731","cidade":"Maués","color":"black"},{"latitude":"-2.207932","uf":"AM","tecnologia":"Sem serviço fixo","name":"Nhamundá, AM <br> Sem serviço fixo","longitude":"-56.711151","cidade":"Nhamundá","color":"black"},{"latitude":"-3.900367","uf":"AM","tecnologia":"Sem serviço fixo","name":"Nova Olinda do Norte, AM <br> Sem serviço fixo","longitude":"-59.09404","cidade":"Nova Olinda do Norte","color":"black"},{"latitude":"-2.636371","uf":"AM","tecnologia":"Sem serviço fixo","name":"Novo Airão, AM <br> Sem serviço fixo","longitude":"-60.943404","cidade":"Novo Airão","color":"black"},{"latitude":"-5.125929","uf":"AM","tecnologia":"Sem serviço fixo","name":"Novo Aripuanã, AM <br> Sem serviço fixo","longitude":"-60.373179","cidade":"Novo Aripuanã","color":"black"},{"latitude":"-2.637412","uf":"AM","tecnologia":"Sem serviço fixo","name":"Parintins, AM <br> Sem serviço fixo","longitude":"-56.729045","cidade":"Parintins","color":"black"},{"latitude":"-7.713109","uf":"AM","tecnologia":"Sem serviço fixo","name":"Pauini, AM <br> Sem serviço fixo","longitude":"-66.992039","cidade":"Pauini","color":"black"},{"latitude":"-2.029813","uf":"AM","tecnologia":"Sem serviço fixo","name":"Presidente Figueiredo, AM <br> Sem serviço fixo","longitude":"-60.02338","cidade":"Presidente Figueiredo","color":"black"},{"latitude":"-2.704497","uf":"AM","tecnologia":"Sem serviço fixo","name":"Rio Preto da Eva, AM <br> Sem serviço fixo","longitude":"-59.685793","cidade":"Rio Preto da Eva","color":"black"},{"latitude":"-0.410824","uf":"AM","tecnologia":"Sem serviço fixo","name":"Santa Isabel do Rio Negro, AM <br> Sem serviço fixo","longitude":"-65.009205","cidade":"Santa Isabel do Rio Negro","color":"black"},{"latitude":"-3.095443","uf":"AM","tecnologia":"Sem serviço fixo","name":"Santo Antônio do Içá, AM <br> Sem serviço fixo","longitude":"-67.946279","cidade":"Santo Antônio do Içá","color":"black"},{"latitude":"-0.11909","uf":"AM","tecnologia":"Sem serviço fixo","name":"São Gabriel da Cachoeira, AM <br> Sem serviço fixo","longitude":"-67.084042","cidade":"São Gabriel da Cachoeira","color":"black"},{"latitude":"-3.472919","uf":"AM","tecnologia":"Sem serviço fixo","name":"São Paulo de Olivença, AM <br> Sem serviço fixo","longitude":"-68.964581","cidade":"São Paulo de Olivença","color":"black"},{"latitude":"-2.559147","uf":"AM","tecnologia":"Sem serviço fixo","name":"São Sebastião do Uatumã, AM <br> Sem serviço fixo","longitude":"-57.873049","cidade":"São Sebastião do Uatumã","color":"black"},{"latitude":"-2.81748","uf":"AM","tecnologia":"Sem serviço fixo","name":"Silves, AM <br> Sem serviço fixo","longitude":"-58.248031","cidade":"Silves","color":"black"},{"latitude":"-4.241597","uf":"AM","tecnologia":"Sem serviço fixo","name":"Tabatinga, AM <br> Sem serviço fixo","longitude":"-69.938273","cidade":"Tabatinga","color":"black"},{"latitude":"-5.620855","uf":"AM","tecnologia":"Sem serviço fixo","name":"Tapauá, AM <br> Sem serviço fixo","longitude":"-63.1808","cidade":"Tapauá","color":"black"},{"latitude":"-3.368219","uf":"AM","tecnologia":"Sem serviço fixo","name":"Tefé, AM <br> Sem serviço fixo","longitude":"-64.719343","cidade":"Tefé","color":"black"},{"latitude":"-2.865825","uf":"AM","tecnologia":"Sem serviço fixo","name":"Tonantins, AM <br> Sem serviço fixo","longitude":"-67.791904","cidade":"Tonantins","color":"black"},{"latitude":"-2.996087","uf":"AM","tecnologia":"Sem serviço fixo","name":"Uarini, AM <br> Sem serviço fixo","longitude":"-65.113298","cidade":"Uarini","color":"black"},{"latitude":"-2.529364","uf":"AM","tecnologia":"Sem serviço fixo","name":"Urucará, AM <br> Sem serviço fixo","longitude":"-57.753797","cidade":"Urucará","color":"black"},{"latitude":"-3.128412","uf":"AM","tecnologia":"Sem serviço fixo","name":"Urucurituba, AM <br> Sem serviço fixo","longitude":"-58.149637","cidade":"Urucurituba","color":"black"},{"latitude":"2.052669","uf":"AP","tecnologia":"Sem serviço fixo","name":"Amapá, AP <br> Sem serviço fixo","longitude":"-50.795653","cidade":"Amapá","color":"black"},{"latitude":"2.504747","uf":"AP","tecnologia":"Sem serviço fixo","name":"Calçoene, AP <br> Sem serviço fixo","longitude":"-50.951233","cidade":"Calçoene","color":"black"},{"latitude":"0.987565","uf":"AP","tecnologia":"Sem serviço fixo","name":"Cutias, AP <br> Sem serviço fixo","longitude":"-50.799169","cidade":"Cutias","color":"black"},{"latitude":"0.857256","uf":"AP","tecnologia":"Sem serviço fixo","name":"Ferreira Gomes, AP <br> Sem serviço fixo","longitude":"-51.179523","cidade":"Ferreira Gomes","color":"black"},{"latitude":"0.596137","uf":"AP","tecnologia":"Sem serviço fixo","name":"Itaubal, AP <br> Sem serviço fixo","longitude":"-50.670828","cidade":"Itaubal","color":"black"},{"latitude":"-0.804911","uf":"AP","tecnologia":"Sem serviço fixo","name":"Laranjal do Jari, AP <br> Sem serviço fixo","longitude":"-52.452962","cidade":"Laranjal do Jari","color":"black"},{"latitude":"-0.11336","uf":"AP","tecnologia":"Sem serviço fixo","name":"Mazagão, AP <br> Sem serviço fixo","longitude":"-51.28913","cidade":"Mazagão","color":"black"},{"latitude":"3.84074","uf":"AP","tecnologia":"Sem serviço fixo","name":"Oiapoque, AP <br> Sem serviço fixo","longitude":"-51.833123","cidade":"Oiapoque","color":"black"},{"latitude":"0.71243","uf":"AP","tecnologia":"Sem serviço fixo","name":"Porto Grande, AP <br> Sem serviço fixo","longitude":"-51.415499","cidade":"Porto Grande","color":"black"},{"latitude":"1.745427","uf":"AP","tecnologia":"Sem serviço fixo","name":"Pracuúba, AP <br> Sem serviço fixo","longitude":"-50.789248","cidade":"Pracuúba","color":"black"},{"latitude":"0.901357","uf":"AP","tecnologia":"Sem serviço fixo","name":"Serra do Navio, AP <br> Sem serviço fixo","longitude":"-52.003636","cidade":"Serra do Navio","color":"black"},{"latitude":"1.506519","uf":"AP","tecnologia":"Sem serviço fixo","name":"Tartarugalzinho, AP <br> Sem serviço fixo","longitude":"-50.90874","cidade":"Tartarugalzinho","color":"black"},{"latitude":"-0.938","uf":"AP","tecnologia":"Sem serviço fixo","name":"Vitória do Jari, AP <br> Sem serviço fixo","longitude":"-52.424001","cidade":"Vitória do Jari","color":"black"},{"latitude":"-13.24883","uf":"BA","tecnologia":"Sem serviço fixo","name":"Abaíra, BA <br> Sem serviço fixo","longitude":"-41.661869","cidade":"Abaíra","color":"black"},{"latitude":"-8.720734","uf":"BA","tecnologia":"Sem serviço fixo","name":"Abaré, BA <br> Sem serviço fixo","longitude":"-39.116178","cidade":"Abaré","color":"black"},{"latitude":"-11.657522","uf":"BA","tecnologia":"Sem serviço fixo","name":"Acajutiba, BA <br> Sem serviço fixo","longitude":"-38.019737","cidade":"Acajutiba","color":"black"},{"latitude":"-10.54369","uf":"BA","tecnologia":"Sem serviço fixo","name":"Adustina, BA <br> Sem serviço fixo","longitude":"-38.111265","cidade":"Adustina","color":"black"},{"latitude":"-11.861836","uf":"BA","tecnologia":"Sem serviço fixo","name":"Água Fria, BA <br> Sem serviço fixo","longitude":"-38.763863","cidade":"Água Fria","color":"black"},{"latitude":"-14.126918","uf":"BA","tecnologia":"Sem serviço fixo","name":"Aiquara, BA <br> Sem serviço fixo","longitude":"-39.893653","cidade":"Aiquara","color":"black"},{"latitude":"-17.519468","uf":"BA","tecnologia":"Sem serviço fixo","name":"Alcobaça, BA <br> Sem serviço fixo","longitude":"-39.203609","cidade":"Alcobaça","color":"black"},{"latitude":"-14.708869","uf":"BA","tecnologia":"Sem serviço fixo","name":"Almadina, BA <br> Sem serviço fixo","longitude":"-39.641491","cidade":"Almadina","color":"black"},{"latitude":"-13.021462","uf":"BA","tecnologia":"Sem serviço fixo","name":"Amargosa, BA <br> Sem serviço fixo","longitude":"-39.601966","cidade":"Amargosa","color":"black"},{"latitude":"-12.391429","uf":"BA","tecnologia":"Sem serviço fixo","name":"Amélia Rodrigues, BA <br> Sem serviço fixo","longitude":"-38.756289","cidade":"Amélia Rodrigues","color":"black"},{"latitude":"-11.442938","uf":"BA","tecnologia":"Sem serviço fixo","name":"América Dourada, BA <br> Sem serviço fixo","longitude":"-41.439007","cidade":"América Dourada","color":"black"},{"latitude":"-14.61512","uf":"BA","tecnologia":"Sem serviço fixo","name":"Anagé, BA <br> Sem serviço fixo","longitude":"-41.135569","cidade":"Anagé","color":"black"},{"latitude":"-12.804916","uf":"BA","tecnologia":"Sem serviço fixo","name":"Andaraí, BA <br> Sem serviço fixo","longitude":"-41.329658","cidade":"Andaraí","color":"black"},{"latitude":"-10.348214","uf":"BA","tecnologia":"Sem serviço fixo","name":"Andorinha, BA <br> Sem serviço fixo","longitude":"-39.839142","cidade":"Andorinha","color":"black"},{"latitude":"-12.006313","uf":"BA","tecnologia":"Sem serviço fixo","name":"Angical, BA <br> Sem serviço fixo","longitude":"-44.700272","cidade":"Angical","color":"black"},{"latitude":"-12.146157","uf":"BA","tecnologia":"Sem serviço fixo","name":"Anguera, BA <br> Sem serviço fixo","longitude":"-39.246186","cidade":"Anguera","color":"black"},{"latitude":"-10.385621","uf":"BA","tecnologia":"Sem serviço fixo","name":"Antas, BA <br> Sem serviço fixo","longitude":"-38.340118","cidade":"Antas","color":"black"},{"latitude":"-12.433493","uf":"BA","tecnologia":"Sem serviço fixo","name":"Antônio Cardoso, BA <br> Sem serviço fixo","longitude":"-39.117555","cidade":"Antônio Cardoso","color":"black"},{"latitude":"-10.576686","uf":"BA","tecnologia":"Sem serviço fixo","name":"Antônio Gonçalves, BA <br> Sem serviço fixo","longitude":"-40.278489","cidade":"Antônio Gonçalves","color":"black"},{"latitude":"-11.657708","uf":"BA","tecnologia":"Sem serviço fixo","name":"Aporá, BA <br> Sem serviço fixo","longitude":"-38.081418","cidade":"Aporá","color":"black"},{"latitude":"-13.854241","uf":"BA","tecnologia":"Sem serviço fixo","name":"Apuarema, BA <br> Sem serviço fixo","longitude":"-39.750148","cidade":"Apuarema","color":"black"},{"latitude":"-12.220038","uf":"BA","tecnologia":"Sem serviço fixo","name":"Araças, BA <br> Sem serviço fixo","longitude":"-38.202658","cidade":"Araças","color":"black"},{"latitude":"-14.427986","uf":"BA","tecnologia":"Sem serviço fixo","name":"Aracatu, BA <br> Sem serviço fixo","longitude":"-41.464783","cidade":"Aracatu","color":"black"},{"latitude":"-11.325316","uf":"BA","tecnologia":"Sem serviço fixo","name":"Araci, BA <br> Sem serviço fixo","longitude":"-38.958385","cidade":"Araci","color":"black"},{"latitude":"-12.088399","uf":"BA","tecnologia":"Sem serviço fixo","name":"Aramari, BA <br> Sem serviço fixo","longitude":"-38.496937","cidade":"Aramari","color":"black"},{"latitude":"-15.265099","uf":"BA","tecnologia":"Sem serviço fixo","name":"Arataca, BA <br> Sem serviço fixo","longitude":"-39.419017","cidade":"Arataca","color":"black"},{"latitude":"-13.071595","uf":"BA","tecnologia":"Sem serviço fixo","name":"Aratuípe, BA <br> Sem serviço fixo","longitude":"-39.003763","cidade":"Aratuípe","color":"black"},{"latitude":"-14.320954","uf":"BA","tecnologia":"Sem serviço fixo","name":"Aurelino Leal, BA <br> Sem serviço fixo","longitude":"-39.329035","cidade":"Aurelino Leal","color":"black"},{"latitude":"-12.301641","uf":"BA","tecnologia":"Sem serviço fixo","name":"Baianópolis, BA <br> Sem serviço fixo","longitude":"-44.538829","cidade":"Baianópolis","color":"black"},{"latitude":"-11.951884","uf":"BA","tecnologia":"Sem serviço fixo","name":"Baixa Grande, BA <br> Sem serviço fixo","longitude":"-40.16897","cidade":"Baixa Grande","color":"black"},{"latitude":"-10.578784","uf":"BA","tecnologia":"Sem serviço fixo","name":"Banzaê, BA <br> Sem serviço fixo","longitude":"-38.621243","cidade":"Banzaê","color":"black"},{"latitude":"-13.623699","uf":"BA","tecnologia":"Sem serviço fixo","name":"Barra da Estiva, BA <br> Sem serviço fixo","longitude":"-41.334697","cidade":"Barra da Estiva","color":"black"},{"latitude":"-14.865423","uf":"BA","tecnologia":"Sem serviço fixo","name":"Barra do Choça, BA <br> Sem serviço fixo","longitude":"-40.579058","cidade":"Barra do Choça","color":"black"},{"latitude":"-11.81","uf":"BA","tecnologia":"Sem serviço fixo","name":"Barra do Mendes, BA <br> Sem serviço fixo","longitude":"-42.058999","cidade":"Barra do Mendes","color":"black"},{"latitude":"-14.199994","uf":"BA","tecnologia":"Sem serviço fixo","name":"Barra do Rocha, BA <br> Sem serviço fixo","longitude":"-39.599098","cidade":"Barra do Rocha","color":"black"},{"latitude":"-11.0859","uf":"BA","tecnologia":"Sem serviço fixo","name":"Barra, BA <br> Sem serviço fixo","longitude":"-43.145913","cidade":"Barra","color":"black"},{"latitude":"-11.760493","uf":"BA","tecnologia":"Sem serviço fixo","name":"Barro Alto, BA <br> Sem serviço fixo","longitude":"-41.905441","cidade":"Barro Alto","color":"black"},{"latitude":"-11.527222","uf":"BA","tecnologia":"Sem serviço fixo","name":"Barrocas, BA <br> Sem serviço fixo","longitude":"-39.077594","cidade":"Barrocas","color":"black"},{"latitude":"-15.860789","uf":"BA","tecnologia":"Sem serviço fixo","name":"Belmonte, BA <br> Sem serviço fixo","longitude":"-38.87578","cidade":"Belmonte","color":"black"},{"latitude":"-15.033362","uf":"BA","tecnologia":"Sem serviço fixo","name":"Belo Campo, BA <br> Sem serviço fixo","longitude":"-41.265172","cidade":"Belo Campo","color":"black"},{"latitude":"-11.607156","uf":"BA","tecnologia":"Sem serviço fixo","name":"Biritinga, BA <br> Sem serviço fixo","longitude":"-38.805055","cidade":"Biritinga","color":"black"},{"latitude":"-14.359754","uf":"BA","tecnologia":"Sem serviço fixo","name":"Boa Nova, BA <br> Sem serviço fixo","longitude":"-40.206444","cidade":"Boa Nova","color":"black"},{"latitude":"-12.649774","uf":"BA","tecnologia":"Sem serviço fixo","name":"Boa Vista do Tupim, BA <br> Sem serviço fixo","longitude":"-40.606376","cidade":"Boa Vista do Tupim","color":"black"},{"latitude":"-13.250571","uf":"BA","tecnologia":"Sem serviço fixo","name":"Bom Jesus da Lapa, BA <br> Sem serviço fixo","longitude":"-43.410754","cidade":"Bom Jesus da Lapa","color":"black"},{"latitude":"-14.366312","uf":"BA","tecnologia":"Sem serviço fixo","name":"Bom Jesus da Serra, BA <br> Sem serviço fixo","longitude":"-40.512556","cidade":"Bom Jesus da Serra","color":"black"},{"latitude":"-12.706887","uf":"BA","tecnologia":"Sem serviço fixo","name":"Boninal, BA <br> Sem serviço fixo","longitude":"-41.828604","cidade":"Boninal","color":"black"},{"latitude":"-11.966768","uf":"BA","tecnologia":"Sem serviço fixo","name":"Bonito, BA <br> Sem serviço fixo","longitude":"-41.264698","cidade":"Bonito","color":"black"},{"latitude":"-12.820536","uf":"BA","tecnologia":"Sem serviço fixo","name":"Boquira, BA <br> Sem serviço fixo","longitude":"-42.732354","cidade":"Boquira","color":"black"},{"latitude":"-13.377235","uf":"BA","tecnologia":"Sem serviço fixo","name":"Botuporã, BA <br> Sem serviço fixo","longitude":"-42.516301","cidade":"Botuporã","color":"black"},{"latitude":"-13.103948","uf":"BA","tecnologia":"Sem serviço fixo","name":"Brejões, BA <br> Sem serviço fixo","longitude":"-39.798797","cidade":"Brejões","color":"black"},{"latitude":"-12.481547","uf":"BA","tecnologia":"Sem serviço fixo","name":"Brejolândia, BA <br> Sem serviço fixo","longitude":"-43.967855","cidade":"Brejolândia","color":"black"},{"latitude":"-11.991452","uf":"BA","tecnologia":"Sem serviço fixo","name":"Brotas de Macaúbas, BA <br> Sem serviço fixo","longitude":"-42.632609","cidade":"Brotas de Macaúbas","color":"black"},{"latitude":"-14.202127","uf":"BA","tecnologia":"Sem serviço fixo","name":"Brumado, BA <br> Sem serviço fixo","longitude":"-41.669592","cidade":"Brumado","color":"black"},{"latitude":"-14.959497","uf":"BA","tecnologia":"Sem serviço fixo","name":"Buerarema, BA <br> Sem serviço fixo","longitude":"-39.302849","cidade":"Buerarema","color":"black"},{"latitude":"-10.717055","uf":"BA","tecnologia":"Sem serviço fixo","name":"Buritirama, BA <br> Sem serviço fixo","longitude":"-43.630231","cidade":"Buritirama","color":"black"},{"latitude":"-14.969854","uf":"BA","tecnologia":"Sem serviço fixo","name":"Caatiba, BA <br> Sem serviço fixo","longitude":"-40.409156","cidade":"Caatiba","color":"black"},{"latitude":"-12.531694","uf":"BA","tecnologia":"Sem serviço fixo","name":"Cabaceiras do Paraguaçu, BA <br> Sem serviço fixo","longitude":"-39.190231","cidade":"Cabaceiras do Paraguaçu","color":"black"},{"latitude":"-12.599443","uf":"BA","tecnologia":"Sem serviço fixo","name":"Cachoeira, BA <br> Sem serviço fixo","longitude":"-38.958695","cidade":"Cachoeira","color":"black"},{"latitude":"-14.500281","uf":"BA","tecnologia":"Sem serviço fixo","name":"Caculé, BA <br> Sem serviço fixo","longitude":"-42.222872","cidade":"Caculé","color":"black"},{"latitude":"-11.067693","uf":"BA","tecnologia":"Sem serviço fixo","name":"Caém, BA <br> Sem serviço fixo","longitude":"-40.432039","cidade":"Caém","color":"black"},{"latitude":"-14.334745","uf":"BA","tecnologia":"Sem serviço fixo","name":"Caetanos, BA <br> Sem serviço fixo","longitude":"-40.917506","cidade":"Caetanos","color":"black"},{"latitude":"-14.068422","uf":"BA","tecnologia":"Sem serviço fixo","name":"Caetité, BA <br> Sem serviço fixo","longitude":"-42.486133","cidade":"Caetité","color":"black"},{"latitude":"-11.691399","uf":"BA","tecnologia":"Sem serviço fixo","name":"Cafarnaum, BA <br> Sem serviço fixo","longitude":"-41.468823","cidade":"Cafarnaum","color":"black"},{"latitude":"-13.490377","uf":"BA","tecnologia":"Sem serviço fixo","name":"Cairu, BA <br> Sem serviço fixo","longitude":"-39.046525","cidade":"Cairu","color":"black"},{"latitude":"-11.020798","uf":"BA","tecnologia":"Sem serviço fixo","name":"Caldeirão Grande, BA <br> Sem serviço fixo","longitude":"-40.295577","cidade":"Caldeirão Grande","color":"black"},{"latitude":"-15.414157","uf":"BA","tecnologia":"Sem serviço fixo","name":"Camacan, BA <br> Sem serviço fixo","longitude":"-39.491937","cidade":"Camacan","color":"black"},{"latitude":"-13.939773","uf":"BA","tecnologia":"Sem serviço fixo","name":"Camamu, BA <br> Sem serviço fixo","longitude":"-39.107082","cidade":"Camamu","color":"black"},{"latitude":"-9.522212","uf":"BA","tecnologia":"Sem serviço fixo","name":"Campo Alegre de Lourdes, BA <br> Sem serviço fixo","longitude":"-43.01258","cidade":"Campo Alegre de Lourdes","color":"black"},{"latitude":"-10.51055","uf":"BA","tecnologia":"Sem serviço fixo","name":"Campo Formoso, BA <br> Sem serviço fixo","longitude":"-40.320031","cidade":"Campo Formoso","color":"black"},{"latitude":"-13.072454","uf":"BA","tecnologia":"Sem serviço fixo","name":"Canápolis, BA <br> Sem serviço fixo","longitude":"-44.200949","cidade":"Canápolis","color":"black"},{"latitude":"-11.685831","uf":"BA","tecnologia":"Sem serviço fixo","name":"Canarana, BA <br> Sem serviço fixo","longitude":"-41.767705","cidade":"Canarana","color":"black"},{"latitude":"-15.672205","uf":"BA","tecnologia":"Sem serviço fixo","name":"Canavieiras, BA <br> Sem serviço fixo","longitude":"-38.953648","cidade":"Canavieiras","color":"black"},{"latitude":"-11.804851","uf":"BA","tecnologia":"Sem serviço fixo","name":"Candeal, BA <br> Sem serviço fixo","longitude":"-39.120277","cidade":"Candeal","color":"black"},{"latitude":"-12.671566","uf":"BA","tecnologia":"Sem serviço fixo","name":"Candeias, BA <br> Sem serviço fixo","longitude":"-38.547152","cidade":"Candeias","color":"black"},{"latitude":"-14.409738","uf":"BA","tecnologia":"Sem serviço fixo","name":"Candiba, BA <br> Sem serviço fixo","longitude":"-42.866694","cidade":"Candiba","color":"black"},{"latitude":"-15.499309","uf":"BA","tecnologia":"Sem serviço fixo","name":"Cândido Sales, BA <br> Sem serviço fixo","longitude":"-41.241438","cidade":"Cândido Sales","color":"black"},{"latitude":"-10.664713","uf":"BA","tecnologia":"Sem serviço fixo","name":"Cansanção, BA <br> Sem serviço fixo","longitude":"-39.494388","cidade":"Cansanção","color":"black"},{"latitude":"-9.900135","uf":"BA","tecnologia":"Sem serviço fixo","name":"Canudos, BA <br> Sem serviço fixo","longitude":"-39.147059","cidade":"Canudos","color":"black"},{"latitude":"-11.665797","uf":"BA","tecnologia":"Sem serviço fixo","name":"Capela do Alto Alegre, BA <br> Sem serviço fixo","longitude":"-39.834912","cidade":"Capela do Alto Alegre","color":"black"},{"latitude":"-11.379659","uf":"BA","tecnologia":"Sem serviço fixo","name":"Capim Grosso, BA <br> Sem serviço fixo","longitude":"-40.008951","cidade":"Capim Grosso","color":"black"},{"latitude":"-14.717677","uf":"BA","tecnologia":"Sem serviço fixo","name":"Caraíbas, BA <br> Sem serviço fixo","longitude":"-41.260336","cidade":"Caraíbas","color":"black"},{"latitude":"-17.726839","uf":"BA","tecnologia":"Sem serviço fixo","name":"Caravelas, BA <br> Sem serviço fixo","longitude":"-39.259679","cidade":"Caravelas","color":"black"},{"latitude":"-11.947191","uf":"BA","tecnologia":"Sem serviço fixo","name":"Cardeal da Silva, BA <br> Sem serviço fixo","longitude":"-37.946905","cidade":"Cardeal da Silva","color":"black"},{"latitude":"-14.298524","uf":"BA","tecnologia":"Sem serviço fixo","name":"Carinhanha, BA <br> Sem serviço fixo","longitude":"-43.772349","cidade":"Carinhanha","color":"black"},{"latitude":"-9.164083","uf":"BA","tecnologia":"Sem serviço fixo","name":"Casa Nova, BA <br> Sem serviço fixo","longitude":"-40.973977","cidade":"Casa Nova","color":"black"},{"latitude":"-12.75795","uf":"BA","tecnologia":"Sem serviço fixo","name":"Castro Alves, BA <br> Sem serviço fixo","longitude":"-39.424753","cidade":"Castro Alves","color":"black"},{"latitude":"-12.310013","uf":"BA","tecnologia":"Sem serviço fixo","name":"Catolândia, BA <br> Sem serviço fixo","longitude":"-44.864808","cidade":"Catolândia","color":"black"},{"latitude":"-12.351274","uf":"BA","tecnologia":"Sem serviço fixo","name":"Catu, BA <br> Sem serviço fixo","longitude":"-38.379108","cidade":"Catu","color":"black"},{"latitude":"-13.323938","uf":"BA","tecnologia":"Sem serviço fixo","name":"Caturama, BA <br> Sem serviço fixo","longitude":"-42.290385","cidade":"Caturama","color":"black"},{"latitude":"-11.137576","uf":"BA","tecnologia":"Sem serviço fixo","name":"Central, BA <br> Sem serviço fixo","longitude":"-42.111625","cidade":"Central","color":"black"},{"latitude":"-8.969498","uf":"BA","tecnologia":"Sem serviço fixo","name":"Chorrochó, BA <br> Sem serviço fixo","longitude":"-39.097942","cidade":"Chorrochó","color":"black"},{"latitude":"-10.589664","uf":"BA","tecnologia":"Sem serviço fixo","name":"Cícero Dantas, BA <br> Sem serviço fixo","longitude":"-38.379377","cidade":"Cícero Dantas","color":"black"},{"latitude":"-11.103172","uf":"BA","tecnologia":"Sem serviço fixo","name":"Cipó, BA <br> Sem serviço fixo","longitude":"-38.517942","cidade":"Cipó","color":"black"},{"latitude":"-14.636996","uf":"BA","tecnologia":"Sem serviço fixo","name":"Coaraci, BA <br> Sem serviço fixo","longitude":"-39.555609","cidade":"Coaraci","color":"black"},{"latitude":"-14.18136","uf":"BA","tecnologia":"Sem serviço fixo","name":"Cocos, BA <br> Sem serviço fixo","longitude":"-44.53522","cidade":"Cocos","color":"black"},{"latitude":"-12.507835","uf":"BA","tecnologia":"Sem serviço fixo","name":"Conceição da Feira, BA <br> Sem serviço fixo","longitude":"-38.997823","cidade":"Conceição da Feira","color":"black"},{"latitude":"-12.783579","uf":"BA","tecnologia":"Sem serviço fixo","name":"Conceição do Almeida, BA <br> Sem serviço fixo","longitude":"-39.171466","cidade":"Conceição do Almeida","color":"black"},{"latitude":"-11.559953","uf":"BA","tecnologia":"Sem serviço fixo","name":"Conceição do Coité, BA <br> Sem serviço fixo","longitude":"-39.280827","cidade":"Conceição do Coité","color":"black"},{"latitude":"-12.326831","uf":"BA","tecnologia":"Sem serviço fixo","name":"Conceição do Jacuípe, BA <br> Sem serviço fixo","longitude":"-38.768433","cidade":"Conceição do Jacuípe","color":"black"},{"latitude":"-11.817937","uf":"BA","tecnologia":"Sem serviço fixo","name":"Conde, BA <br> Sem serviço fixo","longitude":"-37.613094","cidade":"Conde","color":"black"},{"latitude":"-14.902227","uf":"BA","tecnologia":"Sem serviço fixo","name":"Condeúba, BA <br> Sem serviço fixo","longitude":"-41.971829","cidade":"Condeúba","color":"black"},{"latitude":"-13.75369","uf":"BA","tecnologia":"Sem serviço fixo","name":"Contendas do Sincorá, BA <br> Sem serviço fixo","longitude":"-41.047953","cidade":"Contendas do Sincorá","color":"black"},{"latitude":"-12.233332","uf":"BA","tecnologia":"Sem serviço fixo","name":"Coração de Maria, BA <br> Sem serviço fixo","longitude":"-38.748654","cidade":"Coração de Maria","color":"black"},{"latitude":"-15.035641","uf":"BA","tecnologia":"Sem serviço fixo","name":"Cordeiros, BA <br> Sem serviço fixo","longitude":"-41.930796","cidade":"Cordeiros","color":"black"},{"latitude":"-13.823216","uf":"BA","tecnologia":"Sem serviço fixo","name":"Coribe, BA <br> Sem serviço fixo","longitude":"-44.458593","cidade":"Coribe","color":"black"},{"latitude":"-10.2847","uf":"BA","tecnologia":"Sem serviço fixo","name":"Coronel João sá, BA <br> Sem serviço fixo","longitude":"-37.919825","cidade":"Coronel João sá","color":"black"},{"latitude":"-13.347674","uf":"BA","tecnologia":"Sem serviço fixo","name":"Correntina, BA <br> Sem serviço fixo","longitude":"-44.633335","cidade":"Correntina","color":"black"},{"latitude":"-12.022761","uf":"BA","tecnologia":"Sem serviço fixo","name":"Cotegipe, BA <br> Sem serviço fixo","longitude":"-44.256559","cidade":"Cotegipe","color":"black"},{"latitude":"-13.353063","uf":"BA","tecnologia":"Sem serviço fixo","name":"Cravolândia, BA <br> Sem serviço fixo","longitude":"-39.803083","cidade":"Cravolândia","color":"black"},{"latitude":"-11.505929","uf":"BA","tecnologia":"Sem serviço fixo","name":"Crisópolis, BA <br> Sem serviço fixo","longitude":"-38.15148","cidade":"Crisópolis","color":"black"},{"latitude":"-12.224899","uf":"BA","tecnologia":"Sem serviço fixo","name":"Cristópolis, BA <br> Sem serviço fixo","longitude":"-44.421358","cidade":"Cristópolis","color":"black"},{"latitude":"-12.667516","uf":"BA","tecnologia":"Sem serviço fixo","name":"Cruz Das Almas, BA <br> Sem serviço fixo","longitude":"-39.100787","cidade":"Cruz Das Almas","color":"black"},{"latitude":"-8.984577","uf":"BA","tecnologia":"Sem serviço fixo","name":"Curaçá, BA <br> Sem serviço fixo","longitude":"-39.899671","cidade":"Curaçá","color":"black"},{"latitude":"-14.4229","uf":"BA","tecnologia":"Sem serviço fixo","name":"Dário Meira, BA <br> Sem serviço fixo","longitude":"-39.903129","cidade":"Dário Meira","color":"black"},{"latitude":"-13.756499","uf":"BA","tecnologia":"Sem serviço fixo","name":"Dom Basílio, BA <br> Sem serviço fixo","longitude":"-41.767663","cidade":"Dom Basílio","color":"black"},{"latitude":"-12.901582","uf":"BA","tecnologia":"Sem serviço fixo","name":"Dom Macedo Costa, BA <br> Sem serviço fixo","longitude":"-39.192259","cidade":"Dom Macedo Costa","color":"black"},{"latitude":"-12.941743","uf":"BA","tecnologia":"Sem serviço fixo","name":"Elísio Medrado, BA <br> Sem serviço fixo","longitude":"-39.519087","cidade":"Elísio Medrado","color":"black"},{"latitude":"-15.530168","uf":"BA","tecnologia":"Sem serviço fixo","name":"Encruzilhada, BA <br> Sem serviço fixo","longitude":"-40.912432","cidade":"Encruzilhada","color":"black"},{"latitude":"-11.939164","uf":"BA","tecnologia":"Sem serviço fixo","name":"Entre Rios, BA <br> Sem serviço fixo","longitude":"-38.087125","cidade":"Entre Rios","color":"black"},{"latitude":"-13.421467","uf":"BA","tecnologia":"Sem serviço fixo","name":"Érico Cardoso, BA <br> Sem serviço fixo","longitude":"-42.1352","cidade":"Érico Cardoso","color":"black"},{"latitude":"-11.794215","uf":"BA","tecnologia":"Sem serviço fixo","name":"Esplanada, BA <br> Sem serviço fixo","longitude":"-37.943216","cidade":"Esplanada","color":"black"},{"latitude":"-10.507754","uf":"BA","tecnologia":"Sem serviço fixo","name":"Euclides da Cunha, BA <br> Sem serviço fixo","longitude":"-39.015286","cidade":"Euclides da Cunha","color":"black"},{"latitude":"-10.616013","uf":"BA","tecnologia":"Sem serviço fixo","name":"Fátima, BA <br> Sem serviço fixo","longitude":"-38.223891","cidade":"Fátima","color":"black"},{"latitude":"-14.204405","uf":"BA","tecnologia":"Sem serviço fixo","name":"Feira da Mata, BA <br> Sem serviço fixo","longitude":"-44.274424","cidade":"Feira da Mata","color":"black"},{"latitude":"-10.740475","uf":"BA","tecnologia":"Sem serviço fixo","name":"Filadélfia, BA <br> Sem serviço fixo","longitude":"-40.14371","cidade":"Filadélfia","color":"black"},{"latitude":"-14.982334","uf":"BA","tecnologia":"Sem serviço fixo","name":"Firmino Alves, BA <br> Sem serviço fixo","longitude":"-39.926859","cidade":"Firmino Alves","color":"black"},{"latitude":"-14.862934","uf":"BA","tecnologia":"Sem serviço fixo","name":"Floresta Azul, BA <br> Sem serviço fixo","longitude":"-39.657877","cidade":"Floresta Azul","color":"black"},{"latitude":"-11.032812","uf":"BA","tecnologia":"Sem serviço fixo","name":"Formosa do Rio Preto, BA <br> Sem serviço fixo","longitude":"-45.19298","cidade":"Formosa do Rio Preto","color":"black"},{"latitude":"-13.744101","uf":"BA","tecnologia":"Sem serviço fixo","name":"Gandu, BA <br> Sem serviço fixo","longitude":"-39.474651","cidade":"Gandu","color":"black"},{"latitude":"-11.468796","uf":"BA","tecnologia":"Sem serviço fixo","name":"Gavião, BA <br> Sem serviço fixo","longitude":"-39.775751","cidade":"Gavião","color":"black"},{"latitude":"-11.434233","uf":"BA","tecnologia":"Sem serviço fixo","name":"Gentio do Ouro, BA <br> Sem serviço fixo","longitude":"-42.507652","cidade":"Gentio do Ouro","color":"black"},{"latitude":"-9.343822","uf":"BA","tecnologia":"Sem serviço fixo","name":"Glória, BA <br> Sem serviço fixo","longitude":"-38.254397","cidade":"Glória","color":"black"},{"latitude":"-14.319481","uf":"BA","tecnologia":"Sem serviço fixo","name":"Gongogi, BA <br> Sem serviço fixo","longitude":"-39.46899","cidade":"Gongogi","color":"black"},{"latitude":"-12.599415","uf":"BA","tecnologia":"Sem serviço fixo","name":"Governador Mangabeira, BA <br> Sem serviço fixo","longitude":"-39.041207","cidade":"Governador Mangabeira","color":"black"},{"latitude":"-14.54668","uf":"BA","tecnologia":"Sem serviço fixo","name":"Guajeru, BA <br> Sem serviço fixo","longitude":"-41.938064","cidade":"Guajeru","color":"black"},{"latitude":"-14.223066","uf":"BA","tecnologia":"Sem serviço fixo","name":"Guanambi, BA <br> Sem serviço fixo","longitude":"-42.779943","cidade":"Guanambi","color":"black"},{"latitude":"-16.583276","uf":"BA","tecnologia":"Sem serviço fixo","name":"Guaratinga, BA <br> Sem serviço fixo","longitude":"-39.784713","cidade":"Guaratinga","color":"black"},{"latitude":"-10.682539","uf":"BA","tecnologia":"Sem serviço fixo","name":"Heliópolis, BA <br> Sem serviço fixo","longitude":"-38.290664","cidade":"Heliópolis","color":"black"},{"latitude":"-12.766637","uf":"BA","tecnologia":"Sem serviço fixo","name":"Iaçu, BA <br> Sem serviço fixo","longitude":"-40.205609","cidade":"Iaçu","color":"black"},{"latitude":"-14.271126","uf":"BA","tecnologia":"Sem serviço fixo","name":"Ibiassucê, BA <br> Sem serviço fixo","longitude":"-42.257026","cidade":"Ibiassucê","color":"black"},{"latitude":"-14.857877","uf":"BA","tecnologia":"Sem serviço fixo","name":"Ibicaraí, BA <br> Sem serviço fixo","longitude":"-39.591434","cidade":"Ibicaraí","color":"black"},{"latitude":"-13.405918","uf":"BA","tecnologia":"Sem serviço fixo","name":"Ibicoara, BA <br> Sem serviço fixo","longitude":"-41.283989","cidade":"Ibicoara","color":"black"},{"latitude":"-14.84496","uf":"BA","tecnologia":"Sem serviço fixo","name":"Ibicuí, BA <br> Sem serviço fixo","longitude":"-39.987915","cidade":"Ibicuí","color":"black"},{"latitude":"-11.643775","uf":"BA","tecnologia":"Sem serviço fixo","name":"Ibipeba, BA <br> Sem serviço fixo","longitude":"-42.019515","cidade":"Ibipeba","color":"black"},{"latitude":"-12.880435","uf":"BA","tecnologia":"Sem serviço fixo","name":"Ibipitanga, BA <br> Sem serviço fixo","longitude":"-42.485568","cidade":"Ibipitanga","color":"black"},{"latitude":"-12.644354","uf":"BA","tecnologia":"Sem serviço fixo","name":"Ibiquera, BA <br> Sem serviço fixo","longitude":"-40.933774","cidade":"Ibiquera","color":"black"},{"latitude":"-14.164898","uf":"BA","tecnologia":"Sem serviço fixo","name":"Ibirapitanga, BA <br> Sem serviço fixo","longitude":"-39.378737","cidade":"Ibirapitanga","color":"black"},{"latitude":"-17.683151","uf":"BA","tecnologia":"Sem serviço fixo","name":"Ibirapuã, BA <br> Sem serviço fixo","longitude":"-40.112907","cidade":"Ibirapuã","color":"black"},{"latitude":"-14.064316","uf":"BA","tecnologia":"Sem serviço fixo","name":"Ibirataia, BA <br> Sem serviço fixo","longitude":"-39.645935","cidade":"Ibirataia","color":"black"},{"latitude":"-12.650181","uf":"BA","tecnologia":"Sem serviço fixo","name":"Ibitiara, BA <br> Sem serviço fixo","longitude":"-42.217946","cidade":"Ibitiara","color":"black"},{"latitude":"-11.541426","uf":"BA","tecnologia":"Sem serviço fixo","name":"Ibititá, BA <br> Sem serviço fixo","longitude":"-41.97481","cidade":"Ibititá","color":"black"},{"latitude":"-12.177876","uf":"BA","tecnologia":"Sem serviço fixo","name":"Ibotirama, BA <br> Sem serviço fixo","longitude":"-43.21669","cidade":"Ibotirama","color":"black"},{"latitude":"-11.743065","uf":"BA","tecnologia":"Sem serviço fixo","name":"Ichu, BA <br> Sem serviço fixo","longitude":"-39.190523","cidade":"Ichu","color":"black"},{"latitude":"-13.774025","uf":"BA","tecnologia":"Sem serviço fixo","name":"Igaporã, BA <br> Sem serviço fixo","longitude":"-42.715508","cidade":"Igaporã","color":"black"},{"latitude":"-13.829543","uf":"BA","tecnologia":"Sem serviço fixo","name":"Igrapiúna, BA <br> Sem serviço fixo","longitude":"-39.136129","cidade":"Igrapiúna","color":"black"},{"latitude":"-14.752754","uf":"BA","tecnologia":"Sem serviço fixo","name":"Iguaí, BA <br> Sem serviço fixo","longitude":"-40.089417","cidade":"Iguaí","color":"black"},{"latitude":"-11.780955","uf":"BA","tecnologia":"Sem serviço fixo","name":"Inhambupe, BA <br> Sem serviço fixo","longitude":"-38.355048","cidade":"Inhambupe","color":"black"},{"latitude":"-12.302846","uf":"BA","tecnologia":"Sem serviço fixo","name":"Ipecaetá, BA <br> Sem serviço fixo","longitude":"-39.306921","cidade":"Ipecaetá","color":"black"},{"latitude":"-14.12263","uf":"BA","tecnologia":"Sem serviço fixo","name":"Ipiaú, BA <br> Sem serviço fixo","longitude":"-39.735252","cidade":"Ipiaú","color":"black"},{"latitude":"-12.156057","uf":"BA","tecnologia":"Sem serviço fixo","name":"Ipirá, BA <br> Sem serviço fixo","longitude":"-39.735941","cidade":"Ipirá","color":"black"},{"latitude":"-11.821881","uf":"BA","tecnologia":"Sem serviço fixo","name":"Ipupiara, BA <br> Sem serviço fixo","longitude":"-42.617913","cidade":"Ipupiara","color":"black"},{"latitude":"-13.256331","uf":"BA","tecnologia":"Sem serviço fixo","name":"Irajuba, BA <br> Sem serviço fixo","longitude":"-40.08482","cidade":"Irajuba","color":"black"},{"latitude":"-13.290186","uf":"BA","tecnologia":"Sem serviço fixo","name":"Iramaia, BA <br> Sem serviço fixo","longitude":"-40.959471","cidade":"Iramaia","color":"black"},{"latitude":"-12.24288","uf":"BA","tecnologia":"Sem serviço fixo","name":"Iraquara, BA <br> Sem serviço fixo","longitude":"-41.615504","cidade":"Iraquara","color":"black"},{"latitude":"-12.050449","uf":"BA","tecnologia":"Sem serviço fixo","name":"Irará, BA <br> Sem serviço fixo","longitude":"-38.763139","cidade":"Irará","color":"black"},{"latitude":"-11.303317","uf":"BA","tecnologia":"Sem serviço fixo","name":"Irecê, BA <br> Sem serviço fixo","longitude":"-41.853462","cidade":"Irecê","color":"black"},{"latitude":"-16.573188","uf":"BA","tecnologia":"Sem serviço fixo","name":"Itabela, BA <br> Sem serviço fixo","longitude":"-39.559318","cidade":"Itabela","color":"black"},{"latitude":"-12.524182","uf":"BA","tecnologia":"Sem serviço fixo","name":"Itaberaba, BA <br> Sem serviço fixo","longitude":"-40.305897","cidade":"Itaberaba","color":"black"},{"latitude":"-14.278422","uf":"BA","tecnologia":"Sem serviço fixo","name":"Itacaré, BA <br> Sem serviço fixo","longitude":"-38.99591","cidade":"Itacaré","color":"black"},{"latitude":"-12.983121","uf":"BA","tecnologia":"Sem serviço fixo","name":"Itaeté, BA <br> Sem serviço fixo","longitude":"-40.96774","cidade":"Itaeté","color":"black"},{"latitude":"-14.1615","uf":"BA","tecnologia":"Sem serviço fixo","name":"Itagi, BA <br> Sem serviço fixo","longitude":"-40.013112","cidade":"Itagi","color":"black"},{"latitude":"-14.278239","uf":"BA","tecnologia":"Sem serviço fixo","name":"Itagibá, BA <br> Sem serviço fixo","longitude":"-39.844945","cidade":"Itagibá","color":"black"},{"latitude":"-16.081919","uf":"BA","tecnologia":"Sem serviço fixo","name":"Itagimirim, BA <br> Sem serviço fixo","longitude":"-39.613317","cidade":"Itagimirim","color":"black"},{"latitude":"-11.014672","uf":"BA","tecnologia":"Sem serviço fixo","name":"Itaguaçu da Bahia, BA <br> Sem serviço fixo","longitude":"-42.399671","cidade":"Itaguaçu da Bahia","color":"black"},{"latitude":"-15.136598","uf":"BA","tecnologia":"Sem serviço fixo","name":"Itaju do Colônia, BA <br> Sem serviço fixo","longitude":"-39.728298","cidade":"Itaju do Colônia","color":"black"},{"latitude":"-14.678766","uf":"BA","tecnologia":"Sem serviço fixo","name":"Itajuípe, BA <br> Sem serviço fixo","longitude":"-39.369823","cidade":"Itajuípe","color":"black"},{"latitude":"-17.03782","uf":"BA","tecnologia":"Sem serviço fixo","name":"Itamaraju, BA <br> Sem serviço fixo","longitude":"-39.538569","cidade":"Itamaraju","color":"black"},{"latitude":"-13.778192","uf":"BA","tecnologia":"Sem serviço fixo","name":"Itamari, BA <br> Sem serviço fixo","longitude":"-39.682959","cidade":"Itamari","color":"black"},{"latitude":"-15.242913","uf":"BA","tecnologia":"Sem serviço fixo","name":"Itambé, BA <br> Sem serviço fixo","longitude":"-40.629955","cidade":"Itambé","color":"black"},{"latitude":"-12.261435","uf":"BA","tecnologia":"Sem serviço fixo","name":"Itanagra, BA <br> Sem serviço fixo","longitude":"-38.043595","cidade":"Itanagra","color":"black"},{"latitude":"-17.164207","uf":"BA","tecnologia":"Sem serviço fixo","name":"Itanhém, BA <br> Sem serviço fixo","longitude":"-40.332139","cidade":"Itanhém","color":"black"},{"latitude":"-12.893205","uf":"BA","tecnologia":"Sem serviço fixo","name":"Itaparica, BA <br> Sem serviço fixo","longitude":"-38.67995","cidade":"Itaparica","color":"black"},{"latitude":"-14.887641","uf":"BA","tecnologia":"Sem serviço fixo","name":"Itapé, BA <br> Sem serviço fixo","longitude":"-39.423858","cidade":"Itapé","color":"black"},{"latitude":"-15.955063","uf":"BA","tecnologia":"Sem serviço fixo","name":"Itapebi, BA <br> Sem serviço fixo","longitude":"-39.532863","cidade":"Itapebi","color":"black"},{"latitude":"-15.247533","uf":"BA","tecnologia":"Sem serviço fixo","name":"Itapetinga, BA <br> Sem serviço fixo","longitude":"-40.248236","cidade":"Itapetinga","color":"black"},{"latitude":"-11.308836","uf":"BA","tecnologia":"Sem serviço fixo","name":"Itapicuru, BA <br> Sem serviço fixo","longitude":"-38.226229","cidade":"Itapicuru","color":"black"},{"latitude":"-14.413932","uf":"BA","tecnologia":"Sem serviço fixo","name":"Itapitanga, BA <br> Sem serviço fixo","longitude":"-39.565654","cidade":"Itapitanga","color":"black"},{"latitude":"-13.44589","uf":"BA","tecnologia":"Sem serviço fixo","name":"Itaquara, BA <br> Sem serviço fixo","longitude":"-39.937767","cidade":"Itaquara","color":"black"},{"latitude":"-15.652819","uf":"BA","tecnologia":"Sem serviço fixo","name":"Itarantim, BA <br> Sem serviço fixo","longitude":"-40.06496","cidade":"Itarantim","color":"black"},{"latitude":"-12.709888","uf":"BA","tecnologia":"Sem serviço fixo","name":"Itatim, BA <br> Sem serviço fixo","longitude":"-39.695199","cidade":"Itatim","color":"black"},{"latitude":"-13.529043","uf":"BA","tecnologia":"Sem serviço fixo","name":"Itiruçu, BA <br> Sem serviço fixo","longitude":"-40.147186","cidade":"Itiruçu","color":"black"},{"latitude":"-10.694761","uf":"BA","tecnologia":"Sem serviço fixo","name":"Itiúba, BA <br> Sem serviço fixo","longitude":"-39.844616","cidade":"Itiúba","color":"black"},{"latitude":"-15.109988","uf":"BA","tecnologia":"Sem serviço fixo","name":"Itororó, BA <br> Sem serviço fixo","longitude":"-40.068401","cidade":"Itororó","color":"black"},{"latitude":"-13.810651","uf":"BA","tecnologia":"Sem serviço fixo","name":"Ituaçu, BA <br> Sem serviço fixo","longitude":"-41.300284","cidade":"Ituaçu","color":"black"},{"latitude":"-13.724936","uf":"BA","tecnologia":"Sem serviço fixo","name":"Ituberá, BA <br> Sem serviço fixo","longitude":"-39.148059","cidade":"Ituberá","color":"black"},{"latitude":"-14.405424","uf":"BA","tecnologia":"Sem serviço fixo","name":"Iuiú, BA <br> Sem serviço fixo","longitude":"-43.559547","cidade":"Iuiú","color":"black"},{"latitude":"-13.607082","uf":"BA","tecnologia":"Sem serviço fixo","name":"Jaborandi, BA <br> Sem serviço fixo","longitude":"-44.425537","cidade":"Jaborandi","color":"black"},{"latitude":"-14.85409","uf":"BA","tecnologia":"Sem serviço fixo","name":"Jacaraci, BA <br> Sem serviço fixo","longitude":"-42.432878","cidade":"Jacaraci","color":"black"},{"latitude":"-11.181217","uf":"BA","tecnologia":"Sem serviço fixo","name":"Jacobina, BA <br> Sem serviço fixo","longitude":"-40.511693","cidade":"Jacobina","color":"black"},{"latitude":"-13.524834","uf":"BA","tecnologia":"Sem serviço fixo","name":"Jaguaquara, BA <br> Sem serviço fixo","longitude":"-39.964009","cidade":"Jaguaquara","color":"black"},{"latitude":"-10.256859","uf":"BA","tecnologia":"Sem serviço fixo","name":"Jaguarari, BA <br> Sem serviço fixo","longitude":"-40.199938","cidade":"Jaguarari","color":"black"},{"latitude":"-13.110924","uf":"BA","tecnologia":"Sem serviço fixo","name":"Jaguaripe, BA <br> Sem serviço fixo","longitude":"-38.893891","cidade":"Jaguaripe","color":"black"},{"latitude":"-11.561614","uf":"BA","tecnologia":"Sem serviço fixo","name":"Jandaíra, BA <br> Sem serviço fixo","longitude":"-37.785274","cidade":"Jandaíra","color":"black"},{"latitude":"-10.06848","uf":"BA","tecnologia":"Sem serviço fixo","name":"Jeremoabo, BA <br> Sem serviço fixo","longitude":"-38.347097","cidade":"Jeremoabo","color":"black"},{"latitude":"-13.262101","uf":"BA","tecnologia":"Sem serviço fixo","name":"Jiquiriçá, BA <br> Sem serviço fixo","longitude":"-39.57365","cidade":"Jiquiriçá","color":"black"},{"latitude":"-14.013085","uf":"BA","tecnologia":"Sem serviço fixo","name":"Jitaúna, BA <br> Sem serviço fixo","longitude":"-39.896892","cidade":"Jitaúna","color":"black"},{"latitude":"-11.348642","uf":"BA","tecnologia":"Sem serviço fixo","name":"João Dourado, BA <br> Sem serviço fixo","longitude":"-41.654799","cidade":"João Dourado","color":"black"},{"latitude":"-16.848752","uf":"BA","tecnologia":"Sem serviço fixo","name":"Jucuruçu, BA <br> Sem serviço fixo","longitude":"-40.164074","cidade":"Jucuruçu","color":"black"},{"latitude":"-11.043084","uf":"BA","tecnologia":"Sem serviço fixo","name":"Jussara, BA <br> Sem serviço fixo","longitude":"-41.970235","cidade":"Jussara","color":"black"},{"latitude":"-15.19201","uf":"BA","tecnologia":"Sem serviço fixo","name":"Jussari, BA <br> Sem serviço fixo","longitude":"-39.490962","cidade":"Jussari","color":"black"},{"latitude":"-13.515514","uf":"BA","tecnologia":"Sem serviço fixo","name":"Jussiape, BA <br> Sem serviço fixo","longitude":"-41.588209","cidade":"Jussiape","color":"black"},{"latitude":"-13.6541","uf":"BA","tecnologia":"Sem serviço fixo","name":"Lafaiete Coutinho, BA <br> Sem serviço fixo","longitude":"-40.21189","cidade":"Lafaiete Coutinho","color":"black"},{"latitude":"-14.033443","uf":"BA","tecnologia":"Sem serviço fixo","name":"Lagoa Real, BA <br> Sem serviço fixo","longitude":"-42.132764","cidade":"Lagoa Real","color":"black"},{"latitude":"-13.167327","uf":"BA","tecnologia":"Sem serviço fixo","name":"Laje, BA <br> Sem serviço fixo","longitude":"-39.421264","cidade":"Laje","color":"black"},{"latitude":"-17.605641","uf":"BA","tecnologia":"Sem serviço fixo","name":"Lajedão, BA <br> Sem serviço fixo","longitude":"-40.338307","cidade":"Lajedão","color":"black"},{"latitude":"-12.352889","uf":"BA","tecnologia":"Sem serviço fixo","name":"Lajedinho, BA <br> Sem serviço fixo","longitude":"-40.904752","cidade":"Lajedinho","color":"black"},{"latitude":"-13.466286","uf":"BA","tecnologia":"Sem serviço fixo","name":"Lajedo do Tabocal, BA <br> Sem serviço fixo","longitude":"-40.220429","cidade":"Lajedo do Tabocal","color":"black"},{"latitude":"-11.773013","uf":"BA","tecnologia":"Sem serviço fixo","name":"Lamarão, BA <br> Sem serviço fixo","longitude":"-38.887009","cidade":"Lamarão","color":"black"},{"latitude":"-11.385096","uf":"BA","tecnologia":"Sem serviço fixo","name":"Lapão, BA <br> Sem serviço fixo","longitude":"-41.828615","cidade":"Lapão","color":"black"},{"latitude":"-12.561604","uf":"BA","tecnologia":"Sem serviço fixo","name":"Lençóis, BA <br> Sem serviço fixo","longitude":"-41.392825","cidade":"Lençóis","color":"black"},{"latitude":"-14.684215","uf":"BA","tecnologia":"Sem serviço fixo","name":"Licínio de Almeida, BA <br> Sem serviço fixo","longitude":"-42.509527","cidade":"Licínio de Almeida","color":"black"},{"latitude":"-13.636868","uf":"BA","tecnologia":"Sem serviço fixo","name":"Livramento de Nossa Senhora, BA <br> Sem serviço fixo","longitude":"-41.843187","cidade":"Livramento de Nossa Senhora","color":"black"},{"latitude":"-12.132592","uf":"BA","tecnologia":"Sem serviço fixo","name":"Macajuba, BA <br> Sem serviço fixo","longitude":"-40.357058","cidade":"Macajuba","color":"black"},{"latitude":"-15.564563","uf":"BA","tecnologia":"Sem serviço fixo","name":"Macarani, BA <br> Sem serviço fixo","longitude":"-40.420888","cidade":"Macarani","color":"black"},{"latitude":"-13.018601","uf":"BA","tecnologia":"Sem serviço fixo","name":"Macaúbas, BA <br> Sem serviço fixo","longitude":"-42.694515","cidade":"Macaúbas","color":"black"},{"latitude":"-9.162258","uf":"BA","tecnologia":"Sem serviço fixo","name":"Macururé, BA <br> Sem serviço fixo","longitude":"-39.051784","cidade":"Macururé","color":"black"},{"latitude":"-12.744621","uf":"BA","tecnologia":"Sem serviço fixo","name":"Madre de Deus, BA <br> Sem serviço fixo","longitude":"-38.615316","cidade":"Madre de Deus","color":"black"},{"latitude":"-14.662335","uf":"BA","tecnologia":"Sem serviço fixo","name":"Maetinga, BA <br> Sem serviço fixo","longitude":"-41.49146","cidade":"Maetinga","color":"black"},{"latitude":"-15.623985","uf":"BA","tecnologia":"Sem serviço fixo","name":"Maiquinique, BA <br> Sem serviço fixo","longitude":"-40.258722","cidade":"Maiquinique","color":"black"},{"latitude":"-11.710704","uf":"BA","tecnologia":"Sem serviço fixo","name":"Mairi, BA <br> Sem serviço fixo","longitude":"-40.143732","cidade":"Mairi","color":"black"},{"latitude":"-14.384673","uf":"BA","tecnologia":"Sem serviço fixo","name":"Malhada de Pedras, BA <br> Sem serviço fixo","longitude":"-41.88422","cidade":"Malhada de Pedras","color":"black"},{"latitude":"-14.337134","uf":"BA","tecnologia":"Sem serviço fixo","name":"Malhada, BA <br> Sem serviço fixo","longitude":"-43.768634","cidade":"Malhada","color":"black"},{"latitude":"-14.147617","uf":"BA","tecnologia":"Sem serviço fixo","name":"Manoel Vitorino, BA <br> Sem serviço fixo","longitude":"-40.239895","cidade":"Manoel Vitorino","color":"black"},{"latitude":"-10.722707","uf":"BA","tecnologia":"Sem serviço fixo","name":"Mansidão, BA <br> Sem serviço fixo","longitude":"-44.042798","cidade":"Mansidão","color":"black"},{"latitude":"-13.435468","uf":"BA","tecnologia":"Sem serviço fixo","name":"Maracás, BA <br> Sem serviço fixo","longitude":"-40.432333","cidade":"Maracás","color":"black"},{"latitude":"-12.77602","uf":"BA","tecnologia":"Sem serviço fixo","name":"Maragogipe, BA <br> Sem serviço fixo","longitude":"-38.917519","cidade":"Maragogipe","color":"black"},{"latitude":"-13.006437","uf":"BA","tecnologia":"Sem serviço fixo","name":"Marcionílio Souza, BA <br> Sem serviço fixo","longitude":"-40.529457","cidade":"Marcionílio Souza","color":"black"},{"latitude":"-15.554159","uf":"BA","tecnologia":"Sem serviço fixo","name":"Mascote, BA <br> Sem serviço fixo","longitude":"-39.301602","cidade":"Mascote","color":"black"},{"latitude":"-13.910917","uf":"BA","tecnologia":"Sem serviço fixo","name":"Matina, BA <br> Sem serviço fixo","longitude":"-42.843914","cidade":"Matina","color":"black"},{"latitude":"-17.370676","uf":"BA","tecnologia":"Sem serviço fixo","name":"Medeiros Neto, BA <br> Sem serviço fixo","longitude":"-40.223776","cidade":"Medeiros Neto","color":"black"},{"latitude":"-11.429891","uf":"BA","tecnologia":"Sem serviço fixo","name":"Miguel Calmon, BA <br> Sem serviço fixo","longitude":"-40.603084","cidade":"Miguel Calmon","color":"black"},{"latitude":"-12.864635","uf":"BA","tecnologia":"Sem serviço fixo","name":"Milagres, BA <br> Sem serviço fixo","longitude":"-39.861092","cidade":"Milagres","color":"black"},{"latitude":"-10.960983","uf":"BA","tecnologia":"Sem serviço fixo","name":"Mirangaba, BA <br> Sem serviço fixo","longitude":"-40.573996","cidade":"Mirangaba","color":"black"},{"latitude":"-14.238469","uf":"BA","tecnologia":"Sem serviço fixo","name":"Mirante, BA <br> Sem serviço fixo","longitude":"-40.771799","cidade":"Mirante","color":"black"},{"latitude":"-10.437413","uf":"BA","tecnologia":"Sem serviço fixo","name":"Monte Santo, BA <br> Sem serviço fixo","longitude":"-39.332077","cidade":"Monte Santo","color":"black"},{"latitude":"-11.556892","uf":"BA","tecnologia":"Sem serviço fixo","name":"Morpará, BA <br> Sem serviço fixo","longitude":"-43.276566","cidade":"Morpará","color":"black"},{"latitude":"-11.548804","uf":"BA","tecnologia":"Sem serviço fixo","name":"Morro do Chapéu, BA <br> Sem serviço fixo","longitude":"-41.156461","cidade":"Morro do Chapéu","color":"black"},{"latitude":"-15.022454","uf":"BA","tecnologia":"Sem serviço fixo","name":"Mortugaba, BA <br> Sem serviço fixo","longitude":"-42.372663","cidade":"Mortugaba","color":"black"},{"latitude":"-13.0053","uf":"BA","tecnologia":"Sem serviço fixo","name":"Mucugê, BA <br> Sem serviço fixo","longitude":"-41.370271","cidade":"Mucugê","color":"black"},{"latitude":"-18.075392","uf":"BA","tecnologia":"Sem serviço fixo","name":"Mucuri, BA <br> Sem serviço fixo","longitude":"-39.556467","cidade":"Mucuri","color":"black"},{"latitude":"-11.964776","uf":"BA","tecnologia":"Sem serviço fixo","name":"Mulungu do Morro, BA <br> Sem serviço fixo","longitude":"-41.637352","cidade":"Mulungu do Morro","color":"black"},{"latitude":"-11.85408","uf":"BA","tecnologia":"Sem serviço fixo","name":"Mundo Novo, BA <br> Sem serviço fixo","longitude":"-40.47139","cidade":"Mundo Novo","color":"black"},{"latitude":"-13.009227","uf":"BA","tecnologia":"Sem serviço fixo","name":"Muniz Ferreira, BA <br> Sem serviço fixo","longitude":"-39.109247","cidade":"Muniz Ferreira","color":"black"},{"latitude":"-12.063376","uf":"BA","tecnologia":"Sem serviço fixo","name":"Muquém de São Francisco, BA <br> Sem serviço fixo","longitude":"-43.543808","cidade":"Muquém de São Francisco","color":"black"},{"latitude":"-12.632901","uf":"BA","tecnologia":"Sem serviço fixo","name":"Muritiba, BA <br> Sem serviço fixo","longitude":"-38.992052","cidade":"Muritiba","color":"black"},{"latitude":"-13.228381","uf":"BA","tecnologia":"Sem serviço fixo","name":"Mutuípe, BA <br> Sem serviço fixo","longitude":"-39.504367","cidade":"Mutuípe","color":"black"},{"latitude":"-13.023491","uf":"BA","tecnologia":"Sem serviço fixo","name":"Nazaré, BA <br> Sem serviço fixo","longitude":"-39.010835","cidade":"Nazaré","color":"black"},{"latitude":"-13.603992","uf":"BA","tecnologia":"Sem serviço fixo","name":"Nilo Peçanha, BA <br> Sem serviço fixo","longitude":"-39.109111","cidade":"Nilo Peçanha","color":"black"},{"latitude":"-10.819169","uf":"BA","tecnologia":"Sem serviço fixo","name":"Nordestina, BA <br> Sem serviço fixo","longitude":"-39.429705","cidade":"Nordestina","color":"black"},{"latitude":"-14.791242","uf":"BA","tecnologia":"Sem serviço fixo","name":"Nova Canaã, BA <br> Sem serviço fixo","longitude":"-40.1458","cidade":"Nova Canaã","color":"black"},{"latitude":"-11.603116","uf":"BA","tecnologia":"Sem serviço fixo","name":"Nova Fátima, BA <br> Sem serviço fixo","longitude":"-39.630215","cidade":"Nova Fátima","color":"black"},{"latitude":"-13.811995","uf":"BA","tecnologia":"Sem serviço fixo","name":"Nova Ibiá, BA <br> Sem serviço fixo","longitude":"-39.618174","cidade":"Nova Ibiá","color":"black"},{"latitude":"-13.024055","uf":"BA","tecnologia":"Sem serviço fixo","name":"Nova Itarana, BA <br> Sem serviço fixo","longitude":"-40.065267","cidade":"Nova Itarana","color":"black"},{"latitude":"-12.815001","uf":"BA","tecnologia":"Sem serviço fixo","name":"Nova Redenção, BA <br> Sem serviço fixo","longitude":"-41.074785","cidade":"Nova Redenção","color":"black"},{"latitude":"-11.232948","uf":"BA","tecnologia":"Sem serviço fixo","name":"Nova Soure, BA <br> Sem serviço fixo","longitude":"-38.487103","cidade":"Nova Soure","color":"black"},{"latitude":"-17.892648","uf":"BA","tecnologia":"Sem serviço fixo","name":"Nova Viçosa, BA <br> Sem serviço fixo","longitude":"-39.374331","cidade":"Nova Viçosa","color":"black"},{"latitude":"-12.808318","uf":"BA","tecnologia":"Sem serviço fixo","name":"Novo Horizonte, BA <br> Sem serviço fixo","longitude":"-42.168172","cidade":"Novo Horizonte","color":"black"},{"latitude":"-10.318235","uf":"BA","tecnologia":"Sem serviço fixo","name":"Novo Triunfo, BA <br> Sem serviço fixo","longitude":"-38.401374","cidade":"Novo Triunfo","color":"black"},{"latitude":"-11.349693","uf":"BA","tecnologia":"Sem serviço fixo","name":"Olindina, BA <br> Sem serviço fixo","longitude":"-38.337863","cidade":"Olindina","color":"black"},{"latitude":"-12.313183","uf":"BA","tecnologia":"Sem serviço fixo","name":"Oliveira Dos Brejinhos, BA <br> Sem serviço fixo","longitude":"-42.896872","cidade":"Oliveira Dos Brejinhos","color":"black"},{"latitude":"-12.017497","uf":"BA","tecnologia":"Sem serviço fixo","name":"Ouriçangas, BA <br> Sem serviço fixo","longitude":"-38.616624","cidade":"Ouriçangas","color":"black"},{"latitude":"-10.957848","uf":"BA","tecnologia":"Sem serviço fixo","name":"Ourolândia, BA <br> Sem serviço fixo","longitude":"-41.075576","cidade":"Ourolândia","color":"black"},{"latitude":"-14.267562","uf":"BA","tecnologia":"Sem serviço fixo","name":"Palmas de Monte Alto, BA <br> Sem serviço fixo","longitude":"-43.16086","cidade":"Palmas de Monte Alto","color":"black"},{"latitude":"-12.505865","uf":"BA","tecnologia":"Sem serviço fixo","name":"Palmeiras, BA <br> Sem serviço fixo","longitude":"-41.580886","cidade":"Palmeiras","color":"black"},{"latitude":"-13.438849","uf":"BA","tecnologia":"Sem serviço fixo","name":"Paramirim, BA <br> Sem serviço fixo","longitude":"-42.239502","cidade":"Paramirim","color":"black"},{"latitude":"-12.686974","uf":"BA","tecnologia":"Sem serviço fixo","name":"Paratinga, BA <br> Sem serviço fixo","longitude":"-43.179794","cidade":"Paratinga","color":"black"},{"latitude":"-10.685885","uf":"BA","tecnologia":"Sem serviço fixo","name":"Paripiranga, BA <br> Sem serviço fixo","longitude":"-37.862561","cidade":"Paripiranga","color":"black"},{"latitude":"-15.457226","uf":"BA","tecnologia":"Sem serviço fixo","name":"Pau Brasil, BA <br> Sem serviço fixo","longitude":"-39.645794","cidade":"Pau Brasil","color":"black"},{"latitude":"-9.398296","uf":"BA","tecnologia":"Sem serviço fixo","name":"Paulo Afonso, BA <br> Sem serviço fixo","longitude":"-38.22156","cidade":"Paulo Afonso","color":"black"},{"latitude":"-11.831289","uf":"BA","tecnologia":"Sem serviço fixo","name":"pé de Serra, BA <br> Sem serviço fixo","longitude":"-39.611037","cidade":"pé de Serra","color":"black"},{"latitude":"-12.14914","uf":"BA","tecnologia":"Sem serviço fixo","name":"Pedrão, BA <br> Sem serviço fixo","longitude":"-38.648715","cidade":"Pedrão","color":"black"},{"latitude":"-10.012005","uf":"BA","tecnologia":"Sem serviço fixo","name":"Pedro Alexandre, BA <br> Sem serviço fixo","longitude":"-37.893178","cidade":"Pedro Alexandre","color":"black"},{"latitude":"-13.146549","uf":"BA","tecnologia":"Sem serviço fixo","name":"Piatã, BA <br> Sem serviço fixo","longitude":"-41.770177","cidade":"Piatã","color":"black"},{"latitude":"-10.005079","uf":"BA","tecnologia":"Sem serviço fixo","name":"Pilão Arcado, BA <br> Sem serviço fixo","longitude":"-42.493607","cidade":"Pilão Arcado","color":"black"},{"latitude":"-14.492128","uf":"BA","tecnologia":"Sem serviço fixo","name":"Pindaí, BA <br> Sem serviço fixo","longitude":"-42.685984","cidade":"Pindaí","color":"black"},{"latitude":"-10.743338","uf":"BA","tecnologia":"Sem serviço fixo","name":"Pindobaçu, BA <br> Sem serviço fixo","longitude":"-40.367472","cidade":"Pindobaçu","color":"black"},{"latitude":"-11.811712","uf":"BA","tecnologia":"Sem serviço fixo","name":"Pintadas, BA <br> Sem serviço fixo","longitude":"-39.900859","cidade":"Pintadas","color":"black"},{"latitude":"-13.758962","uf":"BA","tecnologia":"Sem serviço fixo","name":"Piraí do Norte, BA <br> Sem serviço fixo","longitude":"-39.383592","cidade":"Piraí do Norte","color":"black"},{"latitude":"-14.944379","uf":"BA","tecnologia":"Sem serviço fixo","name":"Piripá, BA <br> Sem serviço fixo","longitude":"-41.716841","cidade":"Piripá","color":"black"},{"latitude":"-11.730008","uf":"BA","tecnologia":"Sem serviço fixo","name":"Piritiba, BA <br> Sem serviço fixo","longitude":"-40.558739","cidade":"Piritiba","color":"black"},{"latitude":"-13.261789","uf":"BA","tecnologia":"Sem serviço fixo","name":"Planaltino, BA <br> Sem serviço fixo","longitude":"-40.369519","cidade":"Planaltino","color":"black"},{"latitude":"-14.66537","uf":"BA","tecnologia":"Sem serviço fixo","name":"Planalto, BA <br> Sem serviço fixo","longitude":"-40.471843","cidade":"Planalto","color":"black"},{"latitude":"-14.523391","uf":"BA","tecnologia":"Sem serviço fixo","name":"Poções, BA <br> Sem serviço fixo","longitude":"-40.363354","cidade":"Poções","color":"black"},{"latitude":"-12.430336","uf":"BA","tecnologia":"Sem serviço fixo","name":"Pojuca, BA <br> Sem serviço fixo","longitude":"-38.337436","cidade":"Pojuca","color":"black"},{"latitude":"-10.8653","uf":"BA","tecnologia":"Sem serviço fixo","name":"Ponto Novo, BA <br> Sem serviço fixo","longitude":"-40.131144","cidade":"Ponto Novo","color":"black"},{"latitude":"-15.59429","uf":"BA","tecnologia":"Sem serviço fixo","name":"Potiraguá, BA <br> Sem serviço fixo","longitude":"-39.863846","cidade":"Potiraguá","color":"black"},{"latitude":"-17.336357","uf":"BA","tecnologia":"Sem serviço fixo","name":"Prado, BA <br> Sem serviço fixo","longitude":"-39.222721","cidade":"Prado","color":"black"},{"latitude":"-11.292345","uf":"BA","tecnologia":"Sem serviço fixo","name":"Presidente Dutra, BA <br> Sem serviço fixo","longitude":"-41.984341","cidade":"Presidente Dutra","color":"black"},{"latitude":"-14.688485","uf":"BA","tecnologia":"Sem serviço fixo","name":"Presidente Jânio Quadros, BA <br> Sem serviço fixo","longitude":"-41.679792","cidade":"Presidente Jânio Quadros","color":"black"},{"latitude":"-13.447064","uf":"BA","tecnologia":"Sem serviço fixo","name":"Presidente Tancredo Neves, BA <br> Sem serviço fixo","longitude":"-39.420267","cidade":"Presidente Tancredo Neves","color":"black"},{"latitude":"-10.973561","uf":"BA","tecnologia":"Sem serviço fixo","name":"Queimadas, BA <br> Sem serviço fixo","longitude":"-39.629347","cidade":"Queimadas","color":"black"},{"latitude":"-10.750519","uf":"BA","tecnologia":"Sem serviço fixo","name":"Quijingue, BA <br> Sem serviço fixo","longitude":"-39.213694","cidade":"Quijingue","color":"black"},{"latitude":"-11.403061","uf":"BA","tecnologia":"Sem serviço fixo","name":"Quixabeira, BA <br> Sem serviço fixo","longitude":"-40.120045","cidade":"Quixabeira","color":"black"},{"latitude":"-12.405257","uf":"BA","tecnologia":"Sem serviço fixo","name":"Rafael Jambeiro, BA <br> Sem serviço fixo","longitude":"-39.500658","cidade":"Rafael Jambeiro","color":"black"},{"latitude":"-9.61944","uf":"BA","tecnologia":"Sem serviço fixo","name":"Remanso, BA <br> Sem serviço fixo","longitude":"-42.084839","cidade":"Remanso","color":"black"},{"latitude":"-11.483198","uf":"BA","tecnologia":"Sem serviço fixo","name":"Retirolândia, BA <br> Sem serviço fixo","longitude":"-39.423358","cidade":"Retirolândia","color":"black"},{"latitude":"-11.750755","uf":"BA","tecnologia":"Sem serviço fixo","name":"Riachão Das Neves, BA <br> Sem serviço fixo","longitude":"-44.914259","cidade":"Riachão Das Neves","color":"black"},{"latitude":"-11.806681","uf":"BA","tecnologia":"Sem serviço fixo","name":"Riachão do Jacuípe, BA <br> Sem serviço fixo","longitude":"-39.381812","cidade":"Riachão do Jacuípe","color":"black"},{"latitude":"-13.605941","uf":"BA","tecnologia":"Sem serviço fixo","name":"Riacho de Santana, BA <br> Sem serviço fixo","longitude":"-42.939675","cidade":"Riacho de Santana","color":"black"},{"latitude":"-11.042071","uf":"BA","tecnologia":"Sem serviço fixo","name":"Ribeira do Amparo, BA <br> Sem serviço fixo","longitude":"-38.424211","cidade":"Ribeira do Amparo","color":"black"},{"latitude":"-10.837299","uf":"BA","tecnologia":"Sem serviço fixo","name":"Ribeira do Pombal, BA <br> Sem serviço fixo","longitude":"-38.538152","cidade":"Ribeira do Pombal","color":"black"},{"latitude":"-15.450775","uf":"BA","tecnologia":"Sem serviço fixo","name":"Ribeirão do Largo, BA <br> Sem serviço fixo","longitude":"-40.744137","cidade":"Ribeirão do Largo","color":"black"},{"latitude":"-13.585218","uf":"BA","tecnologia":"Sem serviço fixo","name":"Rio de Contas, BA <br> Sem serviço fixo","longitude":"-41.804764","cidade":"Rio de Contas","color":"black"},{"latitude":"-14.407144","uf":"BA","tecnologia":"Sem serviço fixo","name":"Rio do Antônio, BA <br> Sem serviço fixo","longitude":"-42.072103","cidade":"Rio do Antônio","color":"black"},{"latitude":"-13.11853","uf":"BA","tecnologia":"Sem serviço fixo","name":"Rio do Pires, BA <br> Sem serviço fixo","longitude":"-42.290166","cidade":"Rio do Pires","color":"black"},{"latitude":"-11.48137","uf":"BA","tecnologia":"Sem serviço fixo","name":"Rio Real, BA <br> Sem serviço fixo","longitude":"-37.933243","cidade":"Rio Real","color":"black"},{"latitude":"-8.850214","uf":"BA","tecnologia":"Sem serviço fixo","name":"Rodelas, BA <br> Sem serviço fixo","longitude":"-38.77999","cidade":"Rodelas","color":"black"},{"latitude":"-12.281612","uf":"BA","tecnologia":"Sem serviço fixo","name":"Ruy Barbosa, BA <br> Sem serviço fixo","longitude":"-40.493101","cidade":"Ruy Barbosa","color":"black"},{"latitude":"-12.873014","uf":"BA","tecnologia":"Sem serviço fixo","name":"Salinas da Margarida, BA <br> Sem serviço fixo","longitude":"-38.756164","cidade":"Salinas da Margarida","color":"black"},{"latitude":"-11.95149","uf":"BA","tecnologia":"Sem serviço fixo","name":"Santa Bárbara, BA <br> Sem serviço fixo","longitude":"-38.968085","cidade":"Santa Bárbara","color":"black"},{"latitude":"-9.732273","uf":"BA","tecnologia":"Sem serviço fixo","name":"Santa Brígida, BA <br> Sem serviço fixo","longitude":"-38.120935","cidade":"Santa Brígida","color":"black"},{"latitude":"-16.282529","uf":"BA","tecnologia":"Sem serviço fixo","name":"Santa Cruz Cabrália, BA <br> Sem serviço fixo","longitude":"-39.029495","cidade":"Santa Cruz Cabrália","color":"black"},{"latitude":"-14.963975","uf":"BA","tecnologia":"Sem serviço fixo","name":"Santa Cruz da Vitória, BA <br> Sem serviço fixo","longitude":"-39.811503","cidade":"Santa Cruz da Vitória","color":"black"},{"latitude":"-13.2793","uf":"BA","tecnologia":"Sem serviço fixo","name":"Santa Inês, BA <br> Sem serviço fixo","longitude":"-39.813979","cidade":"Santa Inês","color":"black"},{"latitude":"-13.385867","uf":"BA","tecnologia":"Sem serviço fixo","name":"Santa Maria da Vitória, BA <br> Sem serviço fixo","longitude":"-44.201057","cidade":"Santa Maria da Vitória","color":"black"},{"latitude":"-11.006253","uf":"BA","tecnologia":"Sem serviço fixo","name":"Santa Rita de Cássia, BA <br> Sem serviço fixo","longitude":"-44.525496","cidade":"Santa Rita de Cássia","color":"black"},{"latitude":"-12.76913","uf":"BA","tecnologia":"Sem serviço fixo","name":"Santa Teresinha, BA <br> Sem serviço fixo","longitude":"-39.520111","cidade":"Santa Teresinha","color":"black"},{"latitude":"-11.250826","uf":"BA","tecnologia":"Sem serviço fixo","name":"Santaluz, BA <br> Sem serviço fixo","longitude":"-39.375005","cidade":"Santaluz","color":"black"},{"latitude":"-12.031109","uf":"BA","tecnologia":"Sem serviço fixo","name":"Santanópolis, BA <br> Sem serviço fixo","longitude":"-38.869372","cidade":"Santanópolis","color":"black"},{"latitude":"-12.547206","uf":"BA","tecnologia":"Sem serviço fixo","name":"Santo Amaro, BA <br> Sem serviço fixo","longitude":"-38.713679","cidade":"Santo Amaro","color":"black"},{"latitude":"-12.961387","uf":"BA","tecnologia":"Sem serviço fixo","name":"Santo Antônio de Jesus, BA <br> Sem serviço fixo","longitude":"-39.258403","cidade":"Santo Antônio de Jesus","color":"black"},{"latitude":"-12.427981","uf":"BA","tecnologia":"Sem serviço fixo","name":"Santo Estêvão, BA <br> Sem serviço fixo","longitude":"-39.250541","cidade":"Santo Estêvão","color":"black"},{"latitude":"-12.357196","uf":"BA","tecnologia":"Sem serviço fixo","name":"São Desidério, BA <br> Sem serviço fixo","longitude":"-44.976881","cidade":"São Desidério","color":"black"},{"latitude":"-11.464927","uf":"BA","tecnologia":"Sem serviço fixo","name":"São Domingos, BA <br> Sem serviço fixo","longitude":"-39.526792","cidade":"São Domingos","color":"black"},{"latitude":"-12.839439","uf":"BA","tecnologia":"Sem serviço fixo","name":"São Felipe, BA <br> Sem serviço fixo","longitude":"-39.08932","cidade":"São Felipe","color":"black"},{"latitude":"-13.401883","uf":"BA","tecnologia":"Sem serviço fixo","name":"São Félix do Coribe, BA <br> Sem serviço fixo","longitude":"-44.183708","cidade":"São Félix do Coribe","color":"black"},{"latitude":"-12.610433","uf":"BA","tecnologia":"Sem serviço fixo","name":"São Félix, BA <br> Sem serviço fixo","longitude":"-38.97271","cidade":"São Félix","color":"black"},{"latitude":"-12.618345","uf":"BA","tecnologia":"Sem serviço fixo","name":"São Francisco do Conde, BA <br> Sem serviço fixo","longitude":"-38.678601","cidade":"São Francisco do Conde","color":"black"},{"latitude":"-12.433096","uf":"BA","tecnologia":"Sem serviço fixo","name":"São Gonçalo Dos Campos, BA <br> Sem serviço fixo","longitude":"-38.966294","cidade":"São Gonçalo Dos Campos","color":"black"},{"latitude":"-15.078666","uf":"BA","tecnologia":"Sem serviço fixo","name":"São José da Vitória, BA <br> Sem serviço fixo","longitude":"-39.343685","cidade":"São José da Vitória","color":"black"},{"latitude":"-11.41368","uf":"BA","tecnologia":"Sem serviço fixo","name":"São José do Jacuípe, BA <br> Sem serviço fixo","longitude":"-39.866934","cidade":"São José do Jacuípe","color":"black"},{"latitude":"-13.043387","uf":"BA","tecnologia":"Sem serviço fixo","name":"São Miguel Das Matas, BA <br> Sem serviço fixo","longitude":"-39.457844","cidade":"São Miguel Das Matas","color":"black"},{"latitude":"-12.512264","uf":"BA","tecnologia":"Sem serviço fixo","name":"São Sebastião do Passé, BA <br> Sem serviço fixo","longitude":"-38.490513","cidade":"São Sebastião do Passé","color":"black"},{"latitude":"-12.720764","uf":"BA","tecnologia":"Sem serviço fixo","name":"Sapeaçu, BA <br> Sem serviço fixo","longitude":"-39.182426","cidade":"Sapeaçu","color":"black"},{"latitude":"-11.592928","uf":"BA","tecnologia":"Sem serviço fixo","name":"Sátiro Dias, BA <br> Sem serviço fixo","longitude":"-38.593822","cidade":"Sátiro Dias","color":"black"},{"latitude":"-12.738664","uf":"BA","tecnologia":"Sem serviço fixo","name":"Saubara, BA <br> Sem serviço fixo","longitude":"-38.762473","cidade":"Saubara","color":"black"},{"latitude":"-10.94279","uf":"BA","tecnologia":"Sem serviço fixo","name":"Saúde, BA <br> Sem serviço fixo","longitude":"-40.415458","cidade":"Saúde","color":"black"},{"latitude":"-12.416905","uf":"BA","tecnologia":"Sem serviço fixo","name":"Seabra, BA <br> Sem serviço fixo","longitude":"-41.772159","cidade":"Seabra","color":"black"},{"latitude":"-14.571002","uf":"BA","tecnologia":"Sem serviço fixo","name":"Sebastião Laranjeiras, BA <br> Sem serviço fixo","longitude":"-42.943438","cidade":"Sebastião Laranjeiras","color":"black"},{"latitude":"-10.459354","uf":"BA","tecnologia":"Sem serviço fixo","name":"Senhor do Bonfim, BA <br> Sem serviço fixo","longitude":"-40.186532","cidade":"Senhor do Bonfim","color":"black"},{"latitude":"-9.741378","uf":"BA","tecnologia":"Sem serviço fixo","name":"Sento sé, BA <br> Sem serviço fixo","longitude":"-41.878563","cidade":"Sento sé","color":"black"},{"latitude":"-13.565889","uf":"BA","tecnologia":"Sem serviço fixo","name":"Serra do Ramalho, BA <br> Sem serviço fixo","longitude":"-43.592907","cidade":"Serra do Ramalho","color":"black"},{"latitude":"-12.759004","uf":"BA","tecnologia":"Sem serviço fixo","name":"Serra Dourada, BA <br> Sem serviço fixo","longitude":"-43.950434","cidade":"Serra Dourada","color":"black"},{"latitude":"-12.156039","uf":"BA","tecnologia":"Sem serviço fixo","name":"Serra Preta, BA <br> Sem serviço fixo","longitude":"-39.33049","cidade":"Serra Preta","color":"black"},{"latitude":"-11.658407","uf":"BA","tecnologia":"Sem serviço fixo","name":"Serrinha, BA <br> Sem serviço fixo","longitude":"-39.009976","cidade":"Serrinha","color":"black"},{"latitude":"-11.408476","uf":"BA","tecnologia":"Sem serviço fixo","name":"Serrolândia, BA <br> Sem serviço fixo","longitude":"-40.298327","cidade":"Serrolândia","color":"black"},{"latitude":"-12.786587","uf":"BA","tecnologia":"Sem serviço fixo","name":"Simões Filho, BA <br> Sem serviço fixo","longitude":"-38.402944","cidade":"Simões Filho","color":"black"},{"latitude":"-13.080149","uf":"BA","tecnologia":"Sem serviço fixo","name":"Sítio do Mato, BA <br> Sem serviço fixo","longitude":"-43.468921","cidade":"Sítio do Mato","color":"black"},{"latitude":"-10.354453","uf":"BA","tecnologia":"Sem serviço fixo","name":"Sítio do Quinto, BA <br> Sem serviço fixo","longitude":"-38.221325","cidade":"Sítio do Quinto","color":"black"},{"latitude":"-9.450243","uf":"BA","tecnologia":"Sem serviço fixo","name":"Sobradinho, BA <br> Sem serviço fixo","longitude":"-40.81455","cidade":"Sobradinho","color":"black"},{"latitude":"-12.088046","uf":"BA","tecnologia":"Sem serviço fixo","name":"Souto Soares, BA <br> Sem serviço fixo","longitude":"-41.642717","cidade":"Souto Soares","color":"black"},{"latitude":"-12.702634","uf":"BA","tecnologia":"Sem serviço fixo","name":"Tabocas do Brejo Velho, BA <br> Sem serviço fixo","longitude":"-44.007449","cidade":"Tabocas do Brejo Velho","color":"black"},{"latitude":"-14.019662","uf":"BA","tecnologia":"Sem serviço fixo","name":"Tanhaçu, BA <br> Sem serviço fixo","longitude":"-41.247271","cidade":"Tanhaçu","color":"black"},{"latitude":"-13.548509","uf":"BA","tecnologia":"Sem serviço fixo","name":"Tanque Novo, BA <br> Sem serviço fixo","longitude":"-42.493412","cidade":"Tanque Novo","color":"black"},{"latitude":"-11.967965","uf":"BA","tecnologia":"Sem serviço fixo","name":"Tanquinho, BA <br> Sem serviço fixo","longitude":"-39.103312","cidade":"Tanquinho","color":"black"},{"latitude":"-13.532133","uf":"BA","tecnologia":"Sem serviço fixo","name":"Taperoá, BA <br> Sem serviço fixo","longitude":"-39.100948","cidade":"Taperoá","color":"black"},{"latitude":"-11.84748","uf":"BA","tecnologia":"Sem serviço fixo","name":"Tapiramutá, BA <br> Sem serviço fixo","longitude":"-40.792656","cidade":"Tapiramutá","color":"black"},{"latitude":"-12.294998","uf":"BA","tecnologia":"Sem serviço fixo","name":"Teodoro Sampaio, BA <br> Sem serviço fixo","longitude":"-38.634738","cidade":"Teodoro Sampaio","color":"black"},{"latitude":"-11.482719","uf":"BA","tecnologia":"Sem serviço fixo","name":"Teofilândia, BA <br> Sem serviço fixo","longitude":"-38.991264","cidade":"Teofilândia","color":"black"},{"latitude":"-13.589639","uf":"BA","tecnologia":"Sem serviço fixo","name":"Teolândia, BA <br> Sem serviço fixo","longitude":"-39.483986","cidade":"Teolândia","color":"black"},{"latitude":"-12.388754","uf":"BA","tecnologia":"Sem serviço fixo","name":"Terra Nova, BA <br> Sem serviço fixo","longitude":"-38.623804","cidade":"Terra Nova","color":"black"},{"latitude":"-14.973625","uf":"BA","tecnologia":"Sem serviço fixo","name":"Tremedal, BA <br> Sem serviço fixo","longitude":"-41.414198","cidade":"Tremedal","color":"black"},{"latitude":"-10.958388","uf":"BA","tecnologia":"Sem serviço fixo","name":"Tucano, BA <br> Sem serviço fixo","longitude":"-38.789407","cidade":"Tucano","color":"black"},{"latitude":"-9.833247","uf":"BA","tecnologia":"Sem serviço fixo","name":"Uauá, BA <br> Sem serviço fixo","longitude":"-39.479396","cidade":"Uauá","color":"black"},{"latitude":"-13.271414","uf":"BA","tecnologia":"Sem serviço fixo","name":"Ubaíra, BA <br> Sem serviço fixo","longitude":"-39.665991","cidade":"Ubaíra","color":"black"},{"latitude":"-14.302971","uf":"BA","tecnologia":"Sem serviço fixo","name":"Ubaitaba, BA <br> Sem serviço fixo","longitude":"-39.322166","cidade":"Ubaitaba","color":"black"},