[{"cidade":"Acrelândia","tecnologia":"Sem serviço fixo","latitude":"-9.825808","name":"Acrelândia, AC <br> Sem serviço fixo","uf":"AC","color":"black","longitude":"-66.897166"},{"cidade":"Assis Brasil","tecnologia":"Sem serviço fixo","latitude":"-10.929765","name":"Assis Brasil, AC <br> Sem serviço fixo","uf":"AC","color":"black","longitude":"-69.573794"},{"cidade":"Brasiléia","tecnologia":"Sem serviço fixo","latitude":"-10.994994","name":"Brasiléia, AC <br> Sem serviço fixo","uf":"AC","color":"black","longitude":"-68.749696"},{"cidade":"Bujari","tecnologia":"Sem serviço fixo","latitude":"-9.815277","name":"Bujari, AC <br> Sem serviço fixo","uf":"AC","color":"black","longitude":"-67.955029"},{"cidade":"Capixaba","tecnologia":"Sem serviço fixo","latitude":"-10.566031","name":"Capixaba, AC <br> Sem serviço fixo","uf":"AC","color":"black","longitude":"-67.686006"},{"cidade":"Cruzeiro do Sul","tecnologia":"Sem serviço fixo","latitude":"-7.627625","name":"Cruzeiro do Sul, AC <br> Sem serviço fixo","uf":"AC","color":"black","longitude":"-72.675582"},{"cidade":"Epitaciolândia","tecnologia":"Sem serviço fixo","latitude":"-11.018771","name":"Epitaciolândia, AC <br> Sem serviço fixo","uf":"AC","color":"black","longitude":"-68.734109"},{"cidade":"Feijó","tecnologia":"Sem serviço fixo","latitude":"-8.170536","name":"Feijó, AC <br> Sem serviço fixo","uf":"AC","color":"black","longitude":"-70.350973"},{"cidade":"Jordão","tecnologia":"Sem serviço fixo","latitude":"-9.430912","name":"Jordão, AC <br> Sem serviço fixo","uf":"AC","color":"black","longitude":"-71.897391"},{"cidade":"Mâncio Lima","tecnologia":"Sem serviço fixo","latitude":"-7.616575","name":"Mâncio Lima, AC <br> Sem serviço fixo","uf":"AC","color":"black","longitude":"-72.899708"},{"cidade":"Manoel Urbano","tecnologia":"Sem serviço fixo","latitude":"-8.832911","name":"Manoel Urbano, AC <br> Sem serviço fixo","uf":"AC","color":"black","longitude":"-69.267862"},{"cidade":"Marechal Thaumaturgo","tecnologia":"Sem serviço fixo","latitude":"-8.938983","name":"Marechal Thaumaturgo, AC <br> Sem serviço fixo","uf":"AC","color":"black","longitude":"-72.799704"},{"cidade":"Plácido de Castro","tecnologia":"Sem serviço fixo","latitude":"-10.28064","name":"Plácido de Castro, AC <br> Sem serviço fixo","uf":"AC","color":"black","longitude":"-67.137133"},{"cidade":"Porto Acre","tecnologia":"Sem serviço fixo","latitude":"-9.581378","name":"Porto Acre, AC <br> Sem serviço fixo","uf":"AC","color":"black","longitude":"-67.547815"},{"cidade":"Porto Walter","tecnologia":"Sem serviço fixo","latitude":"-8.263233","name":"Porto Walter, AC <br> Sem serviço fixo","uf":"AC","color":"black","longitude":"-72.753747"},{"cidade":"Rio Branco","tecnologia":"Sem serviço fixo","latitude":"-9.97499","name":"Rio Branco, AC <br> Sem serviço fixo","uf":"AC","color":"black","longitude":"-67.824348"},{"cidade":"Rodrigues Alves","tecnologia":"Sem serviço fixo","latitude":"-7.738638","name":"Rodrigues Alves, AC <br> Sem serviço fixo","uf":"AC","color":"black","longitude":"-72.661015"},{"cidade":"Santa Rosa do Purus","tecnologia":"Sem serviço fixo","latitude":"-9.446515","name":"Santa Rosa do Purus, AC <br> Sem serviço fixo","uf":"AC","color":"black","longitude":"-70.49025"},{"cidade":"Sena Madureira","tecnologia":"Sem serviço fixo","latitude":"-9.063499","name":"Sena Madureira, AC <br> Sem serviço fixo","uf":"AC","color":"black","longitude":"-68.671278"},{"cidade":"Senador Guiomard","tecnologia":"Sem serviço fixo","latitude":"-10.149686","name":"Senador Guiomard, AC <br> Sem serviço fixo","uf":"AC","color":"black","longitude":"-67.736185"},{"cidade":"Tarauacá","tecnologia":"Sem serviço fixo","latitude":"-8.156975","name":"Tarauacá, AC <br> Sem serviço fixo","uf":"AC","color":"black","longitude":"-70.772154"},{"cidade":"Xapuri","tecnologia":"Sem serviço fixo","latitude":"-10.651598","name":"Xapuri, AC <br> Sem serviço fixo","uf":"AC","color":"black","longitude":"-68.496857"},{"cidade":"Água Branca","tecnologia":"Sem serviço fixo","latitude":"-9.261996","name":"Água Branca, AL <br> Sem serviço fixo","uf":"AL","color":"black","longitude":"-37.937988"},{"cidade":"Anadia","tecnologia":"Sem serviço fixo","latitude":"-9.684886","name":"Anadia, AL <br> Sem serviço fixo","uf":"AL","color":"black","longitude":"-36.307783"},{"cidade":"Atalaia","tecnologia":"Sem serviço fixo","latitude":"-9.511898","name":"Atalaia, AL <br> Sem serviço fixo","uf":"AL","color":"black","longitude":"-36.008552"},{"cidade":"Barra de Santo Antônio","tecnologia":"Sem serviço fixo","latitude":"-9.402297","name":"Barra de Santo Antônio, AL <br> Sem serviço fixo","uf":"AL","color":"black","longitude":"-35.510083"},{"cidade":"Barra de São Miguel","tecnologia":"Sem serviço fixo","latitude":"-9.83842","name":"Barra de São Miguel, AL <br> Sem serviço fixo","uf":"AL","color":"black","longitude":"-35.905667"},{"cidade":"Batalha","tecnologia":"Sem serviço fixo","latitude":"-9.674195","name":"Batalha, AL <br> Sem serviço fixo","uf":"AL","color":"black","longitude":"-37.133014"},{"cidade":"Belém","tecnologia":"Sem serviço fixo","latitude":"-9.570472","name":"Belém, AL <br> Sem serviço fixo","uf":"AL","color":"black","longitude":"-36.490399"},{"cidade":"Belo Monte","tecnologia":"Sem serviço fixo","latitude":"-9.822718","name":"Belo Monte, AL <br> Sem serviço fixo","uf":"AL","color":"black","longitude":"-37.277014"},{"cidade":"Boca da Mata","tecnologia":"Sem serviço fixo","latitude":"-9.643082","name":"Boca da Mata, AL <br> Sem serviço fixo","uf":"AL","color":"black","longitude":"-36.212498"},{"cidade":"Branquinha","tecnologia":"Sem serviço fixo","latitude":"-9.23342","name":"Branquinha, AL <br> Sem serviço fixo","uf":"AL","color":"black","longitude":"-36.016152"},{"cidade":"Cacimbinhas","tecnologia":"Sem serviço fixo","latitude":"-9.401212","name":"Cacimbinhas, AL <br> Sem serviço fixo","uf":"AL","color":"black","longitude":"-36.991082"},{"cidade":"Cajueiro","tecnologia":"Sem serviço fixo","latitude":"-9.399402","name":"Cajueiro, AL <br> Sem serviço fixo","uf":"AL","color":"black","longitude":"-36.155937"},{"cidade":"Campestre","tecnologia":"Sem serviço fixo","latitude":"-8.847228","name":"Campestre, AL <br> Sem serviço fixo","uf":"AL","color":"black","longitude":"-35.56847"},{"cidade":"Campo Alegre","tecnologia":"Sem serviço fixo","latitude":"-9.784512","name":"Campo Alegre, AL <br> Sem serviço fixo","uf":"AL","color":"black","longitude":"-36.352461"},{"cidade":"Canapi","tecnologia":"Sem serviço fixo","latitude":"-9.119319","name":"Canapi, AL <br> Sem serviço fixo","uf":"AL","color":"black","longitude":"-37.5967"},{"cidade":"Capela","tecnologia":"Sem serviço fixo","latitude":"-9.415041","name":"Capela, AL <br> Sem serviço fixo","uf":"AL","color":"black","longitude":"-36.082583"},{"cidade":"Carneiros","tecnologia":"Sem serviço fixo","latitude":"-9.484762","name":"Carneiros, AL <br> Sem serviço fixo","uf":"AL","color":"black","longitude":"-37.377303"},{"cidade":"Chã Preta","tecnologia":"Sem serviço fixo","latitude":"-9.255605","name":"Chã Preta, AL <br> Sem serviço fixo","uf":"AL","color":"black","longitude":"-36.298334"},{"cidade":"Coité do Nóia","tecnologia":"Sem serviço fixo","latitude":"-9.633484","name":"Coité do Nóia, AL <br> Sem serviço fixo","uf":"AL","color":"black","longitude":"-36.584493"},{"cidade":"Colônia Leopoldina","tecnologia":"Sem serviço fixo","latitude":"-8.918058","name":"Colônia Leopoldina, AL <br> Sem serviço fixo","uf":"AL","color":"black","longitude":"-35.721414"},{"cidade":"Coqueiro Seco","tecnologia":"Sem serviço fixo","latitude":"-9.637147","name":"Coqueiro Seco, AL <br> Sem serviço fixo","uf":"AL","color":"black","longitude":"-35.799377"},{"cidade":"Coruripe","tecnologia":"Sem serviço fixo","latitude":"-10.127632","name":"Coruripe, AL <br> Sem serviço fixo","uf":"AL","color":"black","longitude":"-36.171724"},{"cidade":"Craíbas","tecnologia":"Sem serviço fixo","latitude":"-9.617798","name":"Craíbas, AL <br> Sem serviço fixo","uf":"AL","color":"black","longitude":"-36.769726"},{"cidade":"Delmiro Gouveia","tecnologia":"Sem serviço fixo","latitude":"-9.385336","name":"Delmiro Gouveia, AL <br> Sem serviço fixo","uf":"AL","color":"black","longitude":"-37.998676"},{"cidade":"Dois Riachos","tecnologia":"Sem serviço fixo","latitude":"-9.384645","name":"Dois Riachos, AL <br> Sem serviço fixo","uf":"AL","color":"black","longitude":"-37.096502"},{"cidade":"Estrela de Alagoas","tecnologia":"Sem serviço fixo","latitude":"-9.390894","name":"Estrela de Alagoas, AL <br> Sem serviço fixo","uf":"AL","color":"black","longitude":"-36.764407"},{"cidade":"Feira Grande","tecnologia":"Sem serviço fixo","latitude":"-9.898586","name":"Feira Grande, AL <br> Sem serviço fixo","uf":"AL","color":"black","longitude":"-36.681521"},{"cidade":"Feliz Deserto","tecnologia":"Sem serviço fixo","latitude":"-10.293491","name":"Feliz Deserto, AL <br> Sem serviço fixo","uf":"AL","color":"black","longitude":"-36.302788"},{"cidade":"Flexeiras","tecnologia":"Sem serviço fixo","latitude":"-9.272807","name":"Flexeiras, AL <br> Sem serviço fixo","uf":"AL","color":"black","longitude":"-35.713933"},{"cidade":"Girau do Ponciano","tecnologia":"Sem serviço fixo","latitude":"-9.884041","name":"Girau do Ponciano, AL <br> Sem serviço fixo","uf":"AL","color":"black","longitude":"-36.831592"},{"cidade":"Ibateguara","tecnologia":"Sem serviço fixo","latitude":"-8.978232","name":"Ibateguara, AL <br> Sem serviço fixo","uf":"AL","color":"black","longitude":"-35.937325"},{"cidade":"Igaci","tecnologia":"Sem serviço fixo","latitude":"-9.537678","name":"Igaci, AL <br> Sem serviço fixo","uf":"AL","color":"black","longitude":"-36.637191"},{"cidade":"Igreja Nova","tecnologia":"Sem serviço fixo","latitude":"-10.123463","name":"Igreja Nova, AL <br> Sem serviço fixo","uf":"AL","color":"black","longitude":"-36.659705"},{"cidade":"Inhapi","tecnologia":"Sem serviço fixo","latitude":"-9.225936","name":"Inhapi, AL <br> Sem serviço fixo","uf":"AL","color":"black","longitude":"-37.750871"},{"cidade":"Jacaré Dos Homens","tecnologia":"Sem serviço fixo","latitude":"-9.635446","name":"Jacaré Dos Homens, AL <br> Sem serviço fixo","uf":"AL","color":"black","longitude":"-37.207636"},{"cidade":"Jacuípe","tecnologia":"Sem serviço fixo","latitude":"-8.83951","name":"Jacuípe, AL <br> Sem serviço fixo","uf":"AL","color":"black","longitude":"-35.459074"},{"cidade":"Japaratinga","tecnologia":"Sem serviço fixo","latitude":"-9.087464","name":"Japaratinga, AL <br> Sem serviço fixo","uf":"AL","color":"black","longitude":"-35.263403"},{"cidade":"Jaramataia","tecnologia":"Sem serviço fixo","latitude":"-9.662243","name":"Jaramataia, AL <br> Sem serviço fixo","uf":"AL","color":"black","longitude":"-37.004558"},{"cidade":"Joaquim Gomes","tecnologia":"Sem serviço fixo","latitude":"-9.132805","name":"Joaquim Gomes, AL <br> Sem serviço fixo","uf":"AL","color":"black","longitude":"-35.747381"},{"cidade":"Jundiá","tecnologia":"Sem serviço fixo","latitude":"-8.932968","name":"Jundiá, AL <br> Sem serviço fixo","uf":"AL","color":"black","longitude":"-35.566925"},{"cidade":"Junqueiro","tecnologia":"Sem serviço fixo","latitude":"-9.906961","name":"Junqueiro, AL <br> Sem serviço fixo","uf":"AL","color":"black","longitude":"-36.480346"},{"cidade":"Lagoa da Canoa","tecnologia":"Sem serviço fixo","latitude":"-9.832909","name":"Lagoa da Canoa, AL <br> Sem serviço fixo","uf":"AL","color":"black","longitude":"-36.741257"},{"cidade":"Limoeiro de Anadia","tecnologia":"Sem serviço fixo","latitude":"-9.740983","name":"Limoeiro de Anadia, AL <br> Sem serviço fixo","uf":"AL","color":"black","longitude":"-36.512097"},{"cidade":"Maceió","tecnologia":"Sem serviço fixo","latitude":"-9.665985","name":"Maceió, AL <br> Sem serviço fixo","uf":"AL","color":"black","longitude":"-35.73496"},{"cidade":"Major Isidoro","tecnologia":"Sem serviço fixo","latitude":"-9.530086","name":"Major Isidoro, AL <br> Sem serviço fixo","uf":"AL","color":"black","longitude":"-36.992006"},{"cidade":"Mar Vermelho","tecnologia":"Sem serviço fixo","latitude":"-9.447393","name":"Mar Vermelho, AL <br> Sem serviço fixo","uf":"AL","color":"black","longitude":"-36.388076"},{"cidade":"Maragogi","tecnologia":"Sem serviço fixo","latitude":"-9.007443","name":"Maragogi, AL <br> Sem serviço fixo","uf":"AL","color":"black","longitude":"-35.226692"},{"cidade":"Maravilha","tecnologia":"Sem serviço fixo","latitude":"-9.230449","name":"Maravilha, AL <br> Sem serviço fixo","uf":"AL","color":"black","longitude":"-37.352419"},{"cidade":"Marechal Deodoro","tecnologia":"Sem serviço fixo","latitude":"-9.709715","name":"Marechal Deodoro, AL <br> Sem serviço fixo","uf":"AL","color":"black","longitude":"-35.896731"},{"cidade":"Maribondo","tecnologia":"Sem serviço fixo","latitude":"-9.583528","name":"Maribondo, AL <br> Sem serviço fixo","uf":"AL","color":"black","longitude":"-36.304488"},{"cidade":"Mata Grande","tecnologia":"Sem serviço fixo","latitude":"-9.118243","name":"Mata Grande, AL <br> Sem serviço fixo","uf":"AL","color":"black","longitude":"-37.732298"},{"cidade":"Matriz de Camaragibe","tecnologia":"Sem serviço fixo","latitude":"-9.154373","name":"Matriz de Camaragibe, AL <br> Sem serviço fixo","uf":"AL","color":"black","longitude":"-35.524302"},{"cidade":"Messias","tecnologia":"Sem serviço fixo","latitude":"-9.393843","name":"Messias, AL <br> Sem serviço fixo","uf":"AL","color":"black","longitude":"-35.839182"},{"cidade":"Minador do Negrão","tecnologia":"Sem serviço fixo","latitude":"-9.312358","name":"Minador do Negrão, AL <br> Sem serviço fixo","uf":"AL","color":"black","longitude":"-36.869553"},{"cidade":"Monteirópolis","tecnologia":"Sem serviço fixo","latitude":"-9.603569","name":"Monteirópolis, AL <br> Sem serviço fixo","uf":"AL","color":"black","longitude":"-37.250463"},{"cidade":"Murici","tecnologia":"Sem serviço fixo","latitude":"-9.306823","name":"Murici, AL <br> Sem serviço fixo","uf":"AL","color":"black","longitude":"-35.942798"},{"cidade":"Novo Lino","tecnologia":"Sem serviço fixo","latitude":"-8.941905","name":"Novo Lino, AL <br> Sem serviço fixo","uf":"AL","color":"black","longitude":"-35.664001"},{"cidade":"Olivença","tecnologia":"Sem serviço fixo","latitude":"-9.519538","name":"Olivença, AL <br> Sem serviço fixo","uf":"AL","color":"black","longitude":"-37.195441"},{"cidade":"Ouro Branco","tecnologia":"Sem serviço fixo","latitude":"-9.158842","name":"Ouro Branco, AL <br> Sem serviço fixo","uf":"AL","color":"black","longitude":"-37.355639"},{"cidade":"Palestina","tecnologia":"Sem serviço fixo","latitude":"-9.674928","name":"Palestina, AL <br> Sem serviço fixo","uf":"AL","color":"black","longitude":"-37.339037"},{"cidade":"Palmeira Dos Índios","tecnologia":"Sem serviço fixo","latitude":"-9.405681","name":"Palmeira Dos Índios, AL <br> Sem serviço fixo","uf":"AL","color":"black","longitude":"-36.632812"},{"cidade":"Pão de Açúcar","tecnologia":"Sem serviço fixo","latitude":"-9.740325","name":"Pão de Açúcar, AL <br> Sem serviço fixo","uf":"AL","color":"black","longitude":"-37.440336"},{"cidade":"Pariconha","tecnologia":"Sem serviço fixo","latitude":"-9.256342","name":"Pariconha, AL <br> Sem serviço fixo","uf":"AL","color":"black","longitude":"-37.998751"},{"cidade":"Paripueira","tecnologia":"Sem serviço fixo","latitude":"-9.463133","name":"Paripueira, AL <br> Sem serviço fixo","uf":"AL","color":"black","longitude":"-35.551977"},{"cidade":"Passo de Camaragibe","tecnologia":"Sem serviço fixo","latitude":"-9.24511","name":"Passo de Camaragibe, AL <br> Sem serviço fixo","uf":"AL","color":"black","longitude":"-35.47449"},{"cidade":"Paulo Jacinto","tecnologia":"Sem serviço fixo","latitude":"-9.367918","name":"Paulo Jacinto, AL <br> Sem serviço fixo","uf":"AL","color":"black","longitude":"-36.367241"},{"cidade":"Penedo","tecnologia":"Sem serviço fixo","latitude":"-10.287422","name":"Penedo, AL <br> Sem serviço fixo","uf":"AL","color":"black","longitude":"-36.581905"},{"cidade":"Piaçabuçu","tecnologia":"Sem serviço fixo","latitude":"-10.405989","name":"Piaçabuçu, AL <br> Sem serviço fixo","uf":"AL","color":"black","longitude":"-36.433968"},{"cidade":"Pilar","tecnologia":"Sem serviço fixo","latitude":"-9.601348","name":"Pilar, AL <br> Sem serviço fixo","uf":"AL","color":"black","longitude":"-35.954294"},{"cidade":"Pindoba","tecnologia":"Sem serviço fixo","latitude":"-9.473822","name":"Pindoba, AL <br> Sem serviço fixo","uf":"AL","color":"black","longitude":"-36.291829"},{"cidade":"Piranhas","tecnologia":"Sem serviço fixo","latitude":"-9.623996","name":"Piranhas, AL <br> Sem serviço fixo","uf":"AL","color":"black","longitude":"-37.756987"},{"cidade":"Poço Das Trincheiras","tecnologia":"Sem serviço fixo","latitude":"-9.307417","name":"Poço Das Trincheiras, AL <br> Sem serviço fixo","uf":"AL","color":"black","longitude":"-37.288932"},{"cidade":"Porto Calvo","tecnologia":"Sem serviço fixo","latitude":"-9.051948","name":"Porto Calvo, AL <br> Sem serviço fixo","uf":"AL","color":"black","longitude":"-35.398653"},{"cidade":"Porto de Pedras","tecnologia":"Sem serviço fixo","latitude":"-9.160065","name":"Porto de Pedras, AL <br> Sem serviço fixo","uf":"AL","color":"black","longitude":"-35.304914"},{"cidade":"Porto Real do Colégio","tecnologia":"Sem serviço fixo","latitude":"-10.18489","name":"Porto Real do Colégio, AL <br> Sem serviço fixo","uf":"AL","color":"black","longitude":"-36.837551"},{"cidade":"Quebrangulo","tecnologia":"Sem serviço fixo","latitude":"-9.32001","name":"Quebrangulo, AL <br> Sem serviço fixo","uf":"AL","color":"black","longitude":"-36.469239"},{"cidade":"Rio Largo","tecnologia":"Sem serviço fixo","latitude":"-9.477829","name":"Rio Largo, AL <br> Sem serviço fixo","uf":"AL","color":"black","longitude":"-35.839435"},{"cidade":"Roteiro","tecnologia":"Sem serviço fixo","latitude":"-9.835029","name":"Roteiro, AL <br> Sem serviço fixo","uf":"AL","color":"black","longitude":"-35.978247"},{"cidade":"Santa Luzia do Norte","tecnologia":"Sem serviço fixo","latitude":"-9.6037","name":"Santa Luzia do Norte, AL <br> Sem serviço fixo","uf":"AL","color":"black","longitude":"-35.823196"},{"cidade":"Santana do Ipanema","tecnologia":"Sem serviço fixo","latitude":"-9.369989","name":"Santana do Ipanema, AL <br> Sem serviço fixo","uf":"AL","color":"black","longitude":"-37.248018"},{"cidade":"Santana do Mundaú","tecnologia":"Sem serviço fixo","latitude":"-9.171413","name":"Santana do Mundaú, AL <br> Sem serviço fixo","uf":"AL","color":"black","longitude":"-36.217608"},{"cidade":"São Brás","tecnologia":"Sem serviço fixo","latitude":"-10.120734","name":"São Brás, AL <br> Sem serviço fixo","uf":"AL","color":"black","longitude":"-36.896529"},{"cidade":"São José da Laje","tecnologia":"Sem serviço fixo","latitude":"-9.012779","name":"São José da Laje, AL <br> Sem serviço fixo","uf":"AL","color":"black","longitude":"-36.051489"},{"cidade":"São José da Tapera","tecnologia":"Sem serviço fixo","latitude":"-9.557684","name":"São José da Tapera, AL <br> Sem serviço fixo","uf":"AL","color":"black","longitude":"-37.383125"},{"cidade":"São Luís do Quitunde","tecnologia":"Sem serviço fixo","latitude":"-9.31816","name":"São Luís do Quitunde, AL <br> Sem serviço fixo","uf":"AL","color":"black","longitude":"-35.560553"},{"cidade":"São Miguel Dos Campos","tecnologia":"Sem serviço fixo","latitude":"-9.78301","name":"São Miguel Dos Campos, AL <br> Sem serviço fixo","uf":"AL","color":"black","longitude":"-36.097142"},{"cidade":"São Miguel Dos Milagres","tecnologia":"Sem serviço fixo","latitude":"-9.264925","name":"São Miguel Dos Milagres, AL <br> Sem serviço fixo","uf":"AL","color":"black","longitude":"-35.376253"},{"cidade":"São Sebastião","tecnologia":"Sem serviço fixo","latitude":"-9.930434","name":"São Sebastião, AL <br> Sem serviço fixo","uf":"AL","color":"black","longitude":"-36.558967"},{"cidade":"Satuba","tecnologia":"Sem serviço fixo","latitude":"-9.569113","name":"Satuba, AL <br> Sem serviço fixo","uf":"AL","color":"black","longitude":"-35.822697"},{"cidade":"Senador Rui Palmeira","tecnologia":"Sem serviço fixo","latitude":"-9.469865","name":"Senador Rui Palmeira, AL <br> Sem serviço fixo","uf":"AL","color":"black","longitude":"-37.457606"},{"cidade":"Taquarana","tecnologia":"Sem serviço fixo","latitude":"-9.64529","name":"Taquarana, AL <br> Sem serviço fixo","uf":"AL","color":"black","longitude":"-36.492844"},{"cidade":"Teotônio Vilela","tecnologia":"Sem serviço fixo","latitude":"-9.916562","name":"Teotônio Vilela, AL <br> Sem serviço fixo","uf":"AL","color":"black","longitude":"-36.349212"},{"cidade":"Traipu","tecnologia":"Sem serviço fixo","latitude":"-9.962625","name":"Traipu, AL <br> Sem serviço fixo","uf":"AL","color":"black","longitude":"-37.007119"},{"cidade":"União Dos Palmares","tecnologia":"Sem serviço fixo","latitude":"-9.15921","name":"União Dos Palmares, AL <br> Sem serviço fixo","uf":"AL","color":"black","longitude":"-36.02227"},{"cidade":"Viçosa","tecnologia":"Sem serviço fixo","latitude":"-9.367631","name":"Viçosa, AL <br> Sem serviço fixo","uf":"AL","color":"black","longitude":"-36.243107"},{"cidade":"Alvarães","tecnologia":"Sem serviço fixo","latitude":"-3.22727","name":"Alvarães, AM <br> Sem serviço fixo","uf":"AM","color":"black","longitude":"-64.800654"},{"cidade":"Amaturá","tecnologia":"Sem serviço fixo","latitude":"-3.374547","name":"Amaturá, AM <br> Sem serviço fixo","uf":"AM","color":"black","longitude":"-68.200456"},{"cidade":"Anamã","tecnologia":"Sem serviço fixo","latitude":"-3.566966","name":"Anamã, AM <br> Sem serviço fixo","uf":"AM","color":"black","longitude":"-61.396337"},{"cidade":"Anori","tecnologia":"Sem serviço fixo","latitude":"-3.746027","name":"Anori, AM <br> Sem serviço fixo","uf":"AM","color":"black","longitude":"-61.657485"},{"cidade":"Apuí","tecnologia":"Sem serviço fixo","latitude":"-7.194091","name":"Apuí, AM <br> Sem serviço fixo","uf":"AM","color":"black","longitude":"-59.895956"},{"cidade":"Atalaia do Norte","tecnologia":"Sem serviço fixo","latitude":"-4.370551","name":"Atalaia do Norte, AM <br> Sem serviço fixo","uf":"AM","color":"black","longitude":"-70.1967"},{"cidade":"Autazes","tecnologia":"Sem serviço fixo","latitude":"-3.585743","name":"Autazes, AM <br> Sem serviço fixo","uf":"AM","color":"black","longitude":"-59.125589"},{"cidade":"Barcelos","tecnologia":"Sem serviço fixo","latitude":"-0.983373","name":"Barcelos, AM <br> Sem serviço fixo","uf":"AM","color":"black","longitude":"-62.931053"},{"cidade":"Barreirinha","tecnologia":"Sem serviço fixo","latitude":"-2.798863","name":"Barreirinha, AM <br> Sem serviço fixo","uf":"AM","color":"black","longitude":"-57.067897"},{"cidade":"Benjamin Constant","tecnologia":"Sem serviço fixo","latitude":"-4.37768","name":"Benjamin Constant, AM <br> Sem serviço fixo","uf":"AM","color":"black","longitude":"-70.034157"},{"cidade":"Beruri","tecnologia":"Sem serviço fixo","latitude":"-3.898736","name":"Beruri, AM <br> Sem serviço fixo","uf":"AM","color":"black","longitude":"-61.36162"},{"cidade":"Boa Vista do Ramos","tecnologia":"Sem serviço fixo","latitude":"-2.974087","name":"Boa Vista do Ramos, AM <br> Sem serviço fixo","uf":"AM","color":"black","longitude":"-57.587333"},{"cidade":"Boca do Acre","tecnologia":"Sem serviço fixo","latitude":"-8.742322","name":"Boca do Acre, AM <br> Sem serviço fixo","uf":"AM","color":"black","longitude":"-67.391926"},{"cidade":"Borba","tecnologia":"Sem serviço fixo","latitude":"-4.391539","name":"Borba, AM <br> Sem serviço fixo","uf":"AM","color":"black","longitude":"-59.58738"},{"cidade":"Caapiranga","tecnologia":"Sem serviço fixo","latitude":"-3.315372","name":"Caapiranga, AM <br> Sem serviço fixo","uf":"AM","color":"black","longitude":"-61.220557"},{"cidade":"Canutama","tecnologia":"Sem serviço fixo","latitude":"-6.52582","name":"Canutama, AM <br> Sem serviço fixo","uf":"AM","color":"black","longitude":"-64.39528"},{"cidade":"Carauari","tecnologia":"Sem serviço fixo","latitude":"-4.881605","name":"Carauari, AM <br> Sem serviço fixo","uf":"AM","color":"black","longitude":"-66.908559"},{"cidade":"Careiro da Várzea","tecnologia":"Sem serviço fixo","latitude":"-3.196979","name":"Careiro da Várzea, AM <br> Sem serviço fixo","uf":"AM","color":"black","longitude":"-59.79639"},{"cidade":"Careiro","tecnologia":"Sem serviço fixo","latitude":"-3.768027","name":"Careiro, AM <br> Sem serviço fixo","uf":"AM","color":"black","longitude":"-60.369046"},{"cidade":"Coari","tecnologia":"Sem serviço fixo","latitude":"-4.094121","name":"Coari, AM <br> Sem serviço fixo","uf":"AM","color":"black","longitude":"-63.144091"},{"cidade":"Codajás","tecnologia":"Sem serviço fixo","latitude":"-3.830528","name":"Codajás, AM <br> Sem serviço fixo","uf":"AM","color":"black","longitude":"-62.065787"},{"cidade":"Eirunepé","tecnologia":"Sem serviço fixo","latitude":"-6.656767","name":"Eirunepé, AM <br> Sem serviço fixo","uf":"AM","color":"black","longitude":"-69.86616"},{"cidade":"Envira","tecnologia":"Sem serviço fixo","latitude":"-7.437889","name":"Envira, AM <br> Sem serviço fixo","uf":"AM","color":"black","longitude":"-70.028143"},{"cidade":"Fonte Boa","tecnologia":"Sem serviço fixo","latitude":"-2.523424","name":"Fonte Boa, AM <br> Sem serviço fixo","uf":"AM","color":"black","longitude":"-66.094212"},{"cidade":"Guajará","tecnologia":"Sem serviço fixo","latitude":"-7.537971","name":"Guajará, AM <br> Sem serviço fixo","uf":"AM","color":"black","longitude":"-72.590713"},{"cidade":"Humaitá","tecnologia":"Sem serviço fixo","latitude":"-7.511712","name":"Humaitá, AM <br> Sem serviço fixo","uf":"AM","color":"black","longitude":"-63.032743"},{"cidade":"Ipixuna","tecnologia":"Sem serviço fixo","latitude":"-7.047909","name":"Ipixuna, AM <br> Sem serviço fixo","uf":"AM","color":"black","longitude":"-71.693426"},{"cidade":"Iranduba","tecnologia":"Sem serviço fixo","latitude":"-3.274792","name":"Iranduba, AM <br> Sem serviço fixo","uf":"AM","color":"black","longitude":"-60.189953"},{"cidade":"Itacoatiara","tecnologia":"Sem serviço fixo","latitude":"-3.138607","name":"Itacoatiara, AM <br> Sem serviço fixo","uf":"AM","color":"black","longitude":"-58.444874"},{"cidade":"Itamarati","tecnologia":"Sem serviço fixo","latitude":"-6.424591","name":"Itamarati, AM <br> Sem serviço fixo","uf":"AM","color":"black","longitude":"-68.260027"},{"cidade":"Itapiranga","tecnologia":"Sem serviço fixo","latitude":"-2.74081","name":"Itapiranga, AM <br> Sem serviço fixo","uf":"AM","color":"black","longitude":"-58.029257"},{"cidade":"Japurá","tecnologia":"Sem serviço fixo","latitude":"-1.882366","name":"Japurá, AM <br> Sem serviço fixo","uf":"AM","color":"black","longitude":"-66.929051"},{"cidade":"Juruá","tecnologia":"Sem serviço fixo","latitude":"-3.484384","name":"Juruá, AM <br> Sem serviço fixo","uf":"AM","color":"black","longitude":"-66.071795"},{"cidade":"Jutaí","tecnologia":"Sem serviço fixo","latitude":"-2.758144","name":"Jutaí, AM <br> Sem serviço fixo","uf":"AM","color":"black","longitude":"-66.75947"},{"cidade":"Lábrea","tecnologia":"Sem serviço fixo","latitude":"-7.264133","name":"Lábrea, AM <br> Sem serviço fixo","uf":"AM","color":"black","longitude":"-64.794765"},{"cidade":"Manacapuru","tecnologia":"Sem serviço fixo","latitude":"-3.290657","name":"Manacapuru, AM <br> Sem serviço fixo","uf":"AM","color":"black","longitude":"-60.621581"},{"cidade":"Manaquiri","tecnologia":"Sem serviço fixo","latitude":"-3.440784","name":"Manaquiri, AM <br> Sem serviço fixo","uf":"AM","color":"black","longitude":"-60.461239"},{"cidade":"Manaus","tecnologia":"Sem serviço fixo","latitude":"-3.118662","name":"Manaus, AM <br> Sem serviço fixo","uf":"AM","color":"black","longitude":"-60.02123"},{"cidade":"Manicoré","tecnologia":"Sem serviço fixo","latitude":"-5.804618","name":"Manicoré, AM <br> Sem serviço fixo","uf":"AM","color":"black","longitude":"-61.289483"},{"cidade":"Maraã","tecnologia":"Sem serviço fixo","latitude":"-1.853129","name":"Maraã, AM <br> Sem serviço fixo","uf":"AM","color":"black","longitude":"-65.572995"},{"cidade":"Maués","tecnologia":"Sem serviço fixo","latitude":"-3.392891","name":"Maués, AM <br> Sem serviço fixo","uf":"AM","color":"black","longitude":"-57.706731"},{"cidade":"Nhamundá","tecnologia":"Sem serviço fixo","latitude":"-2.207932","name":"Nhamundá, AM <br> Sem serviço fixo","uf":"AM","color":"black","longitude":"-56.711151"},{"cidade":"Nova Olinda do Norte","tecnologia":"Sem serviço fixo","latitude":"-3.900367","name":"Nova Olinda do Norte, AM <br> Sem serviço fixo","uf":"AM","color":"black","longitude":"-59.09404"},{"cidade":"Novo Airão","tecnologia":"Sem serviço fixo","latitude":"-2.636371","name":"Novo Airão, AM <br> Sem serviço fixo","uf":"AM","color":"black","longitude":"-60.943404"},{"cidade":"Novo Aripuanã","tecnologia":"Sem serviço fixo","latitude":"-5.125929","name":"Novo Aripuanã, AM <br> Sem serviço fixo","uf":"AM","color":"black","longitude":"-60.373179"},{"cidade":"Parintins","tecnologia":"Sem serviço fixo","latitude":"-2.637412","name":"Parintins, AM <br> Sem serviço fixo","uf":"AM","color":"black","longitude":"-56.729045"},{"cidade":"Pauini","tecnologia":"Sem serviço fixo","latitude":"-7.713109","name":"Pauini, AM <br> Sem serviço fixo","uf":"AM","color":"black","longitude":"-66.992039"},{"cidade":"Presidente Figueiredo","tecnologia":"Sem serviço fixo","latitude":"-2.029813","name":"Presidente Figueiredo, AM <br> Sem serviço fixo","uf":"AM","color":"black","longitude":"-60.02338"},{"cidade":"Rio Preto da Eva","tecnologia":"Sem serviço fixo","latitude":"-2.704497","name":"Rio Preto da Eva, AM <br> Sem serviço fixo","uf":"AM","color":"black","longitude":"-59.685793"},{"cidade":"Santa Isabel do Rio Negro","tecnologia":"Sem serviço fixo","latitude":"-0.410824","name":"Santa Isabel do Rio Negro, AM <br> Sem serviço fixo","uf":"AM","color":"black","longitude":"-65.009205"},{"cidade":"Santo Antônio do Içá","tecnologia":"Sem serviço fixo","latitude":"-3.095443","name":"Santo Antônio do Içá, AM <br> Sem serviço fixo","uf":"AM","color":"black","longitude":"-67.946279"},{"cidade":"São Gabriel da Cachoeira","tecnologia":"Sem serviço fixo","latitude":"-0.11909","name":"São Gabriel da Cachoeira, AM <br> Sem serviço fixo","uf":"AM","color":"black","longitude":"-67.084042"},{"cidade":"São Paulo de Olivença","tecnologia":"Sem serviço fixo","latitude":"-3.472919","name":"São Paulo de Olivença, AM <br> Sem serviço fixo","uf":"AM","color":"black","longitude":"-68.964581"},{"cidade":"São Sebastião do Uatumã","tecnologia":"Sem serviço fixo","latitude":"-2.559147","name":"São Sebastião do Uatumã, AM <br> Sem serviço fixo","uf":"AM","color":"black","longitude":"-57.873049"},{"cidade":"Silves","tecnologia":"Sem serviço fixo","latitude":"-2.81748","name":"Silves, AM <br> Sem serviço fixo","uf":"AM","color":"black","longitude":"-58.248031"},{"cidade":"Tabatinga","tecnologia":"Sem serviço fixo","latitude":"-4.241597","name":"Tabatinga, AM <br> Sem serviço fixo","uf":"AM","color":"black","longitude":"-69.938273"},{"cidade":"Tapauá","tecnologia":"Sem serviço fixo","latitude":"-5.620855","name":"Tapauá, AM <br> Sem serviço fixo","uf":"AM","color":"black","longitude":"-63.1808"},{"cidade":"Tefé","tecnologia":"Sem serviço fixo","latitude":"-3.368219","name":"Tefé, AM <br> Sem serviço fixo","uf":"AM","color":"black","longitude":"-64.719343"},{"cidade":"Tonantins","tecnologia":"Sem serviço fixo","latitude":"-2.865825","name":"Tonantins, AM <br> Sem serviço fixo","uf":"AM","color":"black","longitude":"-67.791904"},{"cidade":"Uarini","tecnologia":"Sem serviço fixo","latitude":"-2.996087","name":"Uarini, AM <br> Sem serviço fixo","uf":"AM","color":"black","longitude":"-65.113298"},{"cidade":"Urucará","tecnologia":"Sem serviço fixo","latitude":"-2.529364","name":"Urucará, AM <br> Sem serviço fixo","uf":"AM","color":"black","longitude":"-57.753797"},{"cidade":"Urucurituba","tecnologia":"Sem serviço fixo","latitude":"-3.128412","name":"Urucurituba, AM <br> Sem serviço fixo","uf":"AM","color":"black","longitude":"-58.149637"},{"cidade":"Amapá","tecnologia":"Sem serviço fixo","latitude":"2.052669","name":"Amapá, AP <br> Sem serviço fixo","uf":"AP","color":"black","longitude":"-50.795653"},{"cidade":"Calçoene","tecnologia":"Sem serviço fixo","latitude":"2.504747","name":"Calçoene, AP <br> Sem serviço fixo","uf":"AP","color":"black","longitude":"-50.951233"},{"cidade":"Cutias","tecnologia":"Sem serviço fixo","latitude":"0.987565","name":"Cutias, AP <br> Sem serviço fixo","uf":"AP","color":"black","longitude":"-50.799169"},{"cidade":"Ferreira Gomes","tecnologia":"Sem serviço fixo","latitude":"0.857256","name":"Ferreira Gomes, AP <br> Sem serviço fixo","uf":"AP","color":"black","longitude":"-51.179523"},{"cidade":"Itaubal","tecnologia":"Sem serviço fixo","latitude":"0.596137","name":"Itaubal, AP <br> Sem serviço fixo","uf":"AP","color":"black","longitude":"-50.670828"},{"cidade":"Laranjal do Jari","tecnologia":"Sem serviço fixo","latitude":"-0.804911","name":"Laranjal do Jari, AP <br> Sem serviço fixo","uf":"AP","color":"black","longitude":"-52.452962"},{"cidade":"Macapá","tecnologia":"Sem serviço fixo","latitude":"0.034934","name":"Macapá, AP <br> Sem serviço fixo","uf":"AP","color":"black","longitude":"-51.069395"},{"cidade":"Mazagão","tecnologia":"Sem serviço fixo","latitude":"-0.11336","name":"Mazagão, AP <br> Sem serviço fixo","uf":"AP","color":"black","longitude":"-51.28913"},{"cidade":"Oiapoque","tecnologia":"Sem serviço fixo","latitude":"3.84074","name":"Oiapoque, AP <br> Sem serviço fixo","uf":"AP","color":"black","longitude":"-51.833123"},{"cidade":"Porto Grande","tecnologia":"Sem serviço fixo","latitude":"0.71243","name":"Porto Grande, AP <br> Sem serviço fixo","uf":"AP","color":"black","longitude":"-51.415499"},{"cidade":"Pracuúba","tecnologia":"Sem serviço fixo","latitude":"1.745427","name":"Pracuúba, AP <br> Sem serviço fixo","uf":"AP","color":"black","longitude":"-50.789248"},{"cidade":"Santana","tecnologia":"Sem serviço fixo","latitude":"-0.045434","name":"Santana, AP <br> Sem serviço fixo","uf":"AP","color":"black","longitude":"-51.172924"},{"cidade":"Serra do Navio","tecnologia":"Sem serviço fixo","latitude":"0.901357","name":"Serra do Navio, AP <br> Sem serviço fixo","uf":"AP","color":"black","longitude":"-52.003636"},{"cidade":"Tartarugalzinho","tecnologia":"Sem serviço fixo","latitude":"1.506519","name":"Tartarugalzinho, AP <br> Sem serviço fixo","uf":"AP","color":"black","longitude":"-50.90874"},{"cidade":"Vitória do Jari","tecnologia":"Sem serviço fixo","latitude":"-0.938","name":"Vitória do Jari, AP <br> Sem serviço fixo","uf":"AP","color":"black","longitude":"-52.424001"},{"cidade":"Abaíra","tecnologia":"Sem serviço fixo","latitude":"-13.24883","name":"Abaíra, BA <br> Sem serviço fixo","uf":"BA","color":"black","longitude":"-41.661869"},{"cidade":"Abaré","tecnologia":"Sem serviço fixo","latitude":"-8.720734","name":"Abaré, BA <br> Sem serviço fixo","uf":"BA","color":"black","longitude":"-39.116178"},{"cidade":"Acajutiba","tecnologia":"Sem serviço fixo","latitude":"-11.657522","name":"Acajutiba, BA <br> Sem serviço fixo","uf":"BA","color":"black","longitude":"-38.019737"},{"cidade":"Adustina","tecnologia":"Sem serviço fixo","latitude":"-10.54369","name":"Adustina, BA <br> Sem serviço fixo","uf":"BA","color":"black","longitude":"-38.111265"},{"cidade":"Água Fria","tecnologia":"Sem serviço fixo","latitude":"-11.861836","name":"Água Fria, BA <br> Sem serviço fixo","uf":"BA","color":"black","longitude":"-38.763863"},{"cidade":"Aiquara","tecnologia":"Sem serviço fixo","latitude":"-14.126918","name":"Aiquara, BA <br> Sem serviço fixo","uf":"BA","color":"black","longitude":"-39.893653"},{"cidade":"Alagoinhas","tecnologia":"Sem serviço fixo","latitude":"-12.133526","name":"Alagoinhas, BA <br> Sem serviço fixo","uf":"BA","color":"black","longitude":"-38.420772"},{"cidade":"Alcobaça","tecnologia":"Sem serviço fixo","latitude":"-17.519468","name":"Alcobaça, BA <br> Sem serviço fixo","uf":"BA","color":"black","longitude":"-39.203609"},{"cidade":"Almadina","tecnologia":"Sem serviço fixo","latitude":"-14.708869","name":"Almadina, BA <br> Sem serviço fixo","uf":"BA","color":"black","longitude":"-39.641491"},{"cidade":"Amargosa","tecnologia":"Sem serviço fixo","latitude":"-13.021462","name":"Amargosa, BA <br> Sem serviço fixo","uf":"BA","color":"black","longitude":"-39.601966"},{"cidade":"Amélia Rodrigues","tecnologia":"Sem serviço fixo","latitude":"-12.391429","name":"Amélia Rodrigues, BA <br> Sem serviço fixo","uf":"BA","color":"black","longitude":"-38.756289"},{"cidade":"América Dourada","tecnologia":"Sem serviço fixo","latitude":"-11.442938","name":"América Dourada, BA <br> Sem serviço fixo","uf":"BA","color":"black","longitude":"-41.439007"},{"cidade":"Anagé","tecnologia":"Sem serviço fixo","latitude":"-14.61512","name":"Anagé, BA <br> Sem serviço fixo","uf":"BA","color":"black","longitude":"-41.135569"},{"cidade":"Andaraí","tecnologia":"Sem serviço fixo","latitude":"-12.804916","name":"Andaraí, BA <br> Sem serviço fixo","uf":"BA","color":"black","longitude":"-41.329658"},{"cidade":"Andorinha","tecnologia":"Sem serviço fixo","latitude":"-10.348214","name":"Andorinha, BA <br> Sem serviço fixo","uf":"BA","color":"black","longitude":"-39.839142"},{"cidade":"Angical","tecnologia":"Sem serviço fixo","latitude":"-12.006313","name":"Angical, BA <br> Sem serviço fixo","uf":"BA","color":"black","longitude":"-44.700272"},{"cidade":"Anguera","tecnologia":"Sem serviço fixo","latitude":"-12.146157","name":"Anguera, BA <br> Sem serviço fixo","uf":"BA","color":"black","longitude":"-39.246186"},{"cidade":"Antas","tecnologia":"Sem serviço fixo","latitude":"-10.385621","name":"Antas, BA <br> Sem serviço fixo","uf":"BA","color":"black","longitude":"-38.340118"},{"cidade":"Antônio Cardoso","tecnologia":"Sem serviço fixo","latitude":"-12.433493","name":"Antônio Cardoso, BA <br> Sem serviço fixo","uf":"BA","color":"black","longitude":"-39.117555"},{"cidade":"Antônio Gonçalves","tecnologia":"Sem serviço fixo","latitude":"-10.576686","name":"Antônio Gonçalves, BA <br> Sem serviço fixo","uf":"BA","color":"black","longitude":"-40.278489"},{"cidade":"Aporá","tecnologia":"Sem serviço fixo","latitude":"-11.657708","name":"Aporá, BA <br> Sem serviço fixo","uf":"BA","color":"black","longitude":"-38.081418"},{"cidade":"Apuarema","tecnologia":"Sem serviço fixo","latitude":"-13.854241","name":"Apuarema, BA <br> Sem serviço fixo","uf":"BA","color":"black","longitude":"-39.750148"},{"cidade":"Araças","tecnologia":"Sem serviço fixo","latitude":"-12.220038","name":"Araças, BA <br> Sem serviço fixo","uf":"BA","color":"black","longitude":"-38.202658"},{"cidade":"Aracatu","tecnologia":"Sem serviço fixo","latitude":"-14.427986","name":"Aracatu, BA <br> Sem serviço fixo","uf":"BA","color":"black","longitude":"-41.464783"},{"cidade":"Araci","tecnologia":"Sem serviço fixo","latitude":"-11.325316","name":"Araci, BA <br> Sem serviço fixo","uf":"BA","color":"black","longitude":"-38.958385"},{"cidade":"Aramari","tecnologia":"Sem serviço fixo","latitude":"-12.088399","name":"Aramari, BA <br> Sem serviço fixo","uf":"BA","color":"black","longitude":"-38.496937"},{"cidade":"Arataca","tecnologia":"Sem serviço fixo","latitude":"-15.265099","name":"Arataca, BA <br> Sem serviço fixo","uf":"BA","color":"black","longitude":"-39.419017"},{"cidade":"Aratuípe","tecnologia":"Sem serviço fixo","latitude":"-13.071595","name":"Aratuípe, BA <br> Sem serviço fixo","uf":"BA","color":"black","longitude":"-39.003763"},{"cidade":"Aurelino Leal","tecnologia":"Sem serviço fixo","latitude":"-14.320954","name":"Aurelino Leal, BA <br> Sem serviço fixo","uf":"BA","color":"black","longitude":"-39.329035"},{"cidade":"Baianópolis","tecnologia":"Sem serviço fixo","latitude":"-12.301641","name":"Baianópolis, BA <br> Sem serviço fixo","uf":"BA","color":"black","longitude":"-44.538829"},{"cidade":"Baixa Grande","tecnologia":"Sem serviço fixo","latitude":"-11.951884","name":"Baixa Grande, BA <br> Sem serviço fixo","uf":"BA","color":"black","longitude":"-40.16897"},{"cidade":"Banzaê","tecnologia":"Sem serviço fixo","latitude":"-10.578784","name":"Banzaê, BA <br> Sem serviço fixo","uf":"BA","color":"black","longitude":"-38.621243"},{"cidade":"Barra da Estiva","tecnologia":"Sem serviço fixo","latitude":"-13.623699","name":"Barra da Estiva, BA <br> Sem serviço fixo","uf":"BA","color":"black","longitude":"-41.334697"},{"cidade":"Barra do Choça","tecnologia":"Sem serviço fixo","latitude":"-14.865423","name":"Barra do Choça, BA <br> Sem serviço fixo","uf":"BA","color":"black","longitude":"-40.579058"},{"cidade":"Barra do Mendes","tecnologia":"Sem serviço fixo","latitude":"-11.81","name":"Barra do Mendes, BA <br> Sem serviço fixo","uf":"BA","color":"black","longitude":"-42.058999"},{"cidade":"Barra do Rocha","tecnologia":"Sem serviço fixo","latitude":"-14.199994","name":"Barra do Rocha, BA <br> Sem serviço fixo","uf":"BA","color":"black","longitude":"-39.599098"},{"cidade":"Barra","tecnologia":"Sem serviço fixo","latitude":"-11.0859","name":"Barra, BA <br> Sem serviço fixo","uf":"BA","color":"black","longitude":"-43.145913"},{"cidade":"Barreiras","tecnologia":"Sem serviço fixo","latitude":"-12.143864","name":"Barreiras, BA <br> Sem serviço fixo","uf":"BA","color":"black","longitude":"-44.996838"},{"cidade":"Barro Alto","tecnologia":"Sem serviço fixo","latitude":"-11.760493","name":"Barro Alto, BA <br> Sem serviço fixo","uf":"BA","color":"black","longitude":"-41.905441"},{"cidade":"Barrocas","tecnologia":"Sem serviço fixo","latitude":"-11.527222","name":"Barrocas, BA <br> Sem serviço fixo","uf":"BA","color":"black","longitude":"-39.077594"},{"cidade":"Belmonte","tecnologia":"Sem serviço fixo","latitude":"-15.860789","name":"Belmonte, BA <br> Sem serviço fixo","uf":"BA","color":"black","longitude":"-38.87578"},{"cidade":"Belo Campo","tecnologia":"Sem serviço fixo","latitude":"-15.033362","name":"Belo Campo, BA <br> Sem serviço fixo","uf":"BA","color":"black","longitude":"-41.265172"},{"cidade":"Biritinga","tecnologia":"Sem serviço fixo","latitude":"-11.607156","name":"Biritinga, BA <br> Sem serviço fixo","uf":"BA","color":"black","longitude":"-38.805055"},{"cidade":"Boa Nova","tecnologia":"Sem serviço fixo","latitude":"-14.359754","name":"Boa Nova, BA <br> Sem serviço fixo","uf":"BA","color":"black","longitude":"-40.206444"},{"cidade":"Boa Vista do Tupim","tecnologia":"Sem serviço fixo","latitude":"-12.649774","name":"Boa Vista do Tupim, BA <br> Sem serviço fixo","uf":"BA","color":"black","longitude":"-40.606376"},{"cidade":"Bom Jesus da Lapa","tecnologia":"Sem serviço fixo","latitude":"-13.250571","name":"Bom Jesus da Lapa, BA <br> Sem serviço fixo","uf":"BA","color":"black","longitude":"-43.410754"},{"cidade":"Bom Jesus da Serra","tecnologia":"Sem serviço fixo","latitude":"-14.366312","name":"Bom Jesus da Serra, BA <br> Sem serviço fixo","uf":"BA","color":"black","longitude":"-40.512556"},{"cidade":"Boninal","tecnologia":"Sem serviço fixo","latitude":"-12.706887","name":"Boninal, BA <br> Sem serviço fixo","uf":"BA","color":"black","longitude":"-41.828604"},{"cidade":"Bonito","tecnologia":"Sem serviço fixo","latitude":"-11.966768","name":"Bonito, BA <br> Sem serviço fixo","uf":"BA","color":"black","longitude":"-41.264698"},{"cidade":"Boquira","tecnologia":"Sem serviço fixo","latitude":"-12.820536","name":"Boquira, BA <br> Sem serviço fixo","uf":"BA","color":"black","longitude":"-42.732354"},{"cidade":"Botuporã","tecnologia":"Sem serviço fixo","latitude":"-13.377235","name":"Botuporã, BA <br> Sem serviço fixo","uf":"BA","color":"black","longitude":"-42.516301"},{"cidade":"Brejões","tecnologia":"Sem serviço fixo","latitude":"-13.103948","name":"Brejões, BA <br> Sem serviço fixo","uf":"BA","color":"black","longitude":"-39.798797"},{"cidade":"Brejolândia","tecnologia":"Sem serviço fixo","latitude":"-12.481547","name":"Brejolândia, BA <br> Sem serviço fixo","uf":"BA","color":"black","longitude":"-43.967855"},{"cidade":"Brotas de Macaúbas","tecnologia":"Sem serviço fixo","latitude":"-11.991452","name":"Brotas de Macaúbas, BA <br> Sem serviço fixo","uf":"BA","color":"black","longitude":"-42.632609"},{"cidade":"Brumado","tecnologia":"Sem serviço fixo","latitude":"-14.202127","name":"Brumado, BA <br> Sem serviço fixo","uf":"BA","color":"black","longitude":"-41.669592"},{"cidade":"Buerarema","tecnologia":"Sem serviço fixo","latitude":"-14.959497","name":"Buerarema, BA <br> Sem serviço fixo","uf":"BA","color":"black","longitude":"-39.302849"},{"cidade":"Buritirama","tecnologia":"Sem serviço fixo","latitude":"-10.717055","name":"Buritirama, BA <br> Sem serviço fixo","uf":"BA","color":"black","longitude":"-43.630231"},{"cidade":"Caatiba","tecnologia":"Sem serviço fixo","latitude":"-14.969854","name":"Caatiba, BA <br> Sem serviço fixo","uf":"BA","color":"black","longitude":"-40.409156"},{"cidade":"Cabaceiras do Paraguaçu","tecnologia":"Sem serviço fixo","latitude":"-12.531694","name":"Cabaceiras do Paraguaçu, BA <br> Sem serviço fixo","uf":"BA","color":"black","longitude":"-39.190231"},{"cidade":"Cachoeira","tecnologia":"Sem serviço fixo","latitude":"-12.599443","name":"Cachoeira, BA <br> Sem serviço fixo","uf":"BA","color":"black","longitude":"-38.958695"},{"cidade":"Caculé","tecnologia":"Sem serviço fixo","latitude":"-14.500281","name":"Caculé, BA <br> Sem serviço fixo","uf":"BA","color":"black","longitude":"-42.222872"},{"cidade":"Caém","tecnologia":"Sem serviço fixo","latitude":"-11.067693","name":"Caém, BA <br> Sem serviço fixo","uf":"BA","color":"black","longitude":"-40.432039"},{"cidade":"Caetanos","tecnologia":"Sem serviço fixo","latitude":"-14.334745","name":"Caetanos, BA <br> Sem serviço fixo","uf":"BA","color":"black","longitude":"-40.917506"},{"cidade":"Caetité","tecnologia":"Sem serviço fixo","latitude":"-14.068422","name":"Caetité, BA <br> Sem serviço fixo","uf":"BA","color":"black","longitude":"-42.486133"},{"cidade":"Cafarnaum","tecnologia":"Sem serviço fixo","latitude":"-11.691399","name":"Cafarnaum, BA <br> Sem serviço fixo","uf":"BA","color":"black","longitude":"-41.468823"},{"cidade":"Cairu","tecnologia":"Sem serviço fixo","latitude":"-13.490377","name":"Cairu, BA <br> Sem serviço fixo","uf":"BA","color":"black","longitude":"-39.046525"},{"cidade":"Caldeirão Grande","tecnologia":"Sem serviço fixo","latitude":"-11.020798","name":"Caldeirão Grande, BA <br> Sem serviço fixo","uf":"BA","color":"black","longitude":"-40.295577"},{"cidade":"Camacan","tecnologia":"Sem serviço fixo","latitude":"-15.414157","name":"Camacan, BA <br> Sem serviço fixo","uf":"BA","color":"black","longitude":"-39.491937"},{"cidade":"Camaçari","tecnologia":"Sem serviço fixo","latitude":"-12.699638","name":"Camaçari, BA <br> Sem serviço fixo","uf":"BA","color":"black","longitude":"-38.326265"},{"cidade":"Camamu","tecnologia":"Sem serviço fixo","latitude":"-13.939773","name":"Camamu, BA <br> Sem serviço fixo","uf":"BA","color":"black","longitude":"-39.107082"},{"cidade":"Campo Alegre de Lourdes","tecnologia":"Sem serviço fixo","latitude":"-9.522212","name":"Campo Alegre de Lourdes, BA <br> Sem serviço fixo","uf":"BA","color":"black","longitude":"-43.01258"},{"cidade":"Campo Formoso","tecnologia":"Sem serviço fixo","latitude":"-10.51055","name":"Campo Formoso, BA <br> Sem serviço fixo","uf":"BA","color":"black","longitude":"-40.320031"},{"cidade":"Canápolis","tecnologia":"Sem serviço fixo","latitude":"-13.072454","name":"Canápolis, BA <br> Sem serviço fixo","uf":"BA","color":"black","longitude":"-44.200949"},{"cidade":"Canarana","tecnologia":"Sem serviço fixo","latitude":"-11.685831","name":"Canarana, BA <br> Sem serviço fixo","uf":"BA","color":"black","longitude":"-41.767705"},{"cidade":"Canavieiras","tecnologia":"Sem serviço fixo","latitude":"-15.672205","name":"Canavieiras, BA <br> Sem serviço fixo","uf":"BA","color":"black","longitude":"-38.953648"},{"cidade":"Candeal","tecnologia":"Sem serviço fixo","latitude":"-11.804851","name":"Candeal, BA <br> Sem serviço fixo","uf":"BA","color":"black","longitude":"-39.120277"},{"cidade":"Candeias","tecnologia":"Sem serviço fixo","latitude":"-12.671566","name":"Candeias, BA <br> Sem serviço fixo","uf":"BA","color":"black","longitude":"-38.547152"},{"cidade":"Candiba","tecnologia":"Sem serviço fixo","latitude":"-14.409738","name":"Candiba, BA <br> Sem serviço fixo","uf":"BA","color":"black","longitude":"-42.866694"},{"cidade":"Cândido Sales","tecnologia":"Sem serviço fixo","latitude":"-15.499309","name":"Cândido Sales, BA <br> Sem serviço fixo","uf":"BA","color":"black","longitude":"-41.241438"},{"cidade":"Cansanção","tecnologia":"Sem serviço fixo","latitude":"-10.664713","name":"Cansanção, BA <br> Sem serviço fixo","uf":"BA","color":"black","longitude":"-39.494388"},{"cidade":"Canudos","tecnologia":"Sem serviço fixo","latitude":"-9.900135","name":"Canudos, BA <br> Sem serviço fixo","uf":"BA","color":"black","longitude":"-39.147059"},{"cidade":"Capela do Alto Alegre","tecnologia":"Sem serviço fixo","latitude":"-11.665797","name":"Capela do Alto Alegre, BA <br> Sem serviço fixo","uf":"BA","color":"black","longitude":"-39.834912"},{"cidade":"Capim Grosso","tecnologia":"Sem serviço fixo","latitude":"-11.379659","name":"Capim Grosso, BA <br> Sem serviço fixo","uf":"BA","color":"black","longitude":"-40.008951"},{"cidade":"Caraíbas","tecnologia":"Sem serviço fixo","latitude":"-14.717677","name":"Caraíbas, BA <br> Sem serviço fixo","uf":"BA","color":"black","longitude":"-41.260336"},{"cidade":"Caravelas","tecnologia":"Sem serviço fixo","latitude":"-17.726839","name":"Caravelas, BA <br> Sem serviço fixo","uf":"BA","color":"black","longitude":"-39.259679"},{"cidade":"Cardeal da Silva","tecnologia":"Sem serviço fixo","latitude":"-11.947191","name":"Cardeal da Silva, BA <br> Sem serviço fixo","uf":"BA","color":"black","longitude":"-37.946905"},{"cidade":"Carinhanha","tecnologia":"Sem serviço fixo","latitude":"-14.298524","name":"Carinhanha, BA <br> Sem serviço fixo","uf":"BA","color":"black","longitude":"-43.772349"},{"cidade":"Casa Nova","tecnologia":"Sem serviço fixo","latitude":"-9.164083","name":"Casa Nova, BA <br> Sem serviço fixo","uf":"BA","color":"black","longitude":"-40.973977"},{"cidade":"Castro Alves","tecnologia":"Sem serviço fixo","latitude":"-12.75795","name":"Castro Alves, BA <br> Sem serviço fixo","uf":"BA","color":"black","longitude":"-39.424753"},{"cidade":"Catolândia","tecnologia":"Sem serviço fixo","latitude":"-12.310013","name":"Catolândia, BA <br> Sem serviço fixo","uf":"BA","color":"black","longitude":"-44.864808"},{"cidade":"Catu","tecnologia":"Sem serviço fixo","latitude":"-12.351274","name":"Catu, BA <br> Sem serviço fixo","uf":"BA","color":"black","longitude":"-38.379108"},{"cidade":"Caturama","tecnologia":"Sem serviço fixo","latitude":"-13.323938","name":"Caturama, BA <br> Sem serviço fixo","uf":"BA","color":"black","longitude":"-42.290385"},{"cidade":"Central","tecnologia":"Sem serviço fixo","latitude":"-11.137576","name":"Central, BA <br> Sem serviço fixo","uf":"BA","color":"black","longitude":"-42.111625"},{"cidade":"Chorrochó","tecnologia":"Sem serviço fixo","latitude":"-8.969498","name":"Chorrochó, BA <br> Sem serviço fixo","uf":"BA","color":"black","longitude":"-39.097942"},{"cidade":"Cícero Dantas","tecnologia":"Sem serviço fixo","latitude":"-10.589664","name":"Cícero Dantas, BA <br> Sem serviço fixo","uf":"BA","color":"black","longitude":"-38.379377"},{"cidade":"Cipó","tecnologia":"Sem serviço fixo","latitude":"-11.103172","name":"Cipó, BA <br> Sem serviço fixo","uf":"BA","color":"black","longitude":"-38.517942"},{"cidade":"Coaraci","tecnologia":"Sem serviço fixo","latitude":"-14.636996","name":"Coaraci, BA <br> Sem serviço fixo","uf":"BA","color":"black","longitude":"-39.555609"},{"cidade":"Cocos","tecnologia":"Sem serviço fixo","latitude":"-14.18136","name":"Cocos, BA <br> Sem serviço fixo","uf":"BA","color":"black","longitude":"-44.53522"},{"cidade":"Conceição da Feira","tecnologia":"Sem serviço fixo","latitude":"-12.507835","name":"Conceição da Feira, BA <br> Sem serviço fixo","uf":"BA","color":"black","longitude":"-38.997823"},{"cidade":"Conceição do Almeida","tecnologia":"Sem serviço fixo","latitude":"-12.783579","name":"Conceição do Almeida, BA <br> Sem serviço fixo","uf":"BA","color":"black","longitude":"-39.171466"},{"cidade":"Conceição do Coité","tecnologia":"Sem serviço fixo","latitude":"-11.559953","name":"Conceição do Coité, BA <br> Sem serviço fixo","uf":"BA","color":"black","longitude":"-39.280827"},{"cidade":"Conceição do Jacuípe","tecnologia":"Sem serviço fixo","latitude":"-12.326831","name":"Conceição do Jacuípe, BA <br> Sem serviço fixo","uf":"BA","color":"black","longitude":"-38.768433"},{"cidade":"Conde","tecnologia":"Sem serviço fixo","latitude":"-11.817937","name":"Conde, BA <br> Sem serviço fixo","uf":"BA","color":"black","longitude":"-37.613094"},{"cidade":"Condeúba","tecnologia":"Sem serviço fixo","latitude":"-14.902227","name":"Condeúba, BA <br> Sem serviço fixo","uf":"BA","color":"black","longitude":"-41.971829"},{"cidade":"Contendas do Sincorá","tecnologia":"Sem serviço fixo","latitude":"-13.75369","name":"Contendas do Sincorá, BA <br> Sem serviço fixo","uf":"BA","color":"black","longitude":"-41.047953"},{"cidade":"Coração de Maria","tecnologia":"Sem serviço fixo","latitude":"-12.233332","name":"Coração de Maria, BA <br> Sem serviço fixo","uf":"BA","color":"black","longitude":"-38.748654"},{"cidade":"Cordeiros","tecnologia":"Sem serviço fixo","latitude":"-15.035641","name":"Cordeiros, BA <br> Sem serviço fixo","uf":"BA","color":"black","longitude":"-41.930796"},{"cidade":"Coribe","tecnologia":"Sem serviço fixo","latitude":"-13.823216","name":"Coribe, BA <br> Sem serviço fixo","uf":"BA","color":"black","longitude":"-44.458593"},{"cidade":"Coronel João sá","tecnologia":"Sem serviço fixo","latitude":"-10.2847","name":"Coronel João sá, BA <br> Sem serviço fixo","uf":"BA","color":"black","longitude":"-37.919825"},{"cidade":"Correntina","tecnologia":"Sem serviço fixo","latitude":"-13.347674","name":"Correntina, BA <br> Sem serviço fixo","uf":"BA","color":"black","longitude":"-44.633335"},{"cidade":"Cotegipe","tecnologia":"Sem serviço fixo","latitude":"-12.022761","name":"Cotegipe, BA <br> Sem serviço fixo","uf":"BA","color":"black","longitude":"-44.256559"},{"cidade":"Cravolândia","tecnologia":"Sem serviço fixo","latitude":"-13.353063","name":"Cravolândia, BA <br> Sem serviço fixo","uf":"BA","color":"black","longitude":"-39.803083"},{"cidade":"Crisópolis","tecnologia":"Sem serviço fixo","latitude":"-11.505929","name":"Crisópolis, BA <br> Sem serviço fixo","uf":"BA","color":"black","longitude":"-38.15148"},{"cidade":"Cristópolis","tecnologia":"Sem serviço fixo","latitude":"-12.224899","name":"Cristópolis, BA <br> Sem serviço fixo","uf":"BA","color":"black","longitude":"-44.421358"},{"cidade":"Cruz Das Almas","tecnologia":"Sem serviço fixo","latitude":"-12.667516","name":"Cruz Das Almas, BA <br> Sem serviço fixo","uf":"BA","color":"black","longitude":"-39.100787"},{"cidade":"Curaçá","tecnologia":"Sem serviço fixo","latitude":"-8.984577","name":"Curaçá, BA <br> Sem serviço fixo","uf":"BA","color":"black","longitude":"-39.899671"},{"cidade":"Dário Meira","tecnologia":"Sem serviço fixo","latitude":"-14.4229","name":"Dário Meira, BA <br> Sem serviço fixo","uf":"BA","color":"black","longitude":"-39.903129"},{"cidade":"Dom Basílio","tecnologia":"Sem serviço fixo","latitude":"-13.756499","name":"Dom Basílio, BA <br> Sem serviço fixo","uf":"BA","color":"black","longitude":"-41.767663"},{"cidade":"Dom Macedo Costa","tecnologia":"Sem serviço fixo","latitude":"-12.901582","name":"Dom Macedo Costa, BA <br> Sem serviço fixo","uf":"BA","color":"black","longitude":"-39.192259"},{"cidade":"Elísio Medrado","tecnologia":"Sem serviço fixo","latitude":"-12.941743","name":"Elísio Medrado, BA <br> Sem serviço fixo","uf":"BA","color":"black","longitude":"-39.519087"},{"cidade":"Encruzilhada","tecnologia":"Sem serviço fixo","latitude":"-15.530168","name":"Encruzilhada, BA <br> Sem serviço fixo","uf":"BA","color":"black","longitude":"-40.912432"},{"cidade":"Entre Rios","tecnologia":"Sem serviço fixo","latitude":"-11.939164","name":"Entre Rios, BA <br> Sem serviço fixo","uf":"BA","color":"black","longitude":"-38.087125"},{"cidade":"Érico Cardoso","tecnologia":"Sem serviço fixo","latitude":"-13.421467","name":"Érico Cardoso, BA <br> Sem serviço fixo","uf":"BA","color":"black","longitude":"-42.1352"},{"cidade":"Esplanada","tecnologia":"Sem serviço fixo","latitude":"-11.794215","name":"Esplanada, BA <br> Sem serviço fixo","uf":"BA","color":"black","longitude":"-37.943216"},{"cidade":"Euclides da Cunha","tecnologia":"Sem serviço fixo","latitude":"-10.507754","name":"Euclides da Cunha, BA <br> Sem serviço fixo","uf":"BA","color":"black","longitude":"-39.015286"},{"cidade":"Eunápolis","tecnologia":"Sem serviço fixo","latitude":"-16.371498","name":"Eunápolis, BA <br> Sem serviço fixo","uf":"BA","color":"black","longitude":"-39.582122"},{"cidade":"Fátima","tecnologia":"Sem serviço fixo","latitude":"-10.616013","name":"Fátima, BA <br> Sem serviço fixo","uf":"BA","color":"black","longitude":"-38.223891"},{"cidade":"Feira da Mata","tecnologia":"Sem serviço fixo","latitude":"-14.204405","name":"Feira da Mata, BA <br> Sem serviço fixo","uf":"BA","color":"black","longitude":"-44.274424"},{"cidade":"Feira de Santana","tecnologia":"Sem serviço fixo","latitude":"-12.266429","name":"Feira de Santana, BA <br> Sem serviço fixo","uf":"BA","color":"black","longitude":"-38.966293"},{"cidade":"Filadélfia","tecnologia":"Sem serviço fixo","latitude":"-10.740475","name":"Filadélfia, BA <br> Sem serviço fixo","uf":"BA","color":"black","longitude":"-40.14371"},{"cidade":"Firmino Alves","tecnologia":"Sem serviço fixo","latitude":"-14.982334","name":"Firmino Alves, BA <br> Sem serviço fixo","uf":"BA","color":"black","longitude":"-39.926859"},{"cidade":"Floresta Azul","tecnologia":"Sem serviço fixo","latitude":"-14.862934","name":"Floresta Azul, BA <br> Sem serviço fixo","uf":"BA","color":"black","longitude":"-39.657877"},{"cidade":"Formosa do Rio Preto","tecnologia":"Sem serviço fixo","latitude":"-11.032812","name":"Formosa do Rio Preto, BA <br> Sem serviço fixo","uf":"BA","color":"black","longitude":"-45.19298"},{"cidade":"Gandu","tecnologia":"Sem serviço fixo","latitude":"-13.744101","name":"Gandu, BA <br> Sem serviço fixo","uf":"BA","color":"black","longitude":"-39.474651"},{"cidade":"Gavião","tecnologia":"Sem serviço fixo","latitude":"-11.468796","name":"Gavião, BA <br> Sem serviço fixo","uf":"BA","color":"black","longitude":"-39.775751"},{"cidade":"Gentio do Ouro","tecnologia":"Sem serviço fixo","latitude":"-11.434233","name":"Gentio do Ouro, BA <br> Sem serviço fixo","uf":"BA","color":"black","longitude":"-42.507652"},{"cidade":"Glória","tecnologia":"Sem serviço fixo","latitude":"-9.343822","name":"Glória, BA <br> Sem serviço fixo","uf":"BA","color":"black","longitude":"-38.254397"},{"cidade":"Gongogi","tecnologia":"Sem serviço fixo","latitude":"-14.319481","name":"Gongogi, BA <br> Sem serviço fixo","uf":"BA","color":"black","longitude":"-39.46899"},{"cidade":"Governador Mangabeira","tecnologia":"Sem serviço fixo","latitude":"-12.599415","name":"Governador Mangabeira, BA <br> Sem serviço fixo","uf":"BA","color":"black","longitude":"-39.041207"},{"cidade":"Guajeru","tecnologia":"Sem serviço fixo","latitude":"-14.54668","name":"Guajeru, BA <br> Sem serviço fixo","uf":"BA","color":"black","longitude":"-41.938064"},{"cidade":"Guanambi","tecnologia":"Sem serviço fixo","latitude":"-14.223066","name":"Guanambi, BA <br> Sem serviço fixo","uf":"BA","color":"black","longitude":"-42.779943"},{"cidade":"Guaratinga","tecnologia":"Sem serviço fixo","latitude":"-16.583276","name":"Guaratinga, BA <br> Sem serviço fixo","uf":"BA","color":"black","longitude":"-39.784713"},{"cidade":"Heliópolis","tecnologia":"Sem serviço fixo","latitude":"-10.682539","name":"Heliópolis, BA <br> Sem serviço fixo","uf":"BA","color":"black","longitude":"-38.290664"},{"cidade":"Iaçu","tecnologia":"Sem serviço fixo","latitude":"-12.766637","name":"Iaçu, BA <br> Sem serviço fixo","uf":"BA","color":"black","longitude":"-40.205609"},{"cidade":"Ibiassucê","tecnologia":"Sem serviço fixo","latitude":"-14.271126","name":"Ibiassucê, BA <br> Sem serviço fixo","uf":"BA","color":"black","longitude":"-42.257026"},{"cidade":"Ibicaraí","tecnologia":"Sem serviço fixo","latitude":"-14.857877","name":"Ibicaraí, BA <br> Sem serviço fixo","uf":"BA","color":"black","longitude":"-39.591434"},{"cidade":"Ibicoara","tecnologia":"Sem serviço fixo","latitude":"-13.405918","name":"Ibicoara, BA <br> Sem serviço fixo","uf":"BA","color":"black","longitude":"-41.283989"},{"cidade":"Ibicuí","tecnologia":"Sem serviço fixo","latitude":"-14.84496","name":"Ibicuí, BA <br> Sem serviço fixo","uf":"BA","color":"black","longitude":"-39.987915"},{"cidade":"Ibipeba","tecnologia":"Sem serviço fixo","latitude":"-11.643775","name":"Ibipeba, BA <br> Sem serviço fixo","uf":"BA","color":"black","longitude":"-42.019515"},{"cidade":"Ibipitanga","tecnologia":"Sem serviço fixo","latitude":"-12.880435","name":"Ibipitanga, BA <br> Sem serviço fixo","uf":"BA","color":"black","longitude":"-42.485568"},{"cidade":"Ibiquera","tecnologia":"Sem serviço fixo","latitude":"-12.644354","name":"Ibiquera, BA <br> Sem serviço fixo","uf":"BA","color":"black","longitude":"-40.933774"},{"cidade":"Ibirapitanga","tecnologia":"Sem serviço fixo","latitude":"-14.164898","name":"Ibirapitanga, BA <br> Sem serviço fixo","uf":"BA","color":"black","longitude":"-39.378737"},{"cidade":"Ibirapuã","tecnologia":"Sem serviço fixo","latitude":"-17.683151","name":"Ibirapuã, BA <br> Sem serviço fixo","uf":"BA","color":"black","longitude":"-40.112907"},{"cidade":"Ibirataia","tecnologia":"Sem serviço fixo","latitude":"-14.064316","name":"Ibirataia, BA <br> Sem serviço fixo","uf":"BA","color":"black","longitude":"-39.645935"},{"cidade":"Ibitiara","tecnologia":"Sem serviço fixo","latitude":"-12.650181","name":"Ibitiara, BA <br> Sem serviço fixo","uf":"BA","color":"black","longitude":"-42.217946"},{"cidade":"Ibititá","tecnologia":"Sem serviço fixo","latitude":"-11.541426","name":"Ibititá, BA <br> Sem serviço fixo","uf":"BA","color":"black","longitude":"-41.97481"},{"cidade":"Ibotirama","tecnologia":"Sem serviço fixo","latitude":"-12.177876","name":"Ibotirama, BA <br> Sem serviço fixo","uf":"BA","color":"black","longitude":"-43.21669"},{"cidade":"Ichu","tecnologia":"Sem serviço fixo","latitude":"-11.743065","name":"Ichu, BA <br> Sem serviço fixo","uf":"BA","color":"black","longitude":"-39.190523"},{"cidade":"Igaporã","tecnologia":"Sem serviço fixo","latitude":"-13.774025","name":"Igaporã, BA <br> Sem serviço fixo","uf":"BA","color":"black","longitude":"-42.715508"},{"cidade":"Igrapiúna","tecnologia":"Sem serviço fixo","latitude":"-13.829543","name":"Igrapiúna, BA <br> Sem serviço fixo","uf":"BA","color":"black","longitude":"-39.136129"},{"cidade":"Iguaí","tecnologia":"Sem serviço fixo","latitude":"-14.752754","name":"Iguaí, BA <br> Sem serviço fixo","uf":"BA","color":"black","longitude":"-40.089417"},{"cidade":"Ilhéus","tecnologia":"Sem serviço fixo","latitude":"-14.793045","name":"Ilhéus, BA <br> Sem serviço fixo","uf":"BA","color":"black","longitude":"-39.04602"},{"cidade":"Inhambupe","tecnologia":"Sem serviço fixo","latitude":"-11.780955","name":"Inhambupe, BA <br> Sem serviço fixo","uf":"BA","color":"black","longitude":"-38.355048"},{"cidade":"Ipecaetá","tecnologia":"Sem serviço fixo","latitude":"-12.302846","name":"Ipecaetá, BA <br> Sem serviço fixo","uf":"BA","color":"black","longitude":"-39.306921"},{"cidade":"Ipiaú","tecnologia":"Sem serviço fixo","latitude":"-14.12263","name":"Ipiaú, BA <br> Sem serviço fixo","uf":"BA","color":"black","longitude":"-39.735252"},{"cidade":"Ipirá","tecnologia":"Sem serviço fixo","latitude":"-12.156057","name":"Ipirá, BA <br> Sem serviço fixo","uf":"BA","color":"black","longitude":"-39.735941"},{"cidade":"Ipupiara","tecnologia":"Sem serviço fixo","latitude":"-11.821881","name":"Ipupiara, BA <br> Sem serviço fixo","uf":"BA","color":"black","longitude":"-42.617913"},{"cidade":"Irajuba","tecnologia":"Sem serviço fixo","latitude":"-13.256331","name":"Irajuba, BA <br> Sem serviço fixo","uf":"BA","color":"black","longitude":"-40.08482"},{"cidade":"Iramaia","tecnologia":"Sem serviço fixo","latitude":"-13.290186","name":"Iramaia, BA <br> Sem serviço fixo","uf":"BA","color":"black","longitude":"-40.959471"},{"cidade":"Iraquara","tecnologia":"Sem serviço fixo","latitude":"-12.24288","name":"Iraquara, BA <br> Sem serviço fixo","uf":"BA","color":"black","longitude":"-41.615504"},{"cidade":"Irará","tecnologia":"Sem serviço fixo","latitude":"-12.050449","name":"Irará, BA <br> Sem serviço fixo","uf":"BA","color":"black","longitude":"-38.763139"},{"cidade":"Irecê","tecnologia":"Sem serviço fixo","latitude":"-11.303317","name":"Irecê, BA <br> Sem serviço fixo","uf":"BA","color":"black","longitude":"-41.853462"},{"cidade":"Itabela","tecnologia":"Sem serviço fixo","latitude":"-16.573188","name":"Itabela, BA <br> Sem serviço fixo","uf":"BA","color":"black","longitude":"-39.559318"},{"cidade":"Itaberaba","tecnologia":"Sem serviço fixo","latitude":"-12.524182","name":"Itaberaba, BA <br> Sem serviço fixo","uf":"BA","color":"black","longitude":"-40.305897"},{"cidade":"Itabuna","tecnologia":"Sem serviço fixo","latitude":"-14.787573","name":"Itabuna, BA <br> Sem serviço fixo","uf":"BA","color":"black","longitude":"-39.278056"},{"cidade":"Itacaré","tecnologia":"Sem serviço fixo","latitude":"-14.278422","name":"Itacaré, BA <br> Sem serviço fixo","uf":"BA","color":"black","longitude":"-38.99591"},{"cidade":"Itaeté","tecnologia":"Sem serviço fixo","latitude":"-12.983121","name":"Itaeté, BA <br> Sem serviço fixo","uf":"BA","color":"black","longitude":"-40.96774"},{"cidade":"Itagi","tecnologia":"Sem serviço fixo","latitude":"-14.1615","name":"Itagi, BA <br> Sem serviço fixo","uf":"BA","color":"black","longitude":"-40.013112"},{"cidade":"Itagibá","tecnologia":"Sem serviço fixo","latitude":"-14.278239","name":"Itagibá, BA <br> Sem serviço fixo","uf":"BA","color":"black","longitude":"-39.844945"},{"cidade":"Itagimirim","tecnologia":"Sem serviço fixo","latitude":"-16.081919","name":"Itagimirim, BA <br> Sem serviço fixo","uf":"BA","color":"black","longitude":"-39.613317"},{"cidade":"Itaguaçu da Bahia","tecnologia":"Sem serviço fixo","latitude":"-11.014672","name":"Itaguaçu da Bahia, BA <br> Sem serviço fixo","uf":"BA","color":"black","longitude":"-42.399671"},{"cidade":"Itaju do Colônia","tecnologia":"Sem serviço fixo","latitude":"-15.136598","name":"Itaju do Colônia, BA <br> Sem serviço fixo","uf":"BA","color":"black","longitude":"-39.728298"},{"cidade":"Itajuípe","tecnologia":"Sem serviço fixo","latitude":"-14.678766","name":"Itajuípe, BA <br> Sem serviço fixo","uf":"BA","color":"black","longitude":"-39.369823"},{"cidade":"Itamaraju","tecnologia":"Sem serviço fixo","latitude":"-17.03782","name":"Itamaraju, BA <br> Sem serviço fixo","uf":"BA","color":"black","longitude":"-39.538569"},{"cidade":"Itamari","tecnologia":"Sem serviço fixo","latitude":"-13.778192","name":"Itamari, BA <br> Sem serviço fixo","uf":"BA","color":"black","longitude":"-39.682959"},{"cidade":"Itambé","tecnologia":"Sem serviço fixo","latitude":"-15.242913","name":"Itambé, BA <br> Sem serviço fixo","uf":"BA","color":"black","longitude":"-40.629955"},{"cidade":"Itanagra","tecnologia":"Sem serviço fixo","latitude":"-12.261435","name":"Itanagra, BA <br> Sem serviço fixo","uf":"BA","color":"black","longitude":"-38.043595"},{"cidade":"Itanhém","tecnologia":"Sem serviço fixo","latitude":"-17.164207","name":"Itanhém, BA <br> Sem serviço fixo","uf":"BA","color":"black","longitude":"-40.332139"},{"cidade":"Itaparica","tecnologia":"Sem serviço fixo","latitude":"-12.893205","name":"Itaparica, BA <br> Sem serviço fixo","uf":"BA","color":"black","longitude":"-38.67995"},{"cidade":"Itapé","tecnologia":"Sem serviço fixo","latitude":"-14.887641","name":"Itapé, BA <br> Sem serviço fixo","uf":"BA","color":"black","longitude":"-39.423858"},{"cidade":"Itapebi","tecnologia":"Sem serviço fixo","latitude":"-15.955063","name":"Itapebi, BA <br> Sem serviço fixo","uf":"BA","color":"black","longitude":"-39.532863"},{"cidade":"Itapetinga","tecnologia":"Sem serviço fixo","latitude":"-15.247533","name":"Itapetinga, BA <br> Sem serviço fixo","uf":"BA","color":"black","longitude":"-40.248236"},{"cidade":"Itapicuru","tecnologia":"Sem serviço fixo","latitude":"-11.308836","name":"Itapicuru, BA <br> Sem serviço fixo","uf":"BA","color":"black","longitude":"-38.226229"},{"cidade":"Itapitanga","tecnologia":"Sem serviço fixo","latitude":"-14.413932","name":"Itapitanga, BA <br> Sem serviço fixo","uf":"BA","color":"black","longitude":"-39.565654"},{"cidade":"Itaquara","tecnologia":"Sem serviço fixo","latitude":"-13.44589","name":"Itaquara, BA <br> Sem serviço fixo","uf":"BA","color":"black","longitude":"-39.937767"},{"cidade":"Itarantim","tecnologia":"Sem serviço fixo","latitude":"-15.652819","name":"Itarantim, BA <br> Sem serviço fixo","uf":"BA","color":"black","longitude":"-40.06496"},{"cidade":"Itatim","tecnologia":"Sem serviço fixo","latitude":"-12.709888","name":"Itatim, BA <br> Sem serviço fixo","uf":"BA","color":"black","longitude":"-39.695199"},{"cidade":"Itiruçu","tecnologia":"Sem serviço fixo","latitude":"-13.529043","name":"Itiruçu, BA <br> Sem serviço fixo","uf":"BA","color":"black","longitude":"-40.147186"},{"cidade":"Itiúba","tecnologia":"Sem serviço fixo","latitude":"-10.694761","name":"Itiúba, BA <br> Sem serviço fixo","uf":"BA","color":"black","longitude":"-39.844616"},{"cidade":"Itororó","tecnologia":"Sem serviço fixo","latitude":"-15.109988","name":"Itororó, BA <br> Sem serviço fixo","uf":"BA","color":"black","longitude":"-40.068401"},{"cidade":"Ituaçu","tecnologia":"Sem serviço fixo","latitude":"-13.810651","name":"Ituaçu, BA <br> Sem serviço fixo","uf":"BA","color":"black","longitude":"-41.300284"},{"cidade":"Ituberá","tecnologia":"Sem serviço fixo","latitude":"-13.724936","name":"Ituberá, BA <br> Sem serviço fixo","uf":"BA","color":"black","longitude":"-39.148059"},{"cidade":"Iuiú","tecnologia":"Sem serviço fixo","latitude":"-14.405424","name":"Iuiú, BA <br> Sem serviço fixo","uf":"BA","color":"black","longitude":"-43.559547"},{"cidade":"Jaborandi","tecnologia":"Sem serviço fixo","latitude":"-13.607082","name":"Jaborandi, BA <br> Sem serviço fixo","uf":"BA","color":"black","longitude":"-44.425537"},{"cidade":"Jacaraci","tecnologia":"Sem serviço fixo","latitude":"-14.85409","name":"Jacaraci, BA <br> Sem serviço fixo","uf":"BA","color":"black","longitude":"-42.432878"},{"cidade":"Jacobina","tecnologia":"Sem serviço fixo","latitude":"-11.181217","name":"Jacobina, BA <br> Sem serviço fixo","uf":"BA","color":"black","longitude":"-40.511693"},{"cidade":"Jaguaquara","tecnologia":"Sem serviço fixo","latitude":"-13.524834","name":"Jaguaquara, BA <br> Sem serviço fixo","uf":"BA","color":"black","longitude":"-39.964009"},{"cidade":"Jaguarari","tecnologia":"Sem serviço fixo","latitude":"-10.256859","name":"Jaguarari, BA <br> Sem serviço fixo","uf":"BA","color":"black","longitude":"-40.199938"},{"cidade":"Jaguaripe","tecnologia":"Sem serviço fixo","latitude":"-13.110924","name":"Jaguaripe, BA <br> Sem serviço fixo","uf":"BA","color":"black","longitude":"-38.893891"},{"cidade":"Jandaíra","tecnologia":"Sem serviço fixo","latitude":"-11.561614","name":"Jandaíra, BA <br> Sem serviço fixo","uf":"BA","color":"black","longitude":"-37.785274"},{"cidade":"Jequié","tecnologia":"Sem serviço fixo","latitude":"-13.850888","name":"Jequié, BA <br> Sem serviço fixo","uf":"BA","color":"black","longitude":"-40.087704"},{"cidade":"Jeremoabo","tecnologia":"Sem serviço fixo","latitude":"-10.06848","name":"Jeremoabo, BA <br> Sem serviço fixo","uf":"BA","color":"black","longitude":"-38.347097"},{"cidade":"Jiquiriçá","tecnologia":"Sem serviço fixo","latitude":"-13.262101","name":"Jiquiriçá, BA <br> Sem serviço fixo","uf":"BA","color":"black","longitude":"-39.57365"},{"cidade":"Jitaúna","tecnologia":"Sem serviço fixo","latitude":"-14.013085","name":"Jitaúna, BA <br> Sem serviço fixo","uf":"BA","color":"black","longitude":"-39.896892"},{"cidade":"João Dourado","tecnologia":"Sem serviço fixo","latitude":"-11.348642","name":"João Dourado, BA <br> Sem serviço fixo","uf":"BA","color":"black","longitude":"-41.654799"},{"cidade":"Juazeiro","tecnologia":"Sem serviço fixo","latitude":"-9.416217","name":"Juazeiro, BA <br> Sem serviço fixo","uf":"BA","color":"black","longitude":"-40.503251"},{"cidade":"Jucuruçu","tecnologia":"Sem serviço fixo","latitude":"-16.848752","name":"Jucuruçu, BA <br> Sem serviço fixo","uf":"BA","color":"black","longitude":"-40.164074"},{"cidade":"Jussara","tecnologia":"Sem serviço fixo","latitude":"-11.043084","name":"Jussara, BA <br> Sem serviço fixo","uf":"BA","color":"black","longitude":"-41.970235"},{"cidade":"Jussari","tecnologia":"Sem serviço fixo","latitude":"-15.19201","name":"Jussari, BA <br> Sem serviço fixo","uf":"BA","color":"black","longitude":"-39.490962"},{"cidade":"Jussiape","tecnologia":"Sem serviço fixo","latitude":"-13.515514","name":"Jussiape, BA <br> Sem serviço fixo","uf":"BA","color":"black","longitude":"-41.588209"},{"cidade":"Lafaiete Coutinho","tecnologia":"Sem serviço fixo","latitude":"-13.6541","name":"Lafaiete Coutinho, BA <br> Sem serviço fixo","uf":"BA","color":"black","longitude":"-40.21189"},{"cidade":"Lagoa Real","tecnologia":"Sem serviço fixo","latitude":"-14.033443","name":"Lagoa Real, BA <br> Sem serviço fixo","uf":"BA","color":"black","longitude":"-42.132764"},{"cidade":"Laje","tecnologia":"Sem serviço fixo","latitude":"-13.167327","name":"Laje, BA <br> Sem serviço fixo","uf":"BA","color":"black","longitude":"-39.421264"},{"cidade":"Lajedão","tecnologia":"Sem serviço fixo","latitude":"-17.605641","name":"Lajedão, BA <br> Sem serviço fixo","uf":"BA","color":"black","longitude":"-40.338307"},{"cidade":"Lajedinho","tecnologia":"Sem serviço fixo","latitude":"-12.352889","name":"Lajedinho, BA <br> Sem serviço fixo","uf":"BA","color":"black","longitude":"-40.904752"},{"cidade":"Lajedo do Tabocal","tecnologia":"Sem serviço fixo","latitude":"-13.466286","name":"Lajedo do Tabocal, BA <br> Sem serviço fixo","uf":"BA","color":"black","longitude":"-40.220429"},{"cidade":"Lamarão","tecnologia":"Sem serviço fixo","latitude":"-11.773013","name":"Lamarão, BA <br> Sem serviço fixo","uf":"BA","color":"black","longitude":"-38.887009"},{"cidade":"Lapão","tecnologia":"Sem serviço fixo","latitude":"-11.385096","name":"Lapão, BA <br> Sem serviço fixo","uf":"BA","color":"black","longitude":"-41.828615"},{"cidade":"Lauro de Freitas","tecnologia":"Sem serviço fixo","latitude":"-12.8978","name":"Lauro de Freitas, BA <br> Sem serviço fixo","uf":"BA","color":"black","longitude":"-38.321008"},{"cidade":"Lençóis","tecnologia":"Sem serviço fixo","latitude":"-12.561604","name":"Lençóis, BA <br> Sem serviço fixo","uf":"BA","color":"black","longitude":"-41.392825"},{"cidade":"Licínio de Almeida","tecnologia":"Sem serviço fixo","latitude":"-14.684215","name":"Licínio de Almeida, BA <br> Sem serviço fixo","uf":"BA","color":"black","longitude":"-42.509527"},{"cidade":"Livramento de Nossa Senhora","tecnologia":"Sem serviço fixo","latitude":"-13.636868","name":"Livramento de Nossa Senhora, BA <br> Sem serviço fixo","uf":"BA","color":"black","longitude":"-41.843187"},{"cidade":"Macajuba","tecnologia":"Sem serviço fixo","latitude":"-12.132592","name":"Macajuba, BA <br> Sem serviço fixo","uf":"BA","color":"black","longitude":"-40.357058"},{"cidade":"Macarani","tecnologia":"Sem serviço fixo","latitude":"-15.564563","name":"Macarani, BA <br> Sem serviço fixo","uf":"BA","color":"black","longitude":"-40.420888"},{"cidade":"Macaúbas","tecnologia":"Sem serviço fixo","latitude":"-13.018601","name":"Macaúbas, BA <br> Sem serviço fixo","uf":"BA","color":"black","longitude":"-42.694515"},{"cidade":"Macururé","tecnologia":"Sem serviço fixo","latitude":"-9.162258","name":"Macururé, BA <br> Sem serviço fixo","uf":"BA","color":"black","longitude":"-39.051784"},{"cidade":"Madre de Deus","tecnologia":"Sem serviço fixo","latitude":"-12.744621","name":"Madre de Deus, BA <br> Sem serviço fixo","uf":"BA","color":"black","longitude":"-38.615316"},{"cidade":"Maetinga","tecnologia":"Sem serviço fixo","latitude":"-14.662335","name":"Maetinga, BA <br> Sem serviço fixo","uf":"BA","color":"black","longitude":"-41.49146"},{"cidade":"Maiquinique","tecnologia":"Sem serviço fixo","latitude":"-15.623985","name":"Maiquinique, BA <br> Sem serviço fixo","uf":"BA","color":"black","longitude":"-40.258722"},{"cidade":"Mairi","tecnologia":"Sem serviço fixo","latitude":"-11.710704","name":"Mairi, BA <br> Sem serviço fixo","uf":"BA","color":"black","longitude":"-40.143732"},{"cidade":"Malhada de Pedras","tecnologia":"Sem serviço fixo","latitude":"-14.384673","name":"Malhada de Pedras, BA <br> Sem serviço fixo","uf":"BA","color":"black","longitude":"-41.88422"},{"cidade":"Malhada","tecnologia":"Sem serviço fixo","latitude":"-14.337134","name":"Malhada, BA <br> Sem serviço fixo","uf":"BA","color":"black","longitude":"-43.768634"},{"cidade":"Manoel Vitorino","tecnologia":"Sem serviço fixo","latitude":"-14.147617","name":"Manoel Vitorino, BA <br> Sem serviço fixo","uf":"BA","color":"black","longitude":"-40.239895"},{"cidade":"Mansidão","tecnologia":"Sem serviço fixo","latitude":"-10.722707","name":"Mansidão, BA <br> Sem serviço fixo","uf":"BA","color":"black","longitude":"-44.042798"},{"cidade":"Maracás","tecnologia":"Sem serviço fixo","latitude":"-13.435468","name":"Maracás, BA <br> Sem serviço fixo","uf":"BA","color":"black","longitude":"-40.432333"},{"cidade":"Maragogipe","tecnologia":"Sem serviço fixo","latitude":"-12.77602","name":"Maragogipe, BA <br> Sem serviço fixo","uf":"BA","color":"black","longitude":"-38.917519"},{"cidade":"Marcionílio Souza","tecnologia":"Sem serviço fixo","latitude":"-13.006437","name":"Marcionílio Souza, BA <br> Sem serviço fixo","uf":"BA","color":"black","longitude":"-40.529457"},{"cidade":"Mascote","tecnologia":"Sem serviço fixo","latitude":"-15.554159","name":"Mascote, BA <br> Sem serviço fixo","uf":"BA","color":"black","longitude":"-39.301602"},{"cidade":"Mata de São João","tecnologia":"Sem serviço fixo","latitude":"-12.530685","name":"Mata de São João, BA <br> Sem serviço fixo","uf":"BA","color":"black","longitude":"-38.300898"},{"cidade":"Matina","tecnologia":"Sem serviço fixo","latitude":"-13.910917","name":"Matina, BA <br> Sem serviço fixo","uf":"BA","color":"black","longitude":"-42.843914"},{"cidade":"Medeiros Neto","tecnologia":"Sem serviço fixo","latitude":"-17.370676","name":"Medeiros Neto, BA <br> Sem serviço fixo","uf":"BA","color":"black","longitude":"-40.223776"},{"cidade":"Miguel Calmon","tecnologia":"Sem serviço fixo","latitude":"-11.429891","name":"Miguel Calmon, BA <br> Sem serviço fixo","uf":"BA","color":"black","longitude":"-40.603084"},{"cidade":"Milagres","tecnologia":"Sem serviço fixo","latitude":"-12.864635","name":"Milagres, BA <br> Sem serviço fixo","uf":"BA","color":"black","longitude":"-39.861092"},{"cidade":"Mirangaba","tecnologia":"Sem serviço fixo","latitude":"-10.960983","name":"Mirangaba, BA <br> Sem serviço fixo","uf":"BA","color":"black","longitude":"-40.573996"},{"cidade":"Mirante","tecnologia":"Sem serviço fixo","latitude":"-14.238469","name":"Mirante, BA <br> Sem serviço fixo","uf":"BA","color":"black","longitude":"-40.771799"},{"cidade":"Monte Santo","tecnologia":"Sem serviço fixo","latitude":"-10.437413","name":"Monte Santo, BA <br> Sem serviço fixo","uf":"BA","color":"black","longitude":"-39.332077"},{"cidade":"Morpará","tecnologia":"Sem serviço fixo","latitude":"-11.556892","name":"Morpará, BA <br> Sem serviço fixo","uf":"BA","color":"black","longitude":"-43.276566"},{"cidade":"Morro do Chapéu","tecnologia":"Sem serviço fixo","latitude":"-11.548804","name":"Morro do Chapéu, BA <br> Sem serviço fixo","uf":"BA","color":"black","longitude":"-41.156461"},{"cidade":"Mortugaba","tecnologia":"Sem serviço fixo","latitude":"-15.022454","name":"Mortugaba, BA <br> Sem serviço fixo","uf":"BA","color":"black","longitude":"-42.372663"},{"cidade":"Mucugê","tecnologia":"Sem serviço fixo","latitude":"-13.0053","name":"Mucugê, BA <br> Sem serviço fixo","uf":"BA","color":"black","longitude":"-41.370271"},{"cidade":"Mucuri","tecnologia":"Sem serviço fixo","latitude":"-18.075392","name":"Mucuri, BA <br> Sem serviço fixo","uf":"BA","color":"black","longitude":"-39.556467"},{"cidade":"Mulungu do Morro","tecnologia":"Sem serviço fixo","latitude":"-11.964776","name":"Mulungu do Morro, BA <br> Sem serviço fixo","uf":"BA","color":"black","longitude":"-41.637352"},{"cidade":"Mundo Novo","tecnologia":"Sem serviço fixo","latitude":"-11.85408","name":"Mundo Novo, BA <br> Sem serviço fixo","uf":"BA","color":"black","longitude":"-40.47139"},{"cidade":"Muniz Ferreira","tecnologia":"Sem serviço fixo","latitude":"-13.009227","name":"Muniz Ferreira, BA <br> Sem serviço fixo","uf":"BA","color":"black","longitude":"-39.109247"},{"cidade":"Muquém de São Francisco","tecnologia":"Sem serviço fixo","latitude":"-12.063376","name":"Muquém de São Francisco, BA <br> Sem serviço fixo","uf":"BA","color":"black","longitude":"-43.543808"},{"cidade":"Muritiba","tecnologia":"Sem serviço fixo","latitude":"-12.632901","name":"Muritiba, BA <br> Sem serviço fixo","uf":"BA","color":"black","longitude":"-38.992052"},{"cidade":"Mutuípe","tecnologia":"Sem serviço fixo","latitude":"-13.228381","name":"Mutuípe, BA <br> Sem serviço fixo","uf":"BA","color":"black","longitude":"-39.504367"},{"cidade":"Nazaré","tecnologia":"Sem serviço fixo","latitude":"-13.023491","name":"Nazaré, BA <br> Sem serviço fixo","uf":"BA","color":"black","longitude":"-39.010835"},{"cidade":"Nilo Peçanha","tecnologia":"Sem serviço fixo","latitude":"-13.603992","name":"Nilo Peçanha, BA <br> Sem serviço fixo","uf":"BA","color":"black","longitude":"-39.109111"},{"cidade":"Nordestina","tecnologia":"Sem serviço fixo","latitude":"-10.819169","name":"Nordestina, BA <br> Sem serviço fixo","uf":"BA","color":"black","longitude":"-39.429705"},{"cidade":"Nova Canaã","tecnologia":"Sem serviço fixo","latitude":"-14.791242","name":"Nova Canaã, BA <br> Sem serviço fixo","uf":"BA","color":"black","longitude":"-40.1458"},{"cidade":"Nova Fátima","tecnologia":"Sem serviço fixo","latitude":"-11.603116","name":"Nova Fátima, BA <br> Sem serviço fixo","uf":"BA","color":"black","longitude":"-39.630215"},{"cidade":"Nova Ibiá","tecnologia":"Sem serviço fixo","latitude":"-13.811995","name":"Nova Ibiá, BA <br> Sem serviço fixo","uf":"BA","color":"black","longitude":"-39.618174"},{"cidade":"Nova Itarana","tecnologia":"Sem serviço fixo","latitude":"-13.024055","name":"Nova Itarana, BA <br> Sem serviço fixo","uf":"BA","color":"black","longitude":"-40.065267"},{"cidade":"Nova Redenção","tecnologia":"Sem serviço fixo","latitude":"-12.815001","name":"Nova Redenção, BA <br> Sem serviço fixo","uf":"BA","color":"black","longitude":"-41.074785"},{"cidade":"Nova Soure","tecnologia":"Sem serviço fixo","latitude":"-11.232948","name":"Nova Soure, BA <br> Sem serviço fixo","uf":"BA","color":"black","longitude":"-38.487103"},{"cidade":"Nova Viçosa","tecnologia":"Sem serviço fixo","latitude":"-17.892648","name":"Nova Viçosa, BA <br> Sem serviço fixo","uf":"BA","color":"black","longitude":"-39.374331"},{"cidade":"Novo Horizonte","tecnologia":"Sem serviço fixo","latitude":"-12.808318","name":"Novo Horizonte, BA <br> Sem serviço fixo","uf":"BA","color":"black","longitude":"-42.168172"},{"cidade":"Novo Triunfo","tecnologia":"Sem serviço fixo","latitude":"-10.318235","name":"Novo Triunfo, BA <br> Sem serviço fixo","uf":"BA","color":"black","longitude":"-38.401374"},{"cidade":"Olindina","tecnologia":"Sem serviço fixo","latitude":"-11.349693","name":"Olindina, BA <br> Sem serviço fixo","uf":"BA","color":"black","longitude":"-38.337863"},{"cidade":"Oliveira Dos Brejinhos","tecnologia":"Sem serviço fixo","latitude":"-12.313183","name":"Oliveira Dos Brejinhos, BA <br> Sem serviço fixo","uf":"BA","color":"black","longitude":"-42.896872"},{"cidade":"Ouriçangas","tecnologia":"Sem serviço fixo","latitude":"-12.017497","name":"Ouriçangas, BA <br> Sem serviço fixo","uf":"BA","color":"black","longitude":"-38.616624"},{"cidade":"Ourolândia","tecnologia":"Sem serviço fixo","latitude":"-10.957848","name":"Ourolândia, BA <br> Sem serviço fixo","uf":"BA","color":"black","longitude":"-41.075576"},{"cidade":"Palmas de Monte Alto","tecnologia":"Sem serviço fixo","latitude":"-14.267562","name":"Palmas de Monte Alto, BA <br> Sem serviço fixo","uf":"BA","color":"black","longitude":"-43.16086"},{"cidade":"Palmeiras","tecnologia":"Sem serviço fixo","latitude":"-12.505865","name":"Palmeiras, BA <br> Sem serviço fixo","uf":"BA","color":"black","longitude":"-41.580886"},{"cidade":"Paramirim","tecnologia":"Sem serviço fixo","latitude":"-13.438849","name":"Paramirim, BA <br> Sem serviço fixo","uf":"BA","color":"black","longitude":"-42.239502"},{"cidade":"Paratinga","tecnologia":"Sem serviço fixo","latitude":"-12.686974","name":"Paratinga, BA <br> Sem serviço fixo","uf":"BA","color":"black","longitude":"-43.179794"},{"cidade":"Paripiranga","tecnologia":"Sem serviço fixo","latitude":"-10.685885","name":"Paripiranga, BA <br> Sem serviço fixo","uf":"BA","color":"black","longitude":"-37.862561"},{"cidade":"Pau Brasil","tecnologia":"Sem serviço fixo","latitude":"-15.457226","name":"Pau Brasil, BA <br> Sem serviço fixo","uf":"BA","color":"black","longitude":"-39.645794"},{"cidade":"Paulo Afonso","tecnologia":"Sem serviço fixo","latitude":"-9.398296","name":"Paulo Afonso, BA <br> Sem serviço fixo","uf":"BA","color":"black","longitude":"-38.22156"},{"cidade":"pé de Serra","tecnologia":"Sem serviço fixo","latitude":"-11.831289","name":"pé de Serra, BA <br> Sem serviço fixo","uf":"BA","color":"black","longitude":"-39.611037"},{"cidade":"Pedrão","tecnologia":"Sem serviço fixo","latitude":"-12.14914","name":"Pedrão, BA <br> Sem serviço fixo","uf":"BA","color":"black","longitude":"-38.648715"},{"cidade":"Pedro Alexandre","tecnologia":"Sem serviço fixo","latitude":"-10.012005","name":"Pedro Alexandre, BA <br> Sem serviço fixo","uf":"BA","color":"black","longitude":"-37.893178"},{"cidade":"Piatã","tecnologia":"Sem serviço fixo","latitude":"-13.146549","name":"Piatã, BA <br> Sem serviço fixo","uf":"BA","color":"black","longitude":"-41.770177"},{"cidade":"Pilão Arcado","tecnologia":"Sem serviço fixo","latitude":"-10.005079","name":"Pilão Arcado, BA <br> Sem serviço fixo","uf":"BA","color":"black","longitude":"-42.493607"},{"cidade":"Pindaí","tecnologia":"Sem serviço fixo","latitude":"-14.492128","name":"Pindaí, BA <br> Sem serviço fixo","uf":"BA","color":"black","longitude":"-42.685984"},{"cidade":"Pindobaçu","tecnologia":"Sem serviço fixo","latitude":"-10.743338","name":"Pindobaçu, BA <br> Sem serviço fixo","uf":"BA","color":"black","longitude":"-40.367472"},{"cidade":"Pintadas","tecnologia":"Sem serviço fixo","latitude":"-11.811712","name":"Pintadas, BA <br> Sem serviço fixo","uf":"BA","color":"black","longitude":"-39.900859"},{"cidade":"Piraí do Norte","tecnologia":"Sem serviço fixo","latitude":"-13.758962","name":"Piraí do Norte, BA <br> Sem serviço fixo","uf":"BA","color":"black","longitude":"-39.383592"},{"cidade":"Piripá","tecnologia":"Sem serviço fixo","latitude":"-14.944379","name":"Piripá, BA <br> Sem serviço fixo","uf":"BA","color":"black","longitude":"-41.716841"},{"cidade":"Piritiba","tecnologia":"Sem serviço fixo","latitude":"-11.730008","name":"Piritiba, BA <br> Sem serviço fixo","uf":"BA","color":"black","longitude":"-40.558739"},{"cidade":"Planaltino","tecnologia":"Sem serviço fixo","latitude":"-13.261789","name":"Planaltino, BA <br> Sem serviço fixo","uf":"BA","color":"black","longitude":"-40.369519"},{"cidade":"Planalto","tecnologia":"Sem serviço fixo","latitude":"-14.66537","name":"Planalto, BA <br> Sem serviço fixo","uf":"BA","color":"black","longitude":"-40.471843"},{"cidade":"Poções","tecnologia":"Sem serviço fixo","latitude":"-14.523391","name":"Poções, BA <br> Sem serviço fixo","uf":"BA","color":"black","longitude":"-40.363354"},{"cidade":"Pojuca","tecnologia":"Sem serviço fixo","latitude":"-12.430336","name":"Pojuca, BA <br> Sem serviço fixo","uf":"BA","color":"black","longitude":"-38.337436"},{"cidade":"Ponto Novo","tecnologia":"Sem serviço fixo","latitude":"-10.8653","name":"Ponto Novo, BA <br> Sem serviço fixo","uf":"BA","color":"black","longitude":"-40.131144"},{"cidade":"Porto Seguro","tecnologia":"Sem serviço fixo","latitude":"-16.443473","name":"Porto Seguro, BA <br> Sem serviço fixo","uf":"BA","color":"black","longitude":"-39.064251"},{"cidade":"Potiraguá","tecnologia":"Sem serviço fixo","latitude":"-15.59429","name":"Potiraguá, BA <br> Sem serviço fixo","uf":"BA","color":"black","longitude":"-39.863846"},{"cidade":"Prado","tecnologia":"Sem serviço fixo","latitude":"-17.336357","name":"Prado, BA <br> Sem serviço fixo","uf":"BA","color":"black","longitude":"-39.222721"},{"cidade":"Presidente Dutra","tecnologia":"Sem serviço fixo","latitude":"-11.292345","name":"Presidente Dutra, BA <br> Sem serviço fixo","uf":"BA","color":"black","longitude":"-41.984341"},{"cidade":"Presidente Jânio Quadros","tecnologia":"Sem serviço fixo","latitude":"-14.688485","name":"Presidente Jânio Quadros, BA <br> Sem serviço fixo","uf":"BA","color":"black","longitude":"-41.679792"},{"cidade":"Presidente Tancredo Neves","tecnologia":"Sem serviço fixo","latitude":"-13.447064","name":"Presidente Tancredo Neves, BA <br> Sem serviço fixo","uf":"BA","color":"black","longitude":"-39.420267"},{"cidade":"Queimadas","tecnologia":"Sem serviço fixo","latitude":"-10.973561","name":"Queimadas, BA <br> Sem serviço fixo","uf":"BA","color":"black","longitude":"-39.629347"},{"cidade":"Quijingue","tecnologia":"Sem serviço fixo","latitude":"-10.750519","name":"Quijingue, BA <br> Sem serviço fixo","uf":"BA","color":"black","longitude":"-39.213694"},{"cidade":"Quixabeira","tecnologia":"Sem serviço fixo","latitude":"-11.403061","name":"Quixabeira, BA <br> Sem serviço fixo","uf":"BA","color":"black","longitude":"-40.120045"},{"cidade":"Rafael Jambeiro","tecnologia":"Sem serviço fixo","latitude":"-12.405257","name":"Rafael Jambeiro, BA <br> Sem serviço fixo","uf":"BA","color":"black","longitude":"-39.500658"},{"cidade":"Remanso","tecnologia":"Sem serviço fixo","latitude":"-9.61944","name":"Remanso, BA <br> Sem serviço fixo","uf":"BA","color":"black","longitude":"-42.084839"},{"cidade":"Retirolândia","tecnologia":"Sem serviço fixo","latitude":"-11.483198","name":"Retirolândia, BA <br> Sem serviço fixo","uf":"BA","color":"black","longitude":"-39.423358"},{"cidade":"Riachão Das Neves","tecnologia":"Sem serviço fixo","latitude":"-11.750755","name":"Riachão Das Neves, BA <br> Sem serviço fixo","uf":"BA","color":"black","longitude":"-44.914259"},{"cidade":"Riachão do Jacuípe","tecnologia":"Sem serviço fixo","latitude":"-11.806681","name":"Riachão do Jacuípe, BA <br> Sem serviço fixo","uf":"BA","color":"black","longitude":"-39.381812"},{"cidade":"Riacho de Santana","tecnologia":"Sem serviço fixo","latitude":"-13.605941","name":"Riacho de Santana, BA <br> Sem serviço fixo","uf":"BA","color":"black","longitude":"-42.939675"},{"cidade":"Ribeira do Amparo","tecnologia":"Sem serviço fixo","latitude":"-11.042071","name":"Ribeira do Amparo, BA <br> Sem serviço fixo","uf":"BA","color":"black","longitude":"-38.424211"},{"cidade":"Ribeira do Pombal","tecnologia":"Sem serviço fixo","latitude":"-10.837299","name":"Ribeira do Pombal, BA <br> Sem serviço fixo","uf":"BA","color":"black","longitude":"-38.538152"},{"cidade":"Ribeirão do Largo","tecnologia":"Sem serviço fixo","latitude":"-15.450775","name":"Ribeirão do Largo, BA <br> Sem serviço fixo","uf":"BA","color":"black","longitude":"-40.744137"},{"cidade":"Rio de Contas","tecnologia":"Sem serviço fixo","latitude":"-13.585218","name":"Rio de Contas, BA <br> Sem serviço fixo","uf":"BA","color":"black","longitude":"-41.804764"},{"cidade":"Rio do Antônio","tecnologia":"Sem serviço fixo","latitude":"-14.407144","name":"Rio do Antônio, BA <br> Sem serviço fixo","uf":"BA","color":"black","longitude":"-42.072103"},{"cidade":"Rio do Pires","tecnologia":"Sem serviço fixo","latitude":"-13.11853","name":"Rio do Pires, BA <br> Sem serviço fixo","uf":"BA","color":"black","longitude":"-42.290166"},{"cidade":"Rio Real","tecnologia":"Sem serviço fixo","latitude":"-11.48137","name":"Rio Real, BA <br> Sem serviço fixo","uf":"BA","color":"black","longitude":"-37.933243"},{"cidade":"Rodelas","tecnologia":"Sem serviço fixo","latitude":"-8.850214","name":"Rodelas, BA <br> Sem serviço fixo","uf":"BA","color":"black","longitude":"-38.77999"},{"cidade":"Ruy Barbosa","tecnologia":"Sem serviço fixo","latitude":"-12.281612","name":"Ruy Barbosa, BA <br> Sem serviço fixo","uf":"BA","color":"black","longitude":"-40.493101"},{"cidade":"Salinas da Margarida","tecnologia":"Sem serviço fixo","latitude":"-12.873014","name":"Salinas da Margarida, BA <br> Sem serviço fixo","uf":"BA","color":"black","longitude":"-38.756164"},{"cidade":"Salvador","tecnologia":"Sem serviço fixo","latitude":"-12.97178","name":"Salvador, BA <br> Sem serviço fixo","uf":"BA","color":"black","longitude":"-38.501068"},{"cidade":"Santa Bárbara","tecnologia":"Sem serviço fixo","latitude":"-11.95149","name":"Santa Bárbara, BA <br> Sem serviço fixo","uf":"BA","color":"black","longitude":"-38.968085"},{"cidade":"Santa Brígida","tecnologia":"Sem serviço fixo","latitude":"-9.732273","name":"Santa Brígida, BA <br> Sem serviço fixo","uf":"BA","color":"black","longitude":"-38.120935"},{"cidade":"Santa Cruz Cabrália","tecnologia":"Sem serviço fixo","latitude":"-16.282529","name":"Santa Cruz Cabrália, BA <br> Sem serviço fixo","uf":"BA","color":"black","longitude":"-39.029495"},{"cidade":"Santa Cruz da Vitória","tecnologia":"Sem serviço fixo","latitude":"-14.963975","name":"Santa Cruz da Vitória, BA <br> Sem serviço fixo","uf":"BA","color":"black","longitude":"-39.811503"},{"cidade":"Santa Inês","tecnologia":"Sem serviço fixo","latitude":"-13.2793","name":"Santa Inês, BA <br> Sem serviço fixo","uf":"BA","color":"black","longitude":"-39.813979"},{"cidade":"Santa Maria da Vitória","tecnologia":"Sem serviço fixo","latitude":"-13.385867","name":"Santa Maria da Vitória, BA <br> Sem serviço fixo","uf":"BA","color":"black","longitude":"-44.201057"},{"cidade":"Santa Rita de Cássia","tecnologia":"Sem serviço fixo","latitude":"-11.006253","name":"Santa Rita de Cássia, BA <br> Sem serviço fixo","uf":"BA","color":"black","longitude":"-44.525496"},{"cidade":"Santa Teresinha","tecnologia":"Sem serviço fixo","latitude":"-12.76913","name":"Santa Teresinha, BA <br> Sem serviço fixo","uf":"BA","color":"black","longitude":"-39.520111"},{"cidade":"Santaluz","tecnologia":"Sem serviço fixo","latitude":"-11.250826","name":"Santaluz, BA <br> Sem serviço fixo","uf":"BA","color":"black","longitude":"-39.375005"},{"cidade":"Santanópolis","tecnologia":"Sem serviço fixo","latitude":"-12.031109","name":"Santanópolis, BA <br> Sem serviço fixo","uf":"BA","color":"black","longitude":"-38.869372"},{"cidade":"Santo Amaro","tecnologia":"Sem serviço fixo","latitude":"-12.547206","name":"Santo Amaro, BA <br> Sem serviço fixo","uf":"BA","color":"black","longitude":"-38.713679"},{"cidade":"Santo Antônio de Jesus","tecnologia":"Sem serviço fixo","latitude":"-12.961387","name":"Santo Antônio de Jesus, BA <br> Sem serviço fixo","uf":"BA","color":"black","longitude":"-39.258403"},{"cidade":"Santo Estêvão","tecnologia":"Sem serviço fixo","latitude":"-12.427981","name":"Santo Estêvão, BA <br> Sem serviço fixo","uf":"BA","color":"black","longitude":"-39.250541"},{"cidade":"São Desidério","tecnologia":"Sem serviço fixo","latitude":"-12.357196","name":"São Desidério, BA <br> Sem serviço fixo","uf":"BA","color":"black","longitude":"-44.976881"},{"cidade":"São Domingos","tecnologia":"Sem serviço fixo","latitude":"-11.464927","name":"São Domingos, BA <br> Sem serviço fixo","uf":"BA","color":"black","longitude":"-39.526792"},{"cidade":"São Felipe","tecnologia":"Sem serviço fixo","latitude":"-12.839439","name":"São Felipe, BA <br> Sem serviço fixo","uf":"BA","color":"black","longitude":"-39.08932"},{"cidade":"São Félix do Coribe","tecnologia":"Sem serviço fixo","latitude":"-13.401883","name":"São Félix do Coribe, BA <br> Sem serviço fixo","uf":"BA","color":"black","longitude":"-44.183708"},{"cidade":"São Félix","tecnologia":"Sem serviço fixo","latitude":"-12.610433","name":"São Félix, BA <br> Sem serviço fixo","uf":"BA","color":"black","longitude":"-38.97271"},{"cidade":"São Francisco do Conde","tecnologia":"Sem serviço fixo","latitude":"-12.618345","name":"São Francisco do Conde, BA <br> Sem serviço fixo","uf":"BA","color":"black","longitude":"-38.678601"},{"cidade":"São Gabriel","tecnologia":"Sem serviço fixo","latitude":"-11.217453","name":"São Gabriel, BA <br> Sem serviço fixo","uf":"BA","color":"black","longitude":"-41.884267"},{"cidade":"São Gonçalo Dos Campos","tecnologia":"Sem serviço fixo","latitude":"-12.433096","name":"São Gonçalo Dos Campos, BA <br> Sem serviço fixo","uf":"BA","color":"black","longitude":"-38.966294"},{"cidade":"São José da Vitória","tecnologia":"Sem serviço fixo","latitude":"-15.078666","name":"São José da Vitória, BA <br> Sem serviço fixo","uf":"BA","color":"black","longitude":"-39.343685"},{"cidade":"São José do Jacuípe","tecnologia":"Sem serviço fixo","latitude":"-11.41368","name":"São José do Jacuípe, BA <br> Sem serviço fixo","uf":"BA","color":"black","longitude":"-39.866934"},{"cidade":"São Miguel Das Matas","tecnologia":"Sem serviço fixo","latitude":"-13.043387","name":"São Miguel Das Matas, BA <br> Sem serviço fixo","uf":"BA","color":"black","longitude":"-39.457844"},{"cidade":"São Sebastião do Passé","tecnologia":"Sem serviço fixo","latitude":"-12.512264","name":"São Sebastião do Passé, BA <br> Sem serviço fixo","uf":"BA","color":"black","longitude":"-38.490513"},{"cidade":"Sapeaçu","tecnologia":"Sem serviço fixo","latitude":"-12.720764","name":"Sapeaçu, BA <br> Sem serviço fixo","uf":"BA","color":"black","longitude":"-39.182426"},{"cidade":"Sátiro Dias","tecnologia":"Sem serviço fixo","latitude":"-11.592928","name":"Sátiro Dias, BA <br> Sem serviço fixo","uf":"BA","color":"black","longitude":"-38.593822"},{"cidade":"Saubara","tecnologia":"Sem serviço fixo","latitude":"-12.738664","name":"Saubara, BA <br> Sem serviço fixo","uf":"BA","color":"black","longitude":"-38.762473"},{"cidade":"Saúde","tecnologia":"Sem serviço fixo","latitude":"-10.94279","name":"Saúde, BA <br> Sem serviço fixo","uf":"BA","color":"black","longitude":"-40.415458"},{"cidade":"Seabra","tecnologia":"Sem serviço fixo","latitude":"-12.416905","name":"Seabra, BA <br> Sem serviço fixo","uf":"BA","color":"black","longitude":"-41.772159"},{"cidade":"Sebastião Laranjeiras","tecnologia":"Sem serviço fixo","latitude":"-14.571002","name":"Sebastião Laranjeiras, BA <br> Sem serviço fixo","uf":"BA","color":"black","longitude":"-42.943438"},{"cidade":"Senhor do Bonfim","tecnologia":"Sem serviço fixo","latitude":"-10.459354","name":"Senhor do Bonfim, BA <br> Sem serviço fixo","uf":"BA","color":"black","longitude":"-40.186532"},{"cidade":"Sento sé","tecnologia":"Sem serviço fixo","latitude":"-9.741378","name":"Sento sé, BA <br> Sem serviço fixo","uf":"BA","color":"black","longitude":"-41.878563"},{"cidade":"Serra do Ramalho","tecnologia":"Sem serviço fixo","latitude":"-13.565889","name":"Serra do Ramalho, BA <br> Sem serviço fixo","uf":"BA","color":"black","longitude":"-43.592907"},{"cidade":"Serra Dourada","tecnologia":"Sem serviço fixo","latitude":"-12.759004","name":"Serra Dourada, BA <br> Sem serviço fixo","uf":"BA","color":"black","longitude":"-43.950434"},{"cidade":"Serra Preta","tecnologia":"Sem serviço fixo","latitude":"-12.156039","name":"Serra Preta, BA <br> Sem serviço fixo","uf":"BA","color":"black","longitude":"-39.33049"},