[{"uf":"MG","tecnologia":"HFC REDE NEUTRA","color":"violet","latitude":"-19.812646","name":"João Monlevade, MG <br> HFC REDE NEUTRA","cidade":"João Monlevade","longitude":"-43.173463"},{"uf":"PR","tecnologia":"HFC REDE NEUTRA","color":"violet","latitude":"-26.483868","name":"Palmas, PR <br> HFC REDE NEUTRA","cidade":"Palmas","longitude":"-51.988812"},{"uf":"PR","tecnologia":"HFC REDE NEUTRA","color":"violet","latitude":"-25.442171","name":"Piraquara, PR <br> HFC REDE NEUTRA","cidade":"Piraquara","longitude":"-49.062411"},{"uf":"MG","tecnologia":"HFC REDE NEUTRA","color":"violet","latitude":"-20.461819","name":"Formiga, MG <br> HFC REDE NEUTRA","cidade":"Formiga","longitude":"-45.426793"},{"uf":"MG","tecnologia":"HFC REDE NEUTRA","color":"violet","latitude":"-20.023728","name":"Lagoa da Prata, MG <br> HFC REDE NEUTRA","cidade":"Lagoa da Prata","longitude":"-45.540149"},{"uf":"MG","tecnologia":"HFC REDE NEUTRA","color":"violet","latitude":"-19.554318","name":"Matozinhos, MG <br> HFC REDE NEUTRA","cidade":"Matozinhos","longitude":"-44.086786"},{"uf":"MG","tecnologia":"HFC REDE NEUTRA","color":"violet","latitude":"-19.630811","name":"Pedro Leopoldo, MG <br> HFC REDE NEUTRA","cidade":"Pedro Leopoldo","longitude":"-44.038258"},{"uf":"PR","tecnologia":"HFC REDE NEUTRA","color":"violet","latitude":"-25.542748","name":"Foz do Iguaçu, PR <br> HFC REDE NEUTRA","cidade":"Foz do Iguaçu","longitude":"-54.582689"},{"uf":"PR","tecnologia":"HFC REDE NEUTRA","color":"violet","latitude":"-25.881672","name":"Guaratuba, PR <br> HFC REDE NEUTRA","cidade":"Guaratuba","longitude":"-48.575223"},{"uf":"PR","tecnologia":"HFC REDE NEUTRA","color":"violet","latitude":"-23.265941","name":"Ibiporã, PR <br> HFC REDE NEUTRA","cidade":"Ibiporã","longitude":"-51.052243"},{"uf":"PR","tecnologia":"HFC REDE NEUTRA","color":"violet","latitude":"-24.557891","name":"Marechal Cândido Rondon, PR <br> HFC REDE NEUTRA","cidade":"Marechal Cândido Rondon","longitude":"-54.056115"},{"uf":"PR","tecnologia":"HFC REDE NEUTRA","color":"violet","latitude":"-25.297665","name":"Medianeira, PR <br> HFC REDE NEUTRA","cidade":"Medianeira","longitude":"-54.094308"},{"uf":"PR","tecnologia":"HFC REDE NEUTRA","color":"violet","latitude":"-23.455534","name":"Paiçandu, PR <br> HFC REDE NEUTRA","cidade":"Paiçandu","longitude":"-52.046013"},{"uf":"PR","tecnologia":"HFC REDE NEUTRA","color":"violet","latitude":"-25.367317","name":"Quatro Barras, PR <br> HFC REDE NEUTRA","cidade":"Quatro Barras","longitude":"-49.076306"},{"uf":"PR","tecnologia":"HFC REDE NEUTRA","color":"violet","latitude":"-24.32452","name":"Telêmaco Borba, PR <br> HFC REDE NEUTRA","cidade":"Telêmaco Borba","longitude":"-50.617585"},{"uf":"PR","tecnologia":"HFC REDE NEUTRA","color":"violet","latitude":"-26.227319","name":"União da Vitória, PR <br> HFC REDE NEUTRA","cidade":"União da Vitória","longitude":"-51.087313"}]
