[{"tecnologia":"GPON","longitude":"-36.661471","name":"Arapiraca, AL <br> GPON","color":"green","uf":"AL","cidade":"Arapiraca","latitude":"-9.754866"},{"tecnologia":"GPON","longitude":"-49.492667","name":"Trindade, GO <br> GPON","color":"green","uf":"GO","cidade":"Trindade","latitude":"-16.651708"},{"tecnologia":"GPON","longitude":"-46.943804","name":"Araxá, MG <br> GPON","color":"green","uf":"MG","cidade":"Araxá","latitude":"-19.590176"},{"tecnologia":"GPON","longitude":"-45.459818","name":"Itajubá, MG <br> GPON","color":"green","uf":"MG","cidade":"Itajubá","latitude":"-22.422481"},{"tecnologia":"GPON","longitude":"-43.304004","name":"Paraíba Do Sul, RJ <br> GPON","color":"green","uf":"RJ","cidade":"Paraíba Do Sul","latitude":"-22.158462"},{"tecnologia":"GPON","longitude":"-61.932152","name":"Ji-Paraná, RO <br> GPON","color":"green","uf":"RO","cidade":"Ji-Paraná","latitude":"-10.877741"},{"tecnologia":"GPON","longitude":"-51.80431","name":"Camaquã, RS <br> GPON","color":"green","uf":"RS","cidade":"Camaquã","latitude":"-30.848897"},{"tecnologia":"GPON","longitude":"-51.089776","name":"Dois Irmãos, RS <br> GPON","color":"green","uf":"RS","cidade":"Dois Irmãos","latitude":"-29.58356"},{"tecnologia":"GPON","longitude":"-52.198625","name":"Marau, RS <br> GPON","color":"green","uf":"RS","cidade":"Marau","latitude":"-28.449754"},{"tecnologia":"GPON","longitude":"-50.941791","name":"Vacaria, RS <br> GPON","color":"green","uf":"RS","cidade":"Vacaria","latitude":"-28.507868"},{"tecnologia":"GPON","longitude":"-49.308654","name":"Içara, SC <br> GPON","color":"green","uf":"SC","cidade":"Içara","latitude":"-28.713206"},{"tecnologia":"GPON","longitude":"-48.98632","name":"Agudos, SP <br> GPON","color":"green","uf":"SP","cidade":"Agudos","latitude":"-22.469433"},{"tecnologia":"GPON","longitude":"-47.085245","name":"Casa Branca, SP <br> GPON","color":"green","uf":"SP","cidade":"Casa Branca","latitude":"-21.77081"},{"tecnologia":"GPON","longitude":"-47.988211","name":"Ibaté, SP <br> GPON","color":"green","uf":"SP","cidade":"Ibaté","latitude":"-21.958358"},{"tecnologia":"GPON","longitude":"-46.985062","name":"Jaguariúna, SP <br> GPON","color":"green","uf":"SP","cidade":"Jaguariúna","latitude":"-22.70374"},{"tecnologia":"GPON","longitude":"-47.425572","name":"Piedade, SP <br> GPON","color":"green","uf":"SP","cidade":"Piedade","latitude":"-23.713941"},{"tecnologia":"GPON","longitude":"-47.248023","name":"Santa Cruz das Palmeiras, SP <br> GPON","color":"green","uf":"SP","cidade":"Santa Cruz das Palmeiras","latitude":"-21.823475"},{"tecnologia":"GPON","longitude":"-47.270344","name":"Tambaú, SP <br> GPON","color":"green","uf":"SP","cidade":"Tambaú","latitude":"-21.70292"},{"tecnologia":"GPON","longitude":"-48.204402","name":"Araguaína, TO <br> GPON","color":"green","uf":"TO","cidade":"Araguaína","latitude":"-7.192375"},{"tecnologia":"GPON","longitude":"-49.068046","name":"Gurupi, TO <br> GPON","color":"green","uf":"TO","cidade":"Gurupi","latitude":"-11.72794"},{"tecnologia":"GPON","longitude":"-38.326265","name":"Camaçari, BA <br> GPON","color":"green","uf":"BA","cidade":"Camaçari","latitude":"-12.699638"},{"tecnologia":"GPON","longitude":"-38.300898","name":"Mata de São João, BA <br> GPON","color":"green","uf":"BA","cidade":"Mata de São João","latitude":"-12.530685"},{"tecnologia":"GPON","longitude":"-46.319983","name":"Arujá, SP <br> GPON","color":"green","uf":"SP","cidade":"Arujá","latitude":"-23.396476"},{"tecnologia":"GPON","longitude":"-46.73974","name":"Caieiras, SP <br> GPON","color":"green","uf":"SP","cidade":"Caieiras","latitude":"-23.360729"},{"tecnologia":"GPON","longitude":"-47.059262","name":"Itupeva, SP <br> GPON","color":"green","uf":"SP","cidade":"Itupeva","latitude":"-23.152635"},{"tecnologia":"GPON","longitude":"-47.184995","name":"Mairinque, SP <br> GPON","color":"green","uf":"SP","cidade":"Mairinque","latitude":"-23.539822"},{"tecnologia":"GPON","longitude":"-47.0012","name":"Peruíbe, SP <br> GPON","color":"green","uf":"SP","cidade":"Peruíbe","latitude":"-24.311974"},{"tecnologia":"GPON","longitude":"-46.405805","name":"Ribeirão Pires, SP <br> GPON","color":"green","uf":"SP","cidade":"Ribeirão Pires","latitude":"-23.706669"},{"tecnologia":"GPON","longitude":"-47.13567","name":"São Roque, SP <br> GPON","color":"green","uf":"SP","cidade":"São Roque","latitude":"-23.522598"}]
