[{"latitude":"-22.82679","uf":"RJ","color":"red","longitude":"-43.063351","cidade":"São Gonçalo","name":"São Gonçalo, RJ <br> HFC","tecnologia":"HFC"},{"latitude":"-28.672267","uf":"SC","color":"red","longitude":"-49.372887","cidade":"Criciúma","name":"Criciúma, SC <br> HFC","tecnologia":"HFC"},{"latitude":"-23.52082","uf":"SP","color":"red","longitude":"-46.18541","cidade":"Mogi das Cruzes","name":"Mogi das Cruzes, SP <br> HFC","tecnologia":"HFC"},{"latitude":"-23.393311","uf":"SP","color":"red","longitude":"-45.887521","cidade":"Santa Branca","name":"Santa Branca, SP <br> HFC","tecnologia":"HFC"},{"latitude":"-10.239973","uf":"TO","color":"red","longitude":"-48.355751","cidade":"Palmas","name":"Palmas, TO <br> HFC","tecnologia":"HFC"},{"latitude":"-9.97499","uf":"AC","color":"red","longitude":"-67.824348","cidade":"Rio Branco","name":"Rio Branco, AC <br> HFC","tecnologia":"HFC"},{"latitude":"-9.665985","uf":"AL","color":"red","longitude":"-35.73496","cidade":"Maceió","name":"Maceió, AL <br> HFC","tecnologia":"HFC"},{"latitude":"-3.118662","uf":"AM","color":"red","longitude":"-60.02123","cidade":"Manaus","name":"Manaus, AM <br> HFC","tecnologia":"HFC"},{"latitude":"-12.8978","uf":"BA","color":"red","longitude":"-38.321008","cidade":"Lauro de Freitas","name":"Lauro de Freitas, BA <br> HFC","tecnologia":"HFC"},{"latitude":"-12.97178","uf":"BA","color":"red","longitude":"-38.501068","cidade":"Salvador","name":"Salvador, BA <br> HFC","tecnologia":"HFC"},{"latitude":"-14.861466","uf":"BA","color":"red","longitude":"-40.844159","cidade":"Vitória da Conquista","name":"Vitória da Conquista, BA <br> HFC","tecnologia":"HFC"},{"latitude":"-3.716638","uf":"CE","color":"red","longitude":"-38.542298","cidade":"Fortaleza","name":"Fortaleza, CE <br> HFC","tecnologia":"HFC"},{"latitude":"-15.779522","uf":"DF","color":"red","longitude":"-47.929657","cidade":"Brasília","name":"Brasília, DF <br> HFC","tecnologia":"HFC"},{"latitude":"-20.846212","uf":"ES","color":"red","longitude":"-41.119829","cidade":"Cachoeiro de Itapemirim","name":"Cachoeiro de Itapemirim, ES <br> HFC","tecnologia":"HFC"},{"latitude":"-20.263202","uf":"ES","color":"red","longitude":"-40.416549","cidade":"Cariacica","name":"Cariacica, ES <br> HFC","tecnologia":"HFC"},{"latitude":"-20.121032","uf":"ES","color":"red","longitude":"-40.307408","cidade":"Serra","name":"Serra, ES <br> HFC","tecnologia":"HFC"},{"latitude":"-20.341705","uf":"ES","color":"red","longitude":"-40.287458","cidade":"Vila Velha","name":"Vila Velha, ES <br> HFC","tecnologia":"HFC"},{"latitude":"-20.315472","uf":"ES","color":"red","longitude":"-40.312806","cidade":"Vitória","name":"Vitória, ES <br> HFC","tecnologia":"HFC"},{"latitude":"-16.328095","uf":"GO","color":"red","longitude":"-48.952958","cidade":"Anápolis","name":"Anápolis, GO <br> HFC","tecnologia":"HFC"},{"latitude":"-16.819804","uf":"GO","color":"red","longitude":"-49.246856","cidade":"Aparecida de Goiânia","name":"Aparecida de Goiânia, GO <br> HFC","tecnologia":"HFC"},{"latitude":"-16.686439","uf":"GO","color":"red","longitude":"-49.264346","cidade":"Goiânia","name":"Goiânia, GO <br> HFC","tecnologia":"HFC"},{"latitude":"-2.538742","uf":"MA","color":"red","longitude":"-44.282513","cidade":"São Luís","name":"São Luís, MA <br> HFC","tecnologia":"HFC"},{"latitude":"-19.910183","uf":"MG","color":"red","longitude":"-43.926572","cidade":"Belo Horizonte","name":"Belo Horizonte, MG <br> HFC","tecnologia":"HFC"},{"latitude":"-19.966827","uf":"MG","color":"red","longitude":"-44.200775","cidade":"Betim","name":"Betim, MG <br> HFC","tecnologia":"HFC"},{"latitude":"-19.932079","uf":"MG","color":"red","longitude":"-44.05392","cidade":"Contagem","name":"Contagem, MG <br> HFC","tecnologia":"HFC"},{"latitude":"-18.854452","uf":"MG","color":"red","longitude":"-41.95553","cidade":"Governador Valadares","name":"Governador Valadares, MG <br> HFC","tecnologia":"HFC"},{"latitude":"-19.470275","uf":"MG","color":"red","longitude":"-42.547612","cidade":"Ipatinga","name":"Ipatinga, MG <br> HFC","tecnologia":"HFC"},{"latitude":"-21.75952","uf":"MG","color":"red","longitude":"-43.339759","cidade":"Juiz de Fora","name":"Juiz de Fora, MG <br> HFC","tecnologia":"HFC"},{"latitude":"-19.975763","uf":"MG","color":"red","longitude":"-43.850854","cidade":"Nova Lima","name":"Nova Lima, MG <br> HFC","tecnologia":"HFC"},{"latitude":"-19.884045","uf":"MG","color":"red","longitude":"-43.82631","cidade":"Sabará","name":"Sabará, MG <br> HFC","tecnologia":"HFC"},{"latitude":"-19.456902","uf":"MG","color":"red","longitude":"-44.241255","cidade":"Sete Lagoas","name":"Sete Lagoas, MG <br> HFC","tecnologia":"HFC"},{"latitude":"-17.859534","uf":"MG","color":"red","longitude":"-41.508717","cidade":"Teófilo Otoni","name":"Teófilo Otoni, MG <br> HFC","tecnologia":"HFC"},{"latitude":"-19.747205","uf":"MG","color":"red","longitude":"-47.938073","cidade":"Uberaba","name":"Uberaba, MG <br> HFC","tecnologia":"HFC"},{"latitude":"-18.914142","uf":"MG","color":"red","longitude":"-48.274934","cidade":"Uberlândia","name":"Uberlândia, MG <br> HFC","tecnologia":"HFC"},{"latitude":"-21.555581","uf":"MG","color":"red","longitude":"-45.436424","cidade":"Varginha","name":"Varginha, MG <br> HFC","tecnologia":"HFC"},{"latitude":"-20.448589","uf":"MS","color":"red","longitude":"-54.629463","cidade":"Campo Grande","name":"Campo Grande, MS <br> HFC","tecnologia":"HFC"},{"latitude":"-22.223099","uf":"MS","color":"red","longitude":"-54.812043","cidade":"Dourados","name":"Dourados, MS <br> HFC","tecnologia":"HFC"},{"latitude":"-15.600979","uf":"MT","color":"red","longitude":"-56.097397","cidade":"Cuiabá","name":"Cuiabá, MT <br> HFC","tecnologia":"HFC"},{"latitude":"-16.467251","uf":"MT","color":"red","longitude":"-54.637173","cidade":"Rondonópolis","name":"Rondonópolis, MT <br> HFC","tecnologia":"HFC"},{"latitude":"-15.645816","uf":"MT","color":"red","longitude":"-56.132218","cidade":"Várzea Grande","name":"Várzea Grande, MT <br> HFC","tecnologia":"HFC"},{"latitude":"-1.363914","uf":"PA","color":"red","longitude":"-48.374298","cidade":"Ananindeua","name":"Ananindeua, PA <br> HFC","tecnologia":"HFC"},{"latitude":"-1.455396","uf":"PA","color":"red","longitude":"-48.489756","cidade":"Belém","name":"Belém, PA <br> HFC","tecnologia":"HFC"},{"latitude":"-6.987314","uf":"PB","color":"red","longitude":"-34.828409","cidade":"Cabedelo","name":"Cabedelo, PB <br> HFC","tecnologia":"HFC"},{"latitude":"-7.221958","uf":"PB","color":"red","longitude":"-35.873144","cidade":"Campina Grande","name":"Campina Grande, PB <br> HFC","tecnologia":"HFC"},{"latitude":"-7.11509","uf":"PB","color":"red","longitude":"-34.864121","cidade":"João Pessoa","name":"João Pessoa, PB <br> HFC","tecnologia":"HFC"},{"latitude":"-8.284547","uf":"PE","color":"red","longitude":"-35.969863","cidade":"Caruaru","name":"Caruaru, PE <br> HFC","tecnologia":"HFC"},{"latitude":"-8.112982","uf":"PE","color":"red","longitude":"-35.014959","cidade":"Jaboatão Dos Guararapes","name":"Jaboatão Dos Guararapes, PE <br> HFC","tecnologia":"HFC"},{"latitude":"-8.010166","uf":"PE","color":"red","longitude":"-34.854504","cidade":"Olinda","name":"Olinda, PE <br> HFC","tecnologia":"HFC"},{"latitude":"-7.934007","uf":"PE","color":"red","longitude":"-34.868407","cidade":"Paulista","name":"Paulista, PE <br> HFC","tecnologia":"HFC"},{"latitude":"-8.046658","uf":"PE","color":"red","longitude":"-34.877065","cidade":"Recife","name":"Recife, PE <br> HFC","tecnologia":"HFC"},{"latitude":"-5.091944","uf":"PI","color":"red","longitude":"-42.803364","cidade":"Teresina","name":"Teresina, PI <br> HFC","tecnologia":"HFC"},{"latitude":"-25.318819","uf":"PR","color":"red","longitude":"-49.303733","cidade":"Almirante Tamandaré","name":"Almirante Tamandaré, PR <br> HFC","tecnologia":"HFC"},{"latitude":"-23.415296","uf":"PR","color":"red","longitude":"-51.42592","cidade":"Arapongas","name":"Arapongas, PR <br> HFC","tecnologia":"HFC"},{"latitude":"-25.585939","uf":"PR","color":"red","longitude":"-49.404748","cidade":"Araucária","name":"Araucária, PR <br> HFC","tecnologia":"HFC"},{"latitude":"-25.452535","uf":"PR","color":"red","longitude":"-49.529026","cidade":"Campo Largo","name":"Campo Largo, PR <br> HFC","tecnologia":"HFC"},{"latitude":"-24.957301","uf":"PR","color":"red","longitude":"-53.459005","cidade":"Cascavel","name":"Cascavel, PR <br> HFC","tecnologia":"HFC"},{"latitude":"-23.659859","uf":"PR","color":"red","longitude":"-52.605444","cidade":"Cianorte","name":"Cianorte, PR <br> HFC","tecnologia":"HFC"},{"latitude":"-25.292487","uf":"PR","color":"red","longitude":"-49.22616","cidade":"Colombo","name":"Colombo, PR <br> HFC","tecnologia":"HFC"},{"latitude":"-25.419547","uf":"PR","color":"red","longitude":"-49.264622","cidade":"Curitiba","name":"Curitiba, PR <br> HFC","tecnologia":"HFC"},{"latitude":"-25.390237","uf":"PR","color":"red","longitude":"-51.462317","cidade":"Guarapuava","name":"Guarapuava, PR <br> HFC","tecnologia":"HFC"},{"latitude":"-23.303975","uf":"PR","color":"red","longitude":"-51.1691","cidade":"Londrina","name":"Londrina, PR <br> HFC","tecnologia":"HFC"},{"latitude":"-23.420545","uf":"PR","color":"red","longitude":"-51.933298","cidade":"Maringá","name":"Maringá, PR <br> HFC","tecnologia":"HFC"},{"latitude":"-25.442949","uf":"PR","color":"red","longitude":"-49.19267","cidade":"Pinhais","name":"Pinhais, PR <br> HFC","tecnologia":"HFC"},{"latitude":"-25.091622","uf":"PR","color":"red","longitude":"-50.166787","cidade":"Ponta Grossa","name":"Ponta Grossa, PR <br> HFC","tecnologia":"HFC"},{"latitude":"-25.531343","uf":"PR","color":"red","longitude":"-49.203097","cidade":"São José Dos Pinhais","name":"São José Dos Pinhais, PR <br> HFC","tecnologia":"HFC"},{"latitude":"-22.548084","uf":"RJ","color":"red","longitude":"-44.175241","cidade":"Barra Mansa","name":"Barra Mansa, RJ <br> HFC","tecnologia":"HFC"},{"latitude":"-22.764042","uf":"RJ","color":"red","longitude":"-43.39921","cidade":"Belford Roxo","name":"Belford Roxo, RJ <br> HFC","tecnologia":"HFC"},{"latitude":"-21.762171","uf":"RJ","color":"red","longitude":"-41.318055","cidade":"Campos Dos Goytacazes","name":"Campos Dos Goytacazes, RJ <br> HFC","tecnologia":"HFC"},{"latitude":"-22.785801","uf":"RJ","color":"red","longitude":"-43.304895","cidade":"Duque de Caxias","name":"Duque de Caxias, RJ <br> HFC","tecnologia":"HFC"},{"latitude":"-22.376807","uf":"RJ","color":"red","longitude":"-41.784828","cidade":"Macaé","name":"Macaé, RJ <br> HFC","tecnologia":"HFC"},{"latitude":"-22.802811","uf":"RJ","color":"red","longitude":"-43.460066","cidade":"Mesquita","name":"Mesquita, RJ <br> HFC","tecnologia":"HFC"},{"latitude":"-22.805658","uf":"RJ","color":"red","longitude":"-43.423344","cidade":"Nilópolis","name":"Nilópolis, RJ <br> HFC","tecnologia":"HFC"},{"latitude":"-22.88321","uf":"RJ","color":"red","longitude":"-43.103367","cidade":"Niterói","name":"Niterói, RJ <br> HFC","tecnologia":"HFC"},{"latitude":"-22.755635","uf":"RJ","color":"red","longitude":"-43.460325","cidade":"Nova Iguaçu","name":"Nova Iguaçu, RJ <br> HFC","tecnologia":"HFC"},{"latitude":"-22.519963","uf":"RJ","color":"red","longitude":"-43.192613","cidade":"Petrópolis","name":"Petrópolis, RJ <br> HFC","tecnologia":"HFC"},{"latitude":"-22.470473","uf":"RJ","color":"red","longitude":"-44.45091","cidade":"Resende","name":"Resende, RJ <br> HFC","tecnologia":"HFC"},{"latitude":"-22.517378","uf":"RJ","color":"red","longitude":"-41.947509","cidade":"Rio Das Ostras","name":"Rio Das Ostras, RJ <br> HFC","tecnologia":"HFC"},{"latitude":"-22.912897","uf":"RJ","color":"red","longitude":"-43.200295","cidade":"Rio de Janeiro","name":"Rio de Janeiro, RJ <br> HFC","tecnologia":"HFC"},{"latitude":"-22.805776","uf":"RJ","color":"red","longitude":"-43.37292","cidade":"São João de Meriti","name":"São João de Meriti, RJ <br> HFC","tecnologia":"HFC"},{"latitude":"-22.416464","uf":"RJ","color":"red","longitude":"-42.97519","cidade":"Teresópolis","name":"Teresópolis, RJ <br> HFC","tecnologia":"HFC"},{"latitude":"-22.520212","uf":"RJ","color":"red","longitude":"-44.099555","cidade":"Volta Redonda","name":"Volta Redonda, RJ <br> HFC","tecnologia":"HFC"},{"latitude":"-5.793567","uf":"RN","color":"red","longitude":"-35.198604","cidade":"Natal","name":"Natal, RN <br> HFC","tecnologia":"HFC"},{"latitude":"-5.911156","uf":"RN","color":"red","longitude":"-35.271","cidade":"Parnamirim","name":"Parnamirim, RN <br> HFC","tecnologia":"HFC"},{"latitude":"-8.760772","uf":"RO","color":"red","longitude":"-63.899902","cidade":"Porto Velho","name":"Porto Velho, RO <br> HFC","tecnologia":"HFC"},{"latitude":"-29.9914","uf":"RS","color":"red","longitude":"-51.080857","cidade":"Alvorada","name":"Alvorada, RS <br> HFC","tecnologia":"HFC"},{"latitude":"-31.32965","uf":"RS","color":"red","longitude":"-54.09992","cidade":"Bagé","name":"Bagé, RS <br> HFC","tecnologia":"HFC"},{"latitude":"-29.166212","uf":"RS","color":"red","longitude":"-51.516476","cidade":"Bento Gonçalves","name":"Bento Gonçalves, RS <br> HFC","tecnologia":"HFC"},{"latitude":"-29.947222","uf":"RS","color":"red","longitude":"-51.101606","cidade":"Cachoeirinha","name":"Cachoeirinha, RS <br> HFC","tecnologia":"HFC"},{"latitude":"-29.674694","uf":"RS","color":"red","longitude":"-51.060601","cidade":"Campo Bom","name":"Campo Bom, RS <br> HFC","tecnologia":"HFC"},{"latitude":"-29.912758","uf":"RS","color":"red","longitude":"-51.185681","cidade":"Canoas","name":"Canoas, RS <br> HFC","tecnologia":"HFC"},{"latitude":"-29.764242","uf":"RS","color":"red","longitude":"-50.028243","cidade":"Capão da Canoa","name":"Capão da Canoa, RS <br> HFC","tecnologia":"HFC"},{"latitude":"-29.162905","uf":"RS","color":"red","longitude":"-51.179161","cidade":"Caxias do Sul","name":"Caxias do Sul, RS <br> HFC","tecnologia":"HFC"},{"latitude":"-28.645001","uf":"RS","color":"red","longitude":"-53.604831","cidade":"Cruz Alta","name":"Cruz Alta, RS <br> HFC","tecnologia":"HFC"},{"latitude":"-27.63638","uf":"RS","color":"red","longitude":"-52.26969","cidade":"Erechim","name":"Erechim, RS <br> HFC","tecnologia":"HFC"},{"latitude":"-29.65354","uf":"RS","color":"red","longitude":"-51.184339","cidade":"Estância Velha","name":"Estância Velha, RS <br> HFC","tecnologia":"HFC"},{"latitude":"-29.851963","uf":"RS","color":"red","longitude":"-51.184065","cidade":"Esteio","name":"Esteio, RS <br> HFC","tecnologia":"HFC"},{"latitude":"-29.222689","uf":"RS","color":"red","longitude":"-51.341853","cidade":"Farroupilha","name":"Farroupilha, RS <br> HFC","tecnologia":"HFC"},{"latitude":"-29.941319","uf":"RS","color":"red","longitude":"-50.986891","cidade":"Gravataí","name":"Gravataí, RS <br> HFC","tecnologia":"HFC"},{"latitude":"-29.459086","uf":"RS","color":"red","longitude":"-51.964427","cidade":"Lajeado","name":"Lajeado, RS <br> HFC","tecnologia":"HFC"},{"latitude":"-29.687548","uf":"RS","color":"red","longitude":"-51.132828","cidade":"Novo Hamburgo","name":"Novo Hamburgo, RS <br> HFC","tecnologia":"HFC"},{"latitude":"-28.257564","uf":"RS","color":"red","longitude":"-52.409112","cidade":"Passo Fundo","name":"Passo Fundo, RS <br> HFC","tecnologia":"HFC"},{"latitude":"-31.764898","uf":"RS","color":"red","longitude":"-52.337058","cidade":"Pelotas","name":"Pelotas, RS <br> HFC","tecnologia":"HFC"},{"latitude":"-30.031771","uf":"RS","color":"red","longitude":"-51.206533","cidade":"Porto Alegre","name":"Porto Alegre, RS <br> HFC","tecnologia":"HFC"},{"latitude":"-32.034875","uf":"RS","color":"red","longitude":"-52.10705","cidade":"Rio Grande","name":"Rio Grande, RS <br> HFC","tecnologia":"HFC"},{"latitude":"-29.722021","uf":"RS","color":"red","longitude":"-52.434318","cidade":"Santa Cruz do Sul","name":"Santa Cruz do Sul, RS <br> HFC","tecnologia":"HFC"},{"latitude":"-29.686817","uf":"RS","color":"red","longitude":"-53.814946","cidade":"Santa Maria","name":"Santa Maria, RS <br> HFC","tecnologia":"HFC"},{"latitude":"-29.754494","uf":"RS","color":"red","longitude":"-51.149773","cidade":"São Leopoldo","name":"São Leopoldo, RS <br> HFC","tecnologia":"HFC"},{"latitude":"-29.634885","uf":"RS","color":"red","longitude":"-51.006446","cidade":"Sapiranga","name":"Sapiranga, RS <br> HFC","tecnologia":"HFC"},{"latitude":"-29.827575","uf":"RS","color":"red","longitude":"-51.144975","cidade":"Sapucaia do Sul","name":"Sapucaia do Sul, RS <br> HFC","tecnologia":"HFC"},{"latitude":"-29.761436","uf":"RS","color":"red","longitude":"-57.085287","cidade":"Uruguaiana","name":"Uruguaiana, RS <br> HFC","tecnologia":"HFC"},{"latitude":"-30.081899","uf":"RS","color":"red","longitude":"-51.019435","cidade":"Viamão","name":"Viamão, RS <br> HFC","tecnologia":"HFC"},{"latitude":"-26.992594","uf":"SC","color":"red","longitude":"-48.635152","cidade":"Balneário Camboriú","name":"Balneário Camboriú, SC <br> HFC","tecnologia":"HFC"},{"latitude":"-26.915501","uf":"SC","color":"red","longitude":"-49.070904","cidade":"Blumenau","name":"Blumenau, SC <br> HFC","tecnologia":"HFC"},{"latitude":"-27.097706","uf":"SC","color":"red","longitude":"-48.910663","cidade":"Brusque","name":"Brusque, SC <br> HFC","tecnologia":"HFC"},{"latitude":"-27.100448","uf":"SC","color":"red","longitude":"-52.61519","cidade":"Chapecó","name":"Chapecó, SC <br> HFC","tecnologia":"HFC"},{"latitude":"-27.594486","uf":"SC","color":"red","longitude":"-48.547696","cidade":"Florianópolis","name":"Florianópolis, SC <br> HFC","tecnologia":"HFC"},{"latitude":"-26.910097","uf":"SC","color":"red","longitude":"-48.670475","cidade":"Itajaí","name":"Itajaí, SC <br> HFC","tecnologia":"HFC"},{"latitude":"-27.08607","uf":"SC","color":"red","longitude":"-48.616038","cidade":"Itapema","name":"Itapema, SC <br> HFC","tecnologia":"HFC"},{"latitude":"-26.304497","uf":"SC","color":"red","longitude":"-48.848675","cidade":"Joinville","name":"Joinville, SC <br> HFC","tecnologia":"HFC"},{"latitude":"-26.894293","uf":"SC","color":"red","longitude":"-48.654593","cidade":"Navegantes","name":"Navegantes, SC <br> HFC","tecnologia":"HFC"},{"latitude":"-27.645518","uf":"SC","color":"red","longitude":"-48.669661","cidade":"Palhoça","name":"Palhoça, SC <br> HFC","tecnologia":"HFC"},{"latitude":"-27.613577","uf":"SC","color":"red","longitude":"-48.636607","cidade":"São José","name":"São José, SC <br> HFC","tecnologia":"HFC"},{"latitude":"-10.909133","uf":"SE","color":"red","longitude":"-37.06766","cidade":"Aracaju","name":"Aracaju, SE <br> HFC","tecnologia":"HFC"},{"latitude":"-22.73736","uf":"SP","color":"red","longitude":"-47.333119","cidade":"Americana","name":"Americana, SP <br> HFC","tecnologia":"HFC"},{"latitude":"-22.849509","uf":"SP","color":"red","longitude":"-45.232496","cidade":"Aparecida","name":"Aparecida, SP <br> HFC","tecnologia":"HFC"},{"latitude":"-21.207648","uf":"SP","color":"red","longitude":"-50.440106","cidade":"Araçatuba","name":"Araçatuba, SP <br> HFC","tecnologia":"HFC"},{"latitude":"-21.784511","uf":"SP","color":"red","longitude":"-48.178014","cidade":"Araraquara","name":"Araraquara, SP <br> HFC","tecnologia":"HFC"},{"latitude":"-22.357238","uf":"SP","color":"red","longitude":"-47.384235","cidade":"Araras","name":"Araras, SP <br> HFC","tecnologia":"HFC"},{"latitude":"-22.572737","uf":"SP","color":"red","longitude":"-47.172679","cidade":"Artur Nogueira","name":"Artur Nogueira, SP <br> HFC","tecnologia":"HFC"},{"latitude":"-23.117059","uf":"SP","color":"red","longitude":"-46.556262","cidade":"Atibaia","name":"Atibaia, SP <br> HFC","tecnologia":"HFC"},{"latitude":"-23.505689","uf":"SP","color":"red","longitude":"-46.879042","cidade":"Barueri","name":"Barueri, SP <br> HFC","tecnologia":"HFC"},{"latitude":"-22.324569","uf":"SP","color":"red","longitude":"-49.087142","cidade":"Bauru","name":"Bauru, SP <br> HFC","tecnologia":"HFC"},{"latitude":"-23.848568","uf":"SP","color":"red","longitude":"-46.139586","cidade":"Bertioga","name":"Bertioga, SP <br> HFC","tecnologia":"HFC"},{"latitude":"-22.883697","uf":"SP","color":"red","longitude":"-48.443706","cidade":"Botucatu","name":"Botucatu, SP <br> HFC","tecnologia":"HFC"},{"latitude":"-22.952681","uf":"SP","color":"red","longitude":"-46.54188","cidade":"Bragança Paulista","name":"Bragança Paulista, SP <br> HFC","tecnologia":"HFC"},{"latitude":"-23.099204","uf":"SP","color":"red","longitude":"-45.707645","cidade":"Caçapava","name":"Caçapava, SP <br> HFC","tecnologia":"HFC"},{"latitude":"-22.666498","uf":"SP","color":"red","longitude":"-45.015384","cidade":"Cachoeira Paulista","name":"Cachoeira Paulista, SP <br> HFC","tecnologia":"HFC"},{"latitude":"-22.905346","uf":"SP","color":"red","longitude":"-47.06595","cidade":"Campinas","name":"Campinas, SP <br> HFC","tecnologia":"HFC"},{"latitude":"-22.995144","uf":"SP","color":"red","longitude":"-47.50715","cidade":"Capivari","name":"Capivari, SP <br> HFC","tecnologia":"HFC"},{"latitude":"-23.523471","uf":"SP","color":"red","longitude":"-46.840676","cidade":"Carapicuíba","name":"Carapicuíba, SP <br> HFC","tecnologia":"HFC"},{"latitude":"-22.641906","uf":"SP","color":"red","longitude":"-47.192578","cidade":"Cosmópolis","name":"Cosmópolis, SP <br> HFC","tecnologia":"HFC"},{"latitude":"-23.602177","uf":"SP","color":"red","longitude":"-46.91902","cidade":"Cotia","name":"Cotia, SP <br> HFC","tecnologia":"HFC"},{"latitude":"-22.572764","uf":"SP","color":"red","longitude":"-44.96896","cidade":"Cruzeiro","name":"Cruzeiro, SP <br> HFC","tecnologia":"HFC"},{"latitude":"-23.891121","uf":"SP","color":"red","longitude":"-46.423968","cidade":"Cubatão","name":"Cubatão, SP <br> HFC","tecnologia":"HFC"},{"latitude":"-23.681347","uf":"SP","color":"red","longitude":"-46.62052","cidade":"Diadema","name":"Diadema, SP <br> HFC","tecnologia":"HFC"},{"latitude":"-23.042822","uf":"SP","color":"red","longitude":"-47.368153","cidade":"Elias Fausto","name":"Elias Fausto, SP <br> HFC","tecnologia":"HFC"},{"latitude":"-20.53523","uf":"SP","color":"red","longitude":"-47.403861","cidade":"Franca","name":"Franca, SP <br> HFC","tecnologia":"HFC"},{"latitude":"-22.807534","uf":"SP","color":"red","longitude":"-45.193788","cidade":"Guaratinguetá","name":"Guaratinguetá, SP <br> HFC","tecnologia":"HFC"},{"latitude":"-23.988798","uf":"SP","color":"red","longitude":"-46.257959","cidade":"Guarujá","name":"Guarujá, SP <br> HFC","tecnologia":"HFC"},{"latitude":"-23.453758","uf":"SP","color":"red","longitude":"-46.533347","cidade":"Guarulhos","name":"Guarulhos, SP <br> HFC","tecnologia":"HFC"},{"latitude":"-22.852854","uf":"SP","color":"red","longitude":"-47.214259","cidade":"Hortolândia","name":"Hortolândia, SP <br> HFC","tecnologia":"HFC"},{"latitude":"-23.081591","uf":"SP","color":"red","longitude":"-47.210093","cidade":"Indaiatuba","name":"Indaiatuba, SP <br> HFC","tecnologia":"HFC"},{"latitude":"-23.716135","uf":"SP","color":"red","longitude":"-46.857193","cidade":"Itapecerica da Serra","name":"Itapecerica da Serra, SP <br> HFC","tecnologia":"HFC"},{"latitude":"-23.588607","uf":"SP","color":"red","longitude":"-48.048326","cidade":"Itapetininga","name":"Itapetininga, SP <br> HFC","tecnologia":"HFC"},{"latitude":"-23.548774","uf":"SP","color":"red","longitude":"-46.932747","cidade":"Itapevi","name":"Itapevi, SP <br> HFC","tecnologia":"HFC"},{"latitude":"-23.254397","uf":"SP","color":"red","longitude":"-47.292688","cidade":"Itu","name":"Itu, SP <br> HFC","tecnologia":"HFC"},{"latitude":"-23.29829","uf":"SP","color":"red","longitude":"-45.965814","cidade":"Jacareí","name":"Jacareí, SP <br> HFC","tecnologia":"HFC"},{"latitude":"-23.527537","uf":"SP","color":"red","longitude":"-46.902314","cidade":"Jandira","name":"Jandira, SP <br> HFC","tecnologia":"HFC"},{"latitude":"-22.293585","uf":"SP","color":"red","longitude":"-48.559193","cidade":"Jaú","name":"Jaú, SP <br> HFC","tecnologia":"HFC"},{"latitude":"-23.185218","uf":"SP","color":"red","longitude":"-46.897358","cidade":"Jundiaí","name":"Jundiaí, SP <br> HFC","tecnologia":"HFC"},{"latitude":"-22.56605","uf":"SP","color":"red","longitude":"-47.396987","cidade":"Limeira","name":"Limeira, SP <br> HFC","tecnologia":"HFC"},{"latitude":"-22.73338","uf":"SP","color":"red","longitude":"-45.11968","cidade":"Lorena","name":"Lorena, SP <br> HFC","tecnologia":"HFC"},{"latitude":"-22.217108","uf":"SP","color":"red","longitude":"-49.95006","cidade":"Marília","name":"Marília, SP <br> HFC","tecnologia":"HFC"},{"latitude":"-23.66767","uf":"SP","color":"red","longitude":"-46.461263","cidade":"Mauá","name":"Mauá, SP <br> HFC","tecnologia":"HFC"},{"latitude":"-22.367453","uf":"SP","color":"red","longitude":"-46.9428","cidade":"Mogi Guaçu","name":"Mogi Guaçu, SP <br> HFC","tecnologia":"HFC"},{"latitude":"-22.945043","uf":"SP","color":"red","longitude":"-47.312182","cidade":"Monte Mor","name":"Monte Mor, SP <br> HFC","tecnologia":"HFC"},{"latitude":"-22.783186","uf":"SP","color":"red","longitude":"-47.294059","cidade":"Nova Odessa","name":"Nova Odessa, SP <br> HFC","tecnologia":"HFC"},{"latitude":"-23.53239","uf":"SP","color":"red","longitude":"-46.791555","cidade":"Osasco","name":"Osasco, SP <br> HFC","tecnologia":"HFC"},{"latitude":"-22.754178","uf":"SP","color":"red","longitude":"-47.148776","cidade":"Paulínia","name":"Paulínia, SP <br> HFC","tecnologia":"HFC"},{"latitude":"-22.92463","uf":"SP","color":"red","longitude":"-45.461264","cidade":"Pindamonhangaba","name":"Pindamonhangaba, SP <br> HFC","tecnologia":"HFC"},{"latitude":"-22.733801","uf":"SP","color":"red","longitude":"-47.647612","cidade":"Piracicaba","name":"Piracicaba, SP <br> HFC","tecnologia":"HFC"},{"latitude":"-23.533285","uf":"SP","color":"red","longitude":"-46.347292","cidade":"Poá","name":"Poá, SP <br> HFC","tecnologia":"HFC"},{"latitude":"-23.209318","uf":"SP","color":"red","longitude":"-47.52512","cidade":"Porto Feliz","name":"Porto Feliz, SP <br> HFC","tecnologia":"HFC"},{"latitude":"-22.834327","uf":"SP","color":"red","longitude":"-45.255205","cidade":"Potim","name":"Potim, SP <br> HFC","tecnologia":"HFC"},{"latitude":"-24.008378","uf":"SP","color":"red","longitude":"-46.412057","cidade":"Praia Grande","name":"Praia Grande, SP <br> HFC","tecnologia":"HFC"},{"latitude":"-22.120654","uf":"SP","color":"red","longitude":"-51.392526","cidade":"Presidente Prudente","name":"Presidente Prudente, SP <br> HFC","tecnologia":"HFC"},{"latitude":"-23.010508","uf":"SP","color":"red","longitude":"-47.531795","cidade":"Rafard","name":"Rafard, SP <br> HFC","tecnologia":"HFC"},{"latitude":"-21.169923","uf":"SP","color":"red","longitude":"-47.809875","cidade":"Ribeirão Preto","name":"Ribeirão Preto, SP <br> HFC","tecnologia":"HFC"},{"latitude":"-22.398378","uf":"SP","color":"red","longitude":"-47.554632","cidade":"Rio Claro","name":"Rio Claro, SP <br> HFC","tecnologia":"HFC"},{"latitude":"-23.199592","uf":"SP","color":"red","longitude":"-47.293087","cidade":"Salto","name":"Salto, SP <br> HFC","tecnologia":"HFC"},{"latitude":"-23.442514","uf":"SP","color":"red","longitude":"-46.922215","cidade":"Santana de Parnaíba","name":"Santana de Parnaíba, SP <br> HFC","tecnologia":"HFC"},{"latitude":"-23.67373","uf":"SP","color":"red","longitude":"-46.543154","cidade":"Santo André","name":"Santo André, SP <br> HFC","tecnologia":"HFC"},{"latitude":"-23.953543","uf":"SP","color":"red","longitude":"-46.335042","cidade":"Santos","name":"Santos, SP <br> HFC","tecnologia":"HFC"},{"latitude":"-23.691412","uf":"SP","color":"red","longitude":"-46.564617","cidade":"São Bernardo do Campo","name":"São Bernardo do Campo, SP <br> HFC","tecnologia":"HFC"},{"latitude":"-23.62287","uf":"SP","color":"red","longitude":"-46.554797","cidade":"São Caetano do Sul","name":"São Caetano do Sul, SP <br> HFC","tecnologia":"HFC"},{"latitude":"-22.017395","uf":"SP","color":"red","longitude":"-47.885971","cidade":"São Carlos","name":"São Carlos, SP <br> HFC","tecnologia":"HFC"},{"latitude":"-20.811289","uf":"SP","color":"red","longitude":"-49.375767","cidade":"São José do Rio Preto","name":"São José do Rio Preto, SP <br> HFC","tecnologia":"HFC"},{"latitude":"-23.189554","uf":"SP","color":"red","longitude":"-45.884115","cidade":"São José Dos Campos","name":"São José Dos Campos, SP <br> HFC","tecnologia":"HFC"},{"latitude":"-23.532905","uf":"SP","color":"red","longitude":"-46.63952","cidade":"São Paulo","name":"São Paulo, SP <br> HFC","tecnologia":"HFC"},{"latitude":"-23.957353","uf":"SP","color":"red","longitude":"-46.388333","cidade":"São Vicente","name":"São Vicente, SP <br> HFC","tecnologia":"HFC"},{"latitude":"-21.131596","uf":"SP","color":"red","longitude":"-47.987496","cidade":"Sertãozinho","name":"Sertãozinho, SP <br> HFC","tecnologia":"HFC"},{"latitude":"-23.496886","uf":"SP","color":"red","longitude":"-47.445073","cidade":"Sorocaba","name":"Sorocaba, SP <br> HFC","tecnologia":"HFC"},{"latitude":"-22.820416","uf":"SP","color":"red","longitude":"-47.272823","cidade":"Sumaré","name":"Sumaré, SP <br> HFC","tecnologia":"HFC"},{"latitude":"-23.544828","uf":"SP","color":"red","longitude":"-46.311181","cidade":"Suzano","name":"Suzano, SP <br> HFC","tecnologia":"HFC"},{"latitude":"-23.601867","uf":"SP","color":"red","longitude":"-46.752637","cidade":"Taboão da Serra","name":"Taboão da Serra, SP <br> HFC","tecnologia":"HFC"},{"latitude":"-23.010414","uf":"SP","color":"red","longitude":"-45.55926","cidade":"Taubaté","name":"Taubaté, SP <br> HFC","tecnologia":"HFC"},{"latitude":"-23.110098","uf":"SP","color":"red","longitude":"-47.716378","cidade":"Tietê","name":"Tietê, SP <br> HFC","tecnologia":"HFC"},{"latitude":"-22.969805","uf":"SP","color":"red","longitude":"-46.997367","cidade":"Valinhos","name":"Valinhos, SP <br> HFC","tecnologia":"HFC"},{"latitude":"-23.599338","uf":"SP","color":"red","longitude":"-47.022038","cidade":"Vargem Grande Paulista","name":"Vargem Grande Paulista, SP <br> HFC","tecnologia":"HFC"},{"latitude":"-23.030184","uf":"SP","color":"red","longitude":"-46.983312","cidade":"Vinhedo","name":"Vinhedo, SP <br> HFC","tecnologia":"HFC"},{"latitude":"-23.54459","uf":"SP","color":"red","longitude":"-47.438753","cidade":"Votorantim","name":"Votorantim, SP <br> HFC","tecnologia":"HFC"}]
