[{"longitude":"-36.661471","name":"Arapiraca, AL <br> GPON","uf":"AL","cidade":"Arapiraca","latitude":"-9.754866","color":"green","tecnologia":"GPON"},{"longitude":"-49.492667","name":"Trindade, GO <br> GPON","uf":"GO","cidade":"Trindade","latitude":"-16.651708","color":"green","tecnologia":"GPON"},{"longitude":"-46.943804","name":"Araxá, MG <br> GPON","uf":"MG","cidade":"Araxá","latitude":"-19.590176","color":"green","tecnologia":"GPON"},{"longitude":"-45.459818","name":"Itajubá, MG <br> GPON","uf":"MG","cidade":"Itajubá","latitude":"-22.422481","color":"green","tecnologia":"GPON"},{"longitude":"-43.304004","name":"Paraíba Do Sul, RJ <br> GPON","uf":"RJ","cidade":"Paraíba Do Sul","latitude":"-22.158462","color":"green","tecnologia":"GPON"},{"longitude":"-61.932152","name":"Ji-Paraná, RO <br> GPON","uf":"RO","cidade":"Ji-Paraná","latitude":"-10.877741","color":"green","tecnologia":"GPON"},{"longitude":"-51.80431","name":"Camaquã, RS <br> GPON","uf":"RS","cidade":"Camaquã","latitude":"-30.848897","color":"green","tecnologia":"GPON"},{"longitude":"-51.089776","name":"Dois Irmãos, RS <br> GPON","uf":"RS","cidade":"Dois Irmãos","latitude":"-29.58356","color":"green","tecnologia":"GPON"},{"longitude":"-52.198625","name":"Marau, RS <br> GPON","uf":"RS","cidade":"Marau","latitude":"-28.449754","color":"green","tecnologia":"GPON"},{"longitude":"-50.941791","name":"Vacaria, RS <br> GPON","uf":"RS","cidade":"Vacaria","latitude":"-28.507868","color":"green","tecnologia":"GPON"},{"longitude":"-49.308654","name":"Içara, SC <br> GPON","uf":"SC","cidade":"Içara","latitude":"-28.713206","color":"green","tecnologia":"GPON"},{"longitude":"-48.98632","name":"Agudos, SP <br> GPON","uf":"SP","cidade":"Agudos","latitude":"-22.469433","color":"green","tecnologia":"GPON"},{"longitude":"-47.085245","name":"Casa Branca, SP <br> GPON","uf":"SP","cidade":"Casa Branca","latitude":"-21.77081","color":"green","tecnologia":"GPON"},{"longitude":"-47.988211","name":"Ibaté, SP <br> GPON","uf":"SP","cidade":"Ibaté","latitude":"-21.958358","color":"green","tecnologia":"GPON"},{"longitude":"-46.985062","name":"Jaguariúna, SP <br> GPON","uf":"SP","cidade":"Jaguariúna","latitude":"-22.70374","color":"green","tecnologia":"GPON"},{"longitude":"-47.425572","name":"Piedade, SP <br> GPON","uf":"SP","cidade":"Piedade","latitude":"-23.713941","color":"green","tecnologia":"GPON"},{"longitude":"-47.248023","name":"Santa Cruz das Palmeiras, SP <br> GPON","uf":"SP","cidade":"Santa Cruz das Palmeiras","latitude":"-21.823475","color":"green","tecnologia":"GPON"},{"longitude":"-47.270344","name":"Tambaú, SP <br> GPON","uf":"SP","cidade":"Tambaú","latitude":"-21.70292","color":"green","tecnologia":"GPON"},{"longitude":"-48.204402","name":"Araguaína, TO <br> GPON","uf":"TO","cidade":"Araguaína","latitude":"-7.192375","color":"green","tecnologia":"GPON"},{"longitude":"-49.068046","name":"Gurupi, TO <br> GPON","uf":"TO","cidade":"Gurupi","latitude":"-11.72794","color":"green","tecnologia":"GPON"},{"longitude":"-51.172924","name":"Santana, AP <br> GPON","uf":"AP","cidade":"Santana","latitude":"-0.045434","color":"green","tecnologia":"GPON"},{"longitude":"-38.420772","name":"Alagoinhas, BA <br> GPON","uf":"BA","cidade":"Alagoinhas","latitude":"-12.133526","color":"green","tecnologia":"GPON"},{"longitude":"-44.996838","name":"Barreiras, BA <br> GPON","uf":"BA","cidade":"Barreiras","latitude":"-12.143864","color":"green","tecnologia":"GPON"},{"longitude":"-38.966293","name":"Feira de Santana, BA <br> GPON","uf":"BA","cidade":"Feira de Santana","latitude":"-12.266429","color":"green","tecnologia":"GPON"},{"longitude":"-39.278056","name":"Itabuna, BA <br> GPON","uf":"BA","cidade":"Itabuna","latitude":"-14.787573","color":"green","tecnologia":"GPON"},{"longitude":"-40.503251","name":"Juazeiro, BA <br> GPON","uf":"BA","cidade":"Juazeiro","latitude":"-9.416217","color":"green","tecnologia":"GPON"},{"longitude":"-39.064251","name":"Porto Seguro, BA <br> GPON","uf":"BA","cidade":"Porto Seguro","latitude":"-16.443473","color":"green","tecnologia":"GPON"},{"longitude":"-39.739962","name":"Teixeira de Freitas, BA <br> GPON","uf":"BA","cidade":"Teixeira de Freitas","latitude":"-17.539915","color":"green","tecnologia":"GPON"},{"longitude":"-38.389563","name":"Aquiraz, CE <br> GPON","uf":"CE","cidade":"Aquiraz","latitude":"-3.899293","color":"green","tecnologia":"GPON"},{"longitude":"-39.307593","name":"Juazeiro do Norte, CE <br> GPON","uf":"CE","cidade":"Juazeiro do Norte","latitude":"-7.196207","color":"green","tecnologia":"GPON"},{"longitude":"-40.34821","name":"Sobral, CE <br> GPON","uf":"CE","cidade":"Sobral","latitude":"-3.689133","color":"green","tecnologia":"GPON"},{"longitude":"-40.276441","name":"Aracruz, ES <br> GPON","uf":"ES","cidade":"Aracruz","latitude":"-19.820045","color":"green","tecnologia":"GPON"},{"longitude":"-40.626898","name":"Colatina, ES <br> GPON","uf":"ES","cidade":"Colatina","latitude":"-19.549316","color":"green","tecnologia":"GPON"},{"longitude":"-48.624579","name":"Caldas Novas, GO <br> GPON","uf":"GO","cidade":"Caldas Novas","latitude":"-17.74406","color":"green","tecnologia":"GPON"},{"longitude":"-47.336999","name":"Formosa, GO <br> GPON","uf":"GO","cidade":"Formosa","latitude":"-15.539991","color":"green","tecnologia":"GPON"},{"longitude":"-49.215845","name":"Itumbiara, GO <br> GPON","uf":"GO","cidade":"Itumbiara","latitude":"-18.409267","color":"green","tecnologia":"GPON"},{"longitude":"-50.919195","name":"Rio Verde, GO <br> GPON","uf":"GO","cidade":"Rio Verde","latitude":"-17.792266","color":"green","tecnologia":"GPON"},{"longitude":"-49.091398","name":"Senador Canedo, GO <br> GPON","uf":"GO","cidade":"Senador Canedo","latitude":"-16.708401","color":"green","tecnologia":"GPON"},{"longitude":"-43.361749","name":"Caxias, MA <br> GPON","uf":"MA","cidade":"Caxias","latitude":"-4.865053","color":"green","tecnologia":"GPON"},{"longitude":"-47.477726","name":"Imperatriz, MA <br> GPON","uf":"MA","cidade":"Imperatriz","latitude":"-5.518471","color":"green","tecnologia":"GPON"},{"longitude":"-42.83292","name":"Timon, MA <br> GPON","uf":"MA","cidade":"Timon","latitude":"-5.097692","color":"green","tecnologia":"GPON"},{"longitude":"-48.193392","name":"Araguari, MG <br> GPON","uf":"MG","cidade":"Araguari","latitude":"-18.645575","color":"green","tecnologia":"GPON"},{"longitude":"-43.770266","name":"Barbacena, MG <br> GPON","uf":"MG","cidade":"Barbacena","latitude":"-21.221446","color":"green","tecnologia":"GPON"},{"longitude":"-42.689647","name":"Cataguases, MG <br> GPON","uf":"MG","cidade":"Cataguases","latitude":"-21.39239","color":"green","tecnologia":"GPON"},{"longitude":"-43.784609","name":"Conselheiro Lafaiete, MG <br> GPON","uf":"MG","cidade":"Conselheiro Lafaiete","latitude":"-20.663445","color":"green","tecnologia":"GPON"},{"longitude":"-42.627585","name":"Coronel Fabriciano, MG <br> GPON","uf":"MG","cidade":"Coronel Fabriciano","latitude":"-19.517879","color":"green","tecnologia":"GPON"},{"longitude":"-43.23123","name":"Itabira, MG <br> GPON","uf":"MG","cidade":"Itabira","latitude":"-19.623936","color":"green","tecnologia":"GPON"},{"longitude":"-49.463945","name":"Ituiutaba, MG <br> GPON","uf":"MG","cidade":"Ituiutaba","latitude":"-18.977191","color":"green","tecnologia":"GPON"},{"longitude":"-43.893216","name":"Lagoa Santa, MG <br> GPON","uf":"MG","cidade":"Lagoa Santa","latitude":"-19.63967","color":"green","tecnologia":"GPON"},{"longitude":"-45.000949","name":"Lavras, MG <br> GPON","uf":"MG","cidade":"Lavras","latitude":"-21.248002","color":"green","tecnologia":"GPON"},{"longitude":"-43.857809","name":"Montes Claros, MG <br> GPON","uf":"MG","cidade":"Montes Claros","latitude":"-16.728177","color":"green","tecnologia":"GPON"},{"longitude":"-46.609008","name":"Passos, MG <br> GPON","uf":"MG","cidade":"Passos","latitude":"-20.719271","color":"green","tecnologia":"GPON"},{"longitude":"-46.501268","name":"Patos de Minas, MG <br> GPON","uf":"MG","cidade":"Patos de Minas","latitude":"-18.569938","color":"green","tecnologia":"GPON"},{"longitude":"-45.938935","name":"Pouso Alegre, MG <br> GPON","uf":"MG","cidade":"Pouso Alegre","latitude":"-22.22659","color":"green","tecnologia":"GPON"},{"longitude":"-43.849658","name":"Santa Luzia, MG <br> GPON","uf":"MG","cidade":"Santa Luzia","latitude":"-19.754824","color":"green","tecnologia":"GPON"},{"longitude":"-43.9239","name":"Vespasiano, MG <br> GPON","uf":"MG","cidade":"Vespasiano","latitude":"-19.688326","color":"green","tecnologia":"GPON"},{"longitude":"-55.904202","name":"Lucas do Rio Verde, MT <br> GPON","uf":"MT","cidade":"Lucas do Rio Verde","latitude":"-13.058796","color":"green","tecnologia":"GPON"},{"longitude":"-56.074316","name":"Nova Mutum, MT <br> GPON","uf":"MT","cidade":"Nova Mutum","latitude":"-13.837389","color":"green","tecnologia":"GPON"},{"longitude":"-55.509062","name":"Sinop, MT <br> GPON","uf":"MT","cidade":"Sinop","latitude":"-11.86043","color":"green","tecnologia":"GPON"},{"longitude":"-55.721051","name":"Sorriso, MT <br> GPON","uf":"MT","cidade":"Sorriso","latitude":"-12.542527","color":"green","tecnologia":"GPON"},{"longitude":"-47.916742","name":"Castanhal, PA <br> GPON","uf":"PA","cidade":"Castanhal","latitude":"-1.297971","color":"green","tecnologia":"GPON"},{"longitude":"-47.352692","name":"Paragominas, PA <br> GPON","uf":"PA","cidade":"Paragominas","latitude":"-3.002116","color":"green","tecnologia":"GPON"},{"longitude":"-49.903733","name":"Parauapebas, PA <br> GPON","uf":"PA","cidade":"Parauapebas","latitude":"-6.067812","color":"green","tecnologia":"GPON"},{"longitude":"-40.502731","name":"Petrolina, PE <br> GPON","uf":"PE","cidade":"Petrolina","latitude":"-9.388662","color":"green","tecnologia":"GPON"},{"longitude":"-51.463486","name":"Apucarana, PR <br> GPON","uf":"PR","cidade":"Apucarana","latitude":"-23.549961","color":"green","tecnologia":"GPON"},{"longitude":"-42.028595","name":"Cabo Frio, RJ <br> GPON","uf":"RJ","cidade":"Cabo Frio","latitude":"-22.88943","color":"green","tecnologia":"GPON"},{"longitude":"-43.480275","name":"Miguel Pereira, RJ <br> GPON","uf":"RJ","cidade":"Miguel Pereira","latitude":"-22.457242","color":"green","tecnologia":"GPON"},{"longitude":"-42.537692","name":"Nova Friburgo, RJ <br> GPON","uf":"RJ","cidade":"Nova Friburgo","latitude":"-22.293224","color":"green","tecnologia":"GPON"},{"longitude":"-43.668555","name":"Vassouras, RJ <br> GPON","uf":"RJ","cidade":"Vassouras","latitude":"-22.405889","color":"green","tecnologia":"GPON"},{"longitude":"-63.032516","name":"Ariquemes, RO <br> GPON","uf":"RO","cidade":"Ariquemes","latitude":"-9.905711","color":"green","tecnologia":"GPON"},{"longitude":"-61.456167","name":"Cacoal, RO <br> GPON","uf":"RO","cidade":"Cacoal","latitude":"-11.434271","color":"green","tecnologia":"GPON"},{"longitude":"-60.148847","name":"Vilhena, RO <br> GPON","uf":"RO","cidade":"Vilhena","latitude":"-12.750183","color":"green","tecnologia":"GPON"},{"longitude":"-55.794862","name":"Alegrete, RS <br> GPON","uf":"RS","cidade":"Alegrete","latitude":"-29.790166","color":"green","tecnologia":"GPON"},{"longitude":"-51.955735","name":"Arroio do Meio, RS <br> GPON","uf":"RS","cidade":"Arroio do Meio","latitude":"-29.401353","color":"green","tecnologia":"GPON"},{"longitude":"-52.892756","name":"Cachoeira do Sul, RS <br> GPON","uf":"RS","cidade":"Cachoeira do Sul","latitude":"-30.032988","color":"green","tecnologia":"GPON"},{"longitude":"-50.811921","name":"Canela, RS <br> GPON","uf":"RS","cidade":"Canela","latitude":"-29.355993","color":"green","tecnologia":"GPON"},{"longitude":"-52.79326","name":"Carazinho, RS <br> GPON","uf":"RS","cidade":"Carazinho","latitude":"-28.295844","color":"green","tecnologia":"GPON"},{"longitude":"-51.502847","name":"Carlos Barbosa, RS <br> GPON","uf":"RS","cidade":"Carlos Barbosa","latitude":"-29.296949","color":"green","tecnologia":"GPON"},{"longitude":"-51.628872","name":"Charqueadas, RS <br> GPON","uf":"RS","cidade":"Charqueadas","latitude":"-29.962478","color":"green","tecnologia":"GPON"},{"longitude":"-51.618702","name":"Eldorado do Sul, RS <br> GPON","uf":"RS","cidade":"Eldorado do Sul","latitude":"-30.084676","color":"green","tecnologia":"GPON"},{"longitude":"-51.870282","name":"Encantado, RS <br> GPON","uf":"RS","cidade":"Encantado","latitude":"-29.235141","color":"green","tecnologia":"GPON"},{"longitude":"-51.949508","name":"Estrela, RS <br> GPON","uf":"RS","cidade":"Estrela","latitude":"-29.500207","color":"green","tecnologia":"GPON"},{"longitude":"-53.395824","name":"Frederico Westphalen, RS <br> GPON","uf":"RS","cidade":"Frederico Westphalen","latitude":"-27.358644","color":"green","tecnologia":"GPON"},{"longitude":"-51.535179","name":"Garibaldi, RS <br> GPON","uf":"RS","cidade":"Garibaldi","latitude":"-29.258979","color":"green","tecnologia":"GPON"},{"longitude":"-50.876164","name":"Gramado, RS <br> GPON","uf":"RS","cidade":"Gramado","latitude":"-29.373351","color":"green","tecnologia":"GPON"},{"longitude":"-50.791894","name":"Igrejinha, RS <br> GPON","uf":"RS","cidade":"Igrejinha","latitude":"-29.569318","color":"green","tecnologia":"GPON"},{"longitude":"-56.551478","name":"Itaqui, RS <br> GPON","uf":"RS","cidade":"Itaqui","latitude":"-29.131051","color":"green","tecnologia":"GPON"},{"longitude":"-51.153326","name":"Ivoti, RS <br> GPON","uf":"RS","cidade":"Ivoti","latitude":"-29.599463","color":"green","tecnologia":"GPON"},{"longitude":"-51.467903","name":"Montenegro, RS <br> GPON","uf":"RS","cidade":"Montenegro","latitude":"-29.682414","color":"green","tecnologia":"GPON"},{"longitude":"-53.502261","name":"Panambi, RS <br> GPON","uf":"RS","cidade":"Panambi","latitude":"-28.283328","color":"green","tecnologia":"GPON"},{"longitude":"-52.37113","name":"Rio Pardo, RS <br> GPON","uf":"RS","cidade":"Rio Pardo","latitude":"-29.98803","color":"green","tecnologia":"GPON"},{"longitude":"-54.479629","name":"Santa Rosa, RS <br> GPON","uf":"RS","cidade":"Santa Rosa","latitude":"-27.8702","color":"green","tecnologia":"GPON"},{"longitude":"-55.531467","name":"Santana do Livramento, RS <br> GPON","uf":"RS","cidade":"Santana do Livramento","latitude":"-30.88772","color":"green","tecnologia":"GPON"},{"longitude":"-50.775278","name":"Taquara, RS <br> GPON","uf":"RS","cidade":"Taquara","latitude":"-29.650471","color":"green","tecnologia":"GPON"},{"longitude":"-49.733289","name":"Torres, RS <br> GPON","uf":"RS","cidade":"Torres","latitude":"-29.333438","color":"green","tecnologia":"GPON"},{"longitude":"-52.515176","name":"Vera Cruz, RS <br> GPON","uf":"RS","cidade":"Vera Cruz","latitude":"-29.718435","color":"green","tecnologia":"GPON"},{"longitude":"-50.919978","name":"Fraiburgo, SC <br> GPON","uf":"SC","cidade":"Fraiburgo","latitude":"-27.023288","color":"green","tecnologia":"GPON"},{"longitude":"-48.953428","name":"Gaspar, SC <br> GPON","uf":"SC","cidade":"Gaspar","latitude":"-26.933597","color":"green","tecnologia":"GPON"},{"longitude":"-49.002628","name":"Guaramirim, SC <br> GPON","uf":"SC","cidade":"Guaramirim","latitude":"-26.468753","color":"green","tecnologia":"GPON"},{"longitude":"-49.235417","name":"Indaial, SC <br> GPON","uf":"SC","cidade":"Indaial","latitude":"-26.899247","color":"green","tecnologia":"GPON"},{"longitude":"-50.325862","name":"Lages, SC <br> GPON","uf":"SC","cidade":"Lages","latitude":"-27.814966","color":"green","tecnologia":"GPON"},{"longitude":"-49.808624","name":"Mafra, SC <br> GPON","uf":"SC","cidade":"Mafra","latitude":"-26.115935","color":"green","tecnologia":"GPON"},{"longitude":"-49.643016","name":"Rio do Sul, SC <br> GPON","uf":"SC","cidade":"Rio do Sul","latitude":"-27.215596","color":"green","tecnologia":"GPON"},{"longitude":"-49.517746","name":"Rio Negrinho, SC <br> GPON","uf":"SC","cidade":"Rio Negrinho","latitude":"-26.259075","color":"green","tecnologia":"GPON"},{"longitude":"-51.154274","name":"Videira, SC <br> GPON","uf":"SC","cidade":"Videira","latitude":"-27.008624","color":"green","tecnologia":"GPON"},{"longitude":"-52.537446","name":"Xaxim, SC <br> GPON","uf":"SC","cidade":"Xaxim","latitude":"-26.959643","color":"green","tecnologia":"GPON"},{"longitude":"-51.073695","name":"Adamantina, SP <br> GPON","uf":"SP","cidade":"Adamantina","latitude":"-21.682012","color":"green","tecnologia":"GPON"},{"longitude":"-46.772022","name":"Amparo, SP <br> GPON","uf":"SP","cidade":"Amparo","latitude":"-22.70879","color":"green","tecnologia":"GPON"},{"longitude":"-51.378568","name":"Andradina, SP <br> GPON","uf":"SP","cidade":"Andradina","latitude":"-20.894761","color":"green","tecnologia":"GPON"},{"longitude":"-49.4385","name":"Bady Bassitt, SP <br> GPON","uf":"SP","cidade":"Bady Bassitt","latitude":"-20.919689","color":"green","tecnologia":"GPON"},{"longitude":"-48.569832","name":"Barretos, SP <br> GPON","uf":"SP","cidade":"Barretos","latitude":"-20.553146","color":"green","tecnologia":"GPON"},{"longitude":"-48.163614","name":"Barrinha, SP <br> GPON","uf":"SP","cidade":"Barrinha","latitude":"-21.186374","color":"green","tecnologia":"GPON"},{"longitude":"-47.592149","name":"Batatais, SP <br> GPON","uf":"SP","cidade":"Batatais","latitude":"-20.892867","color":"green","tecnologia":"GPON"},{"longitude":"-48.479083","name":"Bebedouro, SP <br> GPON","uf":"SP","cidade":"Bebedouro","latitude":"-20.949077","color":"green","tecnologia":"GPON"},{"longitude":"-50.343162","name":"Birigui, SP <br> GPON","uf":"SP","cidade":"Birigui","latitude":"-21.291034","color":"green","tecnologia":"GPON"},{"longitude":"-47.678574","name":"Boituva, SP <br> GPON","uf":"SP","cidade":"Boituva","latitude":"-23.285531","color":"green","tecnologia":"GPON"},{"longitude":"-46.73974","name":"Caieiras, SP <br> GPON","uf":"SP","cidade":"Caieiras","latitude":"-23.360729","color":"green","tecnologia":"GPON"},{"longitude":"-46.878146","name":"Cajamar, SP <br> GPON","uf":"SP","cidade":"Cajamar","latitude":"-23.355014","color":"green","tecnologia":"GPON"},{"longitude":"-46.788919","name":"Campo Limpo Paulista, SP <br> GPON","uf":"SP","cidade":"Campo Limpo Paulista","latitude":"-23.207791","color":"green","tecnologia":"GPON"},{"longitude":"-45.412533","name":"Caraguatatuba, SP <br> GPON","uf":"SP","cidade":"Caraguatatuba","latitude":"-23.612535","color":"green","tecnologia":"GPON"},{"longitude":"-48.977015","name":"Catanduva, SP <br> GPON","uf":"SP","cidade":"Catanduva","latitude":"-21.131381","color":"green","tecnologia":"GPON"},{"longitude":"-47.745862","name":"Cerquilho, SP <br> GPON","uf":"SP","cidade":"Cerquilho","latitude":"-23.166487","color":"green","tecnologia":"GPON"},{"longitude":"-47.732427","name":"Cravinhos, SP <br> GPON","uf":"SP","cidade":"Cravinhos","latitude":"-21.337959","color":"green","tecnologia":"GPON"},{"longitude":"-47.618105","name":"Descalvado, SP <br> GPON","uf":"SP","cidade":"Descalvado","latitude":"-21.900211","color":"green","tecnologia":"GPON"},{"longitude":"-51.535034","name":"Dracena, SP <br> GPON","uf":"SP","cidade":"Dracena","latitude":"-21.484311","color":"green","tecnologia":"GPON"},{"longitude":"-50.645338","name":"Guararapes, SP <br> GPON","uf":"SP","cidade":"Guararapes","latitude":"-21.254431","color":"green","tecnologia":"GPON"},{"longitude":"-48.876433","name":"Itapeva, SP <br> GPON","uf":"SP","cidade":"Itapeva","latitude":"-23.978823","color":"green","tecnologia":"GPON"},{"longitude":"-46.822434","name":"Itapira, SP <br> GPON","uf":"SP","cidade":"Itapira","latitude":"-22.435731","color":"green","tecnologia":"GPON"},{"longitude":"-46.345724","name":"Itaquaquecetuba, SP <br> GPON","uf":"SP","cidade":"Itaquaquecetuba","latitude":"-23.483481","color":"green","tecnologia":"GPON"},{"longitude":"-46.846353","name":"Itatiba, SP <br> GPON","uf":"SP","cidade":"Itatiba","latitude":"-23.003497","color":"green","tecnologia":"GPON"},{"longitude":"-47.059262","name":"Itupeva, SP <br> GPON","uf":"SP","cidade":"Itupeva","latitude":"-23.152635","color":"green","tecnologia":"GPON"},{"longitude":"-47.790207","name":"Ituverava, SP <br> GPON","uf":"SP","cidade":"Ituverava","latitude":"-20.335465","color":"green","tecnologia":"GPON"},{"longitude":"-48.325223","name":"Jaboticabal, SP <br> GPON","uf":"SP","cidade":"Jaboticabal","latitude":"-21.252037","color":"green","tecnologia":"GPON"},{"longitude":"-50.549442","name":"Jales, SP <br> GPON","uf":"SP","cidade":"Jales","latitude":"-20.267227","color":"green","tecnologia":"GPON"},{"longitude":"-46.728015","name":"Jarinu, SP <br> GPON","uf":"SP","cidade":"Jarinu","latitude":"-23.103855","color":"green","tecnologia":"GPON"},{"longitude":"-47.837549","name":"Laranjal Paulista, SP <br> GPON","uf":"SP","cidade":"Laranjal Paulista","latitude":"-23.050564","color":"green","tecnologia":"GPON"},{"longitude":"-47.384109","name":"Leme, SP <br> GPON","uf":"SP","cidade":"Leme","latitude":"-22.180857","color":"green","tecnologia":"GPON"},{"longitude":"-49.752555","name":"Lins, SP <br> GPON","uf":"SP","cidade":"Lins","latitude":"-21.67182","color":"green","tecnologia":"GPON"},{"longitude":"-46.948369","name":"Louveira, SP <br> GPON","uf":"SP","cidade":"Louveira","latitude":"-23.085572","color":"green","tecnologia":"GPON"},{"longitude":"-47.184995","name":"Mairinque, SP <br> GPON","uf":"SP","cidade":"Mairinque","latitude":"-23.539822","color":"green","tecnologia":"GPON"},{"longitude":"-49.52061","name":"Mirassol, SP <br> GPON","uf":"SP","cidade":"Mirassol","latitude":"-20.816874","color":"green","tecnologia":"GPON"},{"longitude":"-47.002405","name":"Mococa, SP <br> GPON","uf":"SP","cidade":"Mococa","latitude":"-21.464731","color":"green","tecnologia":"GPON"},{"longitude":"-48.497066","name":"Monte Alto, SP <br> GPON","uf":"SP","cidade":"Monte Alto","latitude":"-21.265545","color":"green","tecnologia":"GPON"},{"longitude":"-46.789601","name":"Morungaba, SP <br> GPON","uf":"SP","cidade":"Morungaba","latitude":"-22.881071","color":"green","tecnologia":"GPON"},{"longitude":"-49.869702","name":"Ourinhos, SP <br> GPON","uf":"SP","cidade":"Ourinhos","latitude":"-22.979695","color":"green","tecnologia":"GPON"},{"longitude":"-46.894846","name":"Pedreira, SP <br> GPON","uf":"SP","cidade":"Pedreira","latitude":"-22.741347","color":"green","tecnologia":"GPON"},{"longitude":"-46.359374","name":"Piracaia, SP <br> GPON","uf":"SP","cidade":"Piracaia","latitude":"-23.052545","color":"green","tecnologia":"GPON"},{"longitude":"-47.425746","name":"Pirassununga, SP <br> GPON","uf":"SP","cidade":"Pirassununga","latitude":"-21.995982","color":"green","tecnologia":"GPON"},{"longitude":"-48.042261","name":"Pontal, SP <br> GPON","uf":"SP","cidade":"Pontal","latitude":"-21.021565","color":"green","tecnologia":"GPON"},{"longitude":"-47.487034","name":"Porto Ferreira, SP <br> GPON","uf":"SP","cidade":"Porto Ferreira","latitude":"-21.849814","color":"green","tecnologia":"GPON"},{"longitude":"-49.381509","name":"Potirendaba, SP <br> GPON","uf":"SP","cidade":"Potirendaba","latitude":"-21.042789","color":"green","tecnologia":"GPON"},{"longitude":"-51.556507","name":"Presidente Bernardes, SP <br> GPON","uf":"SP","cidade":"Presidente Bernardes","latitude":"-22.008198","color":"green","tecnologia":"GPON"},{"longitude":"-47.844895","name":"Registro, SP <br> GPON","uf":"SP","cidade":"Registro","latitude":"-24.497942","color":"green","tecnologia":"GPON"},{"longitude":"-49.635444","name":"Santa Cruz do Rio Pardo, SP <br> GPON","uf":"SP","cidade":"Santa Cruz do Rio Pardo","latitude":"-22.89875","color":"green","tecnologia":"GPON"},{"longitude":"-47.52716","name":"Santa Gertrudes, SP <br> GPON","uf":"SP","cidade":"Santa Gertrudes","latitude":"-22.457229","color":"green","tecnologia":"GPON"},{"longitude":"-46.223668","name":"Santa Isabel, SP <br> GPON","uf":"SP","cidade":"Santa Isabel","latitude":"-23.317194","color":"green","tecnologia":"GPON"},{"longitude":"-47.362213","name":"Santa Rosa de Viterbo, SP <br> GPON","uf":"SP","cidade":"Santa Rosa de Viterbo","latitude":"-21.477568","color":"green","tecnologia":"GPON"},{"longitude":"-46.703271","name":"Serra Negra, SP <br> GPON","uf":"SP","cidade":"Serra Negra","latitude":"-22.613941","color":"green","tecnologia":"GPON"},{"longitude":"-47.595239","name":"Serrana, SP <br> GPON","uf":"SP","cidade":"Serrana","latitude":"-21.204336","color":"green","tecnologia":"GPON"},{"longitude":"-45.083415","name":"Ubatuba, SP <br> GPON","uf":"SP","cidade":"Ubatuba","latitude":"-23.433162","color":"green","tecnologia":"GPON"},{"longitude":"-49.978112","name":"Votuporanga, SP <br> GPON","uf":"SP","cidade":"Votuporanga","latitude":"-20.423659","color":"green","tecnologia":"GPON"}]
