[{"uf":"SP","cidade":"Mogi das Cruzes","color":"yellow","longitude":"-46.18541","tecnologia":"Sobreposição HFC e GPON","latitude":"-23.52082","name":"Mogi das Cruzes, SP <br> Sobreposição HFC e GPON"},{"uf":"TO","cidade":"Palmas","color":"yellow","longitude":"-48.355751","tecnologia":"Sobreposição HFC e GPON","latitude":"-10.239973","name":"Palmas, TO <br> Sobreposição HFC e GPON"},{"uf":"AC","cidade":"Rio Branco","color":"yellow","longitude":"-67.824348","tecnologia":"Sobreposição HFC e GPON","latitude":"-9.97499","name":"Rio Branco, AC <br> Sobreposição HFC e GPON"},{"uf":"AM","cidade":"Manaus","color":"yellow","longitude":"-60.02123","tecnologia":"Sobreposição HFC e GPON","latitude":"-3.118662","name":"Manaus, AM <br> Sobreposição HFC e GPON"},{"uf":"BA","cidade":"Lauro de Freitas","color":"yellow","longitude":"-38.321008","tecnologia":"Sobreposição HFC e GPON","latitude":"-12.8978","name":"Lauro de Freitas, BA <br> Sobreposição HFC e GPON"},{"uf":"BA","cidade":"Salvador","color":"yellow","longitude":"-38.501068","tecnologia":"Sobreposição HFC e GPON","latitude":"-12.97178","name":"Salvador, BA <br> Sobreposição HFC e GPON"},{"uf":"CE","cidade":"Fortaleza","color":"yellow","longitude":"-38.542298","tecnologia":"Sobreposição HFC e GPON","latitude":"-3.716638","name":"Fortaleza, CE <br> Sobreposição HFC e GPON"},{"uf":"ES","cidade":"Cariacica","color":"yellow","longitude":"-40.416549","tecnologia":"Sobreposição HFC e GPON","latitude":"-20.263202","name":"Cariacica, ES <br> Sobreposição HFC e GPON"},{"uf":"ES","cidade":"Serra","color":"yellow","longitude":"-40.307408","tecnologia":"Sobreposição HFC e GPON","latitude":"-20.121032","name":"Serra, ES <br> Sobreposição HFC e GPON"},{"uf":"ES","cidade":"Vila Velha","color":"yellow","longitude":"-40.287458","tecnologia":"Sobreposição HFC e GPON","latitude":"-20.341705","name":"Vila Velha, ES <br> Sobreposição HFC e GPON"},{"uf":"MG","cidade":"Belo Horizonte","color":"yellow","longitude":"-43.926572","tecnologia":"Sobreposição HFC e GPON","latitude":"-19.910183","name":"Belo Horizonte, MG <br> Sobreposição HFC e GPON"},{"uf":"MG","cidade":"Contagem","color":"yellow","longitude":"-44.05392","tecnologia":"Sobreposição HFC e GPON","latitude":"-19.932079","name":"Contagem, MG <br> Sobreposição HFC e GPON"},{"uf":"MS","cidade":"Campo Grande","color":"yellow","longitude":"-54.629463","tecnologia":"Sobreposição HFC e GPON","latitude":"-20.448589","name":"Campo Grande, MS <br> Sobreposição HFC e GPON"},{"uf":"PA","cidade":"Ananindeua","color":"yellow","longitude":"-48.374298","tecnologia":"Sobreposição HFC e GPON","latitude":"-1.363914","name":"Ananindeua, PA <br> Sobreposição HFC e GPON"},{"uf":"PE","cidade":"Olinda","color":"yellow","longitude":"-34.854504","tecnologia":"Sobreposição HFC e GPON","latitude":"-8.010166","name":"Olinda, PE <br> Sobreposição HFC e GPON"},{"uf":"PE","cidade":"Paulista","color":"yellow","longitude":"-34.868407","tecnologia":"Sobreposição HFC e GPON","latitude":"-7.934007","name":"Paulista, PE <br> Sobreposição HFC e GPON"},{"uf":"PE","cidade":"Recife","color":"yellow","longitude":"-34.877065","tecnologia":"Sobreposição HFC e GPON","latitude":"-8.046658","name":"Recife, PE <br> Sobreposição HFC e GPON"},{"uf":"PI","cidade":"Teresina","color":"yellow","longitude":"-42.803364","tecnologia":"Sobreposição HFC e GPON","latitude":"-5.091944","name":"Teresina, PI <br> Sobreposição HFC e GPON"},{"uf":"PR","cidade":"Campo Largo","color":"yellow","longitude":"-49.529026","tecnologia":"Sobreposição HFC e GPON","latitude":"-25.452535","name":"Campo Largo, PR <br> Sobreposição HFC e GPON"},{"uf":"PR","cidade":"Curitiba","color":"yellow","longitude":"-49.264622","tecnologia":"Sobreposição HFC e GPON","latitude":"-25.419547","name":"Curitiba, PR <br> Sobreposição HFC e GPON"},{"uf":"RJ","cidade":"Rio de Janeiro","color":"yellow","longitude":"-43.200295","tecnologia":"Sobreposição HFC e GPON","latitude":"-22.912897","name":"Rio de Janeiro, RJ <br> Sobreposição HFC e GPON"},{"uf":"RN","cidade":"Natal","color":"yellow","longitude":"-35.198604","tecnologia":"Sobreposição HFC e GPON","latitude":"-5.793567","name":"Natal, RN <br> Sobreposição HFC e GPON"},{"uf":"RN","cidade":"Parnamirim","color":"yellow","longitude":"-35.271","tecnologia":"Sobreposição HFC e GPON","latitude":"-5.911156","name":"Parnamirim, RN <br> Sobreposição HFC e GPON"},{"uf":"RO","cidade":"Porto Velho","color":"yellow","longitude":"-63.899902","tecnologia":"Sobreposição HFC e GPON","latitude":"-8.760772","name":"Porto Velho, RO <br> Sobreposição HFC e GPON"},{"uf":"RS","cidade":"Cachoeirinha","color":"yellow","longitude":"-51.101606","tecnologia":"Sobreposição HFC e GPON","latitude":"-29.947222","name":"Cachoeirinha, RS <br> Sobreposição HFC e GPON"},{"uf":"RS","cidade":"Canoas","color":"yellow","longitude":"-51.185681","tecnologia":"Sobreposição HFC e GPON","latitude":"-29.912758","name":"Canoas, RS <br> Sobreposição HFC e GPON"},{"uf":"RS","cidade":"Caxias do Sul","color":"yellow","longitude":"-51.179161","tecnologia":"Sobreposição HFC e GPON","latitude":"-29.162905","name":"Caxias do Sul, RS <br> Sobreposição HFC e GPON"},{"uf":"RS","cidade":"Farroupilha","color":"yellow","longitude":"-51.341853","tecnologia":"Sobreposição HFC e GPON","latitude":"-29.222689","name":"Farroupilha, RS <br> Sobreposição HFC e GPON"},{"uf":"RS","cidade":"Novo Hamburgo","color":"yellow","longitude":"-51.132828","tecnologia":"Sobreposição HFC e GPON","latitude":"-29.687548","name":"Novo Hamburgo, RS <br> Sobreposição HFC e GPON"},{"uf":"RS","cidade":"Porto Alegre","color":"yellow","longitude":"-51.206533","tecnologia":"Sobreposição HFC e GPON","latitude":"-30.031771","name":"Porto Alegre, RS <br> Sobreposição HFC e GPON"},{"uf":"RS","cidade":"Rio Grande","color":"yellow","longitude":"-52.10705","tecnologia":"Sobreposição HFC e GPON","latitude":"-32.034875","name":"Rio Grande, RS <br> Sobreposição HFC e GPON"},{"uf":"SC","cidade":"Joinville","color":"yellow","longitude":"-48.848675","tecnologia":"Sobreposição HFC e GPON","latitude":"-26.304497","name":"Joinville, SC <br> Sobreposição HFC e GPON"},{"uf":"SP","cidade":"Americana","color":"yellow","longitude":"-47.333119","tecnologia":"Sobreposição HFC e GPON","latitude":"-22.73736","name":"Americana, SP <br> Sobreposição HFC e GPON"},{"uf":"SP","cidade":"Araraquara","color":"yellow","longitude":"-48.178014","tecnologia":"Sobreposição HFC e GPON","latitude":"-21.784511","name":"Araraquara, SP <br> Sobreposição HFC e GPON"},{"uf":"SP","cidade":"Araras","color":"yellow","longitude":"-47.384235","tecnologia":"Sobreposição HFC e GPON","latitude":"-22.357238","name":"Araras, SP <br> Sobreposição HFC e GPON"},{"uf":"SP","cidade":"Atibaia","color":"yellow","longitude":"-46.556262","tecnologia":"Sobreposição HFC e GPON","latitude":"-23.117059","name":"Atibaia, SP <br> Sobreposição HFC e GPON"},{"uf":"SP","cidade":"Campinas","color":"yellow","longitude":"-47.06595","tecnologia":"Sobreposição HFC e GPON","latitude":"-22.905346","name":"Campinas, SP <br> Sobreposição HFC e GPON"},{"uf":"SP","cidade":"Diadema","color":"yellow","longitude":"-46.62052","tecnologia":"Sobreposição HFC e GPON","latitude":"-23.681347","name":"Diadema, SP <br> Sobreposição HFC e GPON"},{"uf":"SP","cidade":"Elias Fausto","color":"yellow","longitude":"-47.368153","tecnologia":"Sobreposição HFC e GPON","latitude":"-23.042822","name":"Elias Fausto, SP <br> Sobreposição HFC e GPON"},{"uf":"SP","cidade":"Franca","color":"yellow","longitude":"-47.403861","tecnologia":"Sobreposição HFC e GPON","latitude":"-20.53523","name":"Franca, SP <br> Sobreposição HFC e GPON"},{"uf":"SP","cidade":"Guarulhos","color":"yellow","longitude":"-46.533347","tecnologia":"Sobreposição HFC e GPON","latitude":"-23.453758","name":"Guarulhos, SP <br> Sobreposição HFC e GPON"},{"uf":"SP","cidade":"Indaiatuba","color":"yellow","longitude":"-47.210093","tecnologia":"Sobreposição HFC e GPON","latitude":"-23.081591","name":"Indaiatuba, SP <br> Sobreposição HFC e GPON"},{"uf":"SP","cidade":"Itu","color":"yellow","longitude":"-47.292688","tecnologia":"Sobreposição HFC e GPON","latitude":"-23.254397","name":"Itu, SP <br> Sobreposição HFC e GPON"},{"uf":"SP","cidade":"Osasco","color":"yellow","longitude":"-46.791555","tecnologia":"Sobreposição HFC e GPON","latitude":"-23.53239","name":"Osasco, SP <br> Sobreposição HFC e GPON"},{"uf":"SP","cidade":"Piracicaba","color":"yellow","longitude":"-47.647612","tecnologia":"Sobreposição HFC e GPON","latitude":"-22.733801","name":"Piracicaba, SP <br> Sobreposição HFC e GPON"},{"uf":"SP","cidade":"Praia Grande","color":"yellow","longitude":"-46.412057","tecnologia":"Sobreposição HFC e GPON","latitude":"-24.008378","name":"Praia Grande, SP <br> Sobreposição HFC e GPON"},{"uf":"SP","cidade":"Rio Claro","color":"yellow","longitude":"-47.554632","tecnologia":"Sobreposição HFC e GPON","latitude":"-22.398378","name":"Rio Claro, SP <br> Sobreposição HFC e GPON"},{"uf":"SP","cidade":"Santos","color":"yellow","longitude":"-46.335042","tecnologia":"Sobreposição HFC e GPON","latitude":"-23.953543","name":"Santos, SP <br> Sobreposição HFC e GPON"},{"uf":"SP","cidade":"Sorocaba","color":"yellow","longitude":"-47.445073","tecnologia":"Sobreposição HFC e GPON","latitude":"-23.496886","name":"Sorocaba, SP <br> Sobreposição HFC e GPON"},{"uf":"SP","cidade":"Valinhos","color":"yellow","longitude":"-46.997367","tecnologia":"Sobreposição HFC e GPON","latitude":"-22.969805","name":"Valinhos, SP <br> Sobreposição HFC e GPON"},{"uf":"SP","cidade":"Votorantim","color":"yellow","longitude":"-47.438753","tecnologia":"Sobreposição HFC e GPON","latitude":"-23.54459","name":"Votorantim, SP <br> Sobreposição HFC e GPON"}]
