[{"tecnologia":"HFC","uf":"RJ","name":"São Gonçalo, RJ <br> HFC","color":"red","cidade":"São Gonçalo","longitude":"-43.063351","latitude":"-22.82679"},{"tecnologia":"HFC","uf":"SC","name":"Criciúma, SC <br> HFC","color":"red","cidade":"Criciúma","longitude":"-49.372887","latitude":"-28.672267"},{"tecnologia":"HFC","uf":"SP","name":"Mogi das Cruzes, SP <br> HFC","color":"red","cidade":"Mogi das Cruzes","longitude":"-46.18541","latitude":"-23.52082"},{"tecnologia":"HFC","uf":"SP","name":"Santa Branca, SP <br> HFC","color":"red","cidade":"Santa Branca","longitude":"-45.887521","latitude":"-23.393311"},{"tecnologia":"HFC","uf":"TO","name":"Palmas, TO <br> HFC","color":"red","cidade":"Palmas","longitude":"-48.355751","latitude":"-10.239973"},{"tecnologia":"HFC","uf":"AM","name":"Manaus, AM <br> HFC","color":"red","cidade":"Manaus","longitude":"-60.02123","latitude":"-3.118662"},{"tecnologia":"HFC","uf":"BA","name":"Lauro de Freitas, BA <br> HFC","color":"red","cidade":"Lauro de Freitas","longitude":"-38.321008","latitude":"-12.8978"},{"tecnologia":"HFC","uf":"BA","name":"Salvador, BA <br> HFC","color":"red","cidade":"Salvador","longitude":"-38.501068","latitude":"-12.97178"},{"tecnologia":"HFC","uf":"DF","name":"Brasília, DF <br> HFC","color":"red","cidade":"Brasília","longitude":"-47.929657","latitude":"-15.779522"},{"tecnologia":"HFC","uf":"MG","name":"Belo Horizonte, MG <br> HFC","color":"red","cidade":"Belo Horizonte","longitude":"-43.926572","latitude":"-19.910183"},{"tecnologia":"HFC","uf":"MG","name":"Contagem, MG <br> HFC","color":"red","cidade":"Contagem","longitude":"-44.05392","latitude":"-19.932079"},{"tecnologia":"HFC","uf":"MG","name":"Sabará, MG <br> HFC","color":"red","cidade":"Sabará","longitude":"-43.82631","latitude":"-19.884045"},{"tecnologia":"HFC","uf":"PR","name":"Almirante Tamandaré, PR <br> HFC","color":"red","cidade":"Almirante Tamandaré","longitude":"-49.303733","latitude":"-25.318819"},{"tecnologia":"HFC","uf":"PR","name":"Arapongas, PR <br> HFC","color":"red","cidade":"Arapongas","longitude":"-51.42592","latitude":"-23.415296"},{"tecnologia":"HFC","uf":"PR","name":"Araucária, PR <br> HFC","color":"red","cidade":"Araucária","longitude":"-49.404748","latitude":"-25.585939"},{"tecnologia":"HFC","uf":"PR","name":"Campo Largo, PR <br> HFC","color":"red","cidade":"Campo Largo","longitude":"-49.529026","latitude":"-25.452535"},{"tecnologia":"HFC","uf":"PR","name":"Colombo, PR <br> HFC","color":"red","cidade":"Colombo","longitude":"-49.22616","latitude":"-25.292487"},{"tecnologia":"HFC","uf":"PR","name":"Curitiba, PR <br> HFC","color":"red","cidade":"Curitiba","longitude":"-49.264622","latitude":"-25.419547"},{"tecnologia":"HFC","uf":"PR","name":"Pinhais, PR <br> HFC","color":"red","cidade":"Pinhais","longitude":"-49.19267","latitude":"-25.442949"},{"tecnologia":"HFC","uf":"PR","name":"São José Dos Pinhais, PR <br> HFC","color":"red","cidade":"São José Dos Pinhais","longitude":"-49.203097","latitude":"-25.531343"},{"tecnologia":"HFC","uf":"RJ","name":"Rio de Janeiro, RJ <br> HFC","color":"red","cidade":"Rio de Janeiro","longitude":"-43.200295","latitude":"-22.912897"},{"tecnologia":"HFC","uf":"RS","name":"Canoas, RS <br> HFC","color":"red","cidade":"Canoas","longitude":"-51.185681","latitude":"-29.912758"},{"tecnologia":"HFC","uf":"RS","name":"Caxias do Sul, RS <br> HFC","color":"red","cidade":"Caxias do Sul","longitude":"-51.179161","latitude":"-29.162905"},{"tecnologia":"HFC","uf":"RS","name":"Esteio, RS <br> HFC","color":"red","cidade":"Esteio","longitude":"-51.184065","latitude":"-29.851963"},{"tecnologia":"HFC","uf":"RS","name":"Farroupilha, RS <br> HFC","color":"red","cidade":"Farroupilha","longitude":"-51.341853","latitude":"-29.222689"},{"tecnologia":"HFC","uf":"RS","name":"Porto Alegre, RS <br> HFC","color":"red","cidade":"Porto Alegre","longitude":"-51.206533","latitude":"-30.031771"},{"tecnologia":"HFC","uf":"RS","name":"Rio Grande, RS <br> HFC","color":"red","cidade":"Rio Grande","longitude":"-52.10705","latitude":"-32.034875"},{"tecnologia":"HFC","uf":"RS","name":"Sapucaia do Sul, RS <br> HFC","color":"red","cidade":"Sapucaia do Sul","longitude":"-51.144975","latitude":"-29.827575"},{"tecnologia":"HFC","uf":"SC","name":"Florianópolis, SC <br> HFC","color":"red","cidade":"Florianópolis","longitude":"-48.547696","latitude":"-27.594486"},{"tecnologia":"HFC","uf":"SC","name":"Joinville, SC <br> HFC","color":"red","cidade":"Joinville","longitude":"-48.848675","latitude":"-26.304497"},{"tecnologia":"HFC","uf":"SC","name":"São José, SC <br> HFC","color":"red","cidade":"São José","longitude":"-48.636607","latitude":"-27.613577"},{"tecnologia":"HFC","uf":"SP","name":"Americana, SP <br> HFC","color":"red","cidade":"Americana","longitude":"-47.333119","latitude":"-22.73736"},{"tecnologia":"HFC","uf":"SP","name":"Araras, SP <br> HFC","color":"red","cidade":"Araras","longitude":"-47.384235","latitude":"-22.357238"},{"tecnologia":"HFC","uf":"SP","name":"Atibaia, SP <br> HFC","color":"red","cidade":"Atibaia","longitude":"-46.556262","latitude":"-23.117059"},{"tecnologia":"HFC","uf":"SP","name":"Barueri, SP <br> HFC","color":"red","cidade":"Barueri","longitude":"-46.879042","latitude":"-23.505689"},{"tecnologia":"HFC","uf":"SP","name":"Bragança Paulista, SP <br> HFC","color":"red","cidade":"Bragança Paulista","longitude":"-46.54188","latitude":"-22.952681"},{"tecnologia":"HFC","uf":"SP","name":"Campinas, SP <br> HFC","color":"red","cidade":"Campinas","longitude":"-47.06595","latitude":"-22.905346"},{"tecnologia":"HFC","uf":"SP","name":"Carapicuíba, SP <br> HFC","color":"red","cidade":"Carapicuíba","longitude":"-46.840676","latitude":"-23.523471"},{"tecnologia":"HFC","uf":"SP","name":"Cotia, SP <br> HFC","color":"red","cidade":"Cotia","longitude":"-46.91902","latitude":"-23.602177"},{"tecnologia":"HFC","uf":"SP","name":"Cubatão, SP <br> HFC","color":"red","cidade":"Cubatão","longitude":"-46.423968","latitude":"-23.891121"},{"tecnologia":"HFC","uf":"SP","name":"Diadema, SP <br> HFC","color":"red","cidade":"Diadema","longitude":"-46.62052","latitude":"-23.681347"},{"tecnologia":"HFC","uf":"SP","name":"Elias Fausto, SP <br> HFC","color":"red","cidade":"Elias Fausto","longitude":"-47.368153","latitude":"-23.042822"},{"tecnologia":"HFC","uf":"SP","name":"Guarulhos, SP <br> HFC","color":"red","cidade":"Guarulhos","longitude":"-46.533347","latitude":"-23.453758"},{"tecnologia":"HFC","uf":"SP","name":"Itapevi, SP <br> HFC","color":"red","cidade":"Itapevi","longitude":"-46.932747","latitude":"-23.548774"},{"tecnologia":"HFC","uf":"SP","name":"Itu, SP <br> HFC","color":"red","cidade":"Itu","longitude":"-47.292688","latitude":"-23.254397"},{"tecnologia":"HFC","uf":"SP","name":"Jandira, SP <br> HFC","color":"red","cidade":"Jandira","longitude":"-46.902314","latitude":"-23.527537"},{"tecnologia":"HFC","uf":"SP","name":"Jundiaí, SP <br> HFC","color":"red","cidade":"Jundiaí","longitude":"-46.897358","latitude":"-23.185218"},{"tecnologia":"HFC","uf":"SP","name":"Monte Mor, SP <br> HFC","color":"red","cidade":"Monte Mor","longitude":"-47.312182","latitude":"-22.945043"},{"tecnologia":"HFC","uf":"SP","name":"Osasco, SP <br> HFC","color":"red","cidade":"Osasco","longitude":"-46.791555","latitude":"-23.53239"},{"tecnologia":"HFC","uf":"SP","name":"Piracicaba, SP <br> HFC","color":"red","cidade":"Piracicaba","longitude":"-47.647612","latitude":"-22.733801"},{"tecnologia":"HFC","uf":"SP","name":"Poá, SP <br> HFC","color":"red","cidade":"Poá","longitude":"-46.347292","latitude":"-23.533285"},{"tecnologia":"HFC","uf":"SP","name":"Porto Feliz, SP <br> HFC","color":"red","cidade":"Porto Feliz","longitude":"-47.52512","latitude":"-23.209318"},{"tecnologia":"HFC","uf":"SP","name":"Rafard, SP <br> HFC","color":"red","cidade":"Rafard","longitude":"-47.531795","latitude":"-23.010508"},{"tecnologia":"HFC","uf":"SP","name":"Rio Claro, SP <br> HFC","color":"red","cidade":"Rio Claro","longitude":"-47.554632","latitude":"-22.398378"},{"tecnologia":"HFC","uf":"SP","name":"Salto, SP <br> HFC","color":"red","cidade":"Salto","longitude":"-47.293087","latitude":"-23.199592"},{"tecnologia":"HFC","uf":"SP","name":"Santana de Parnaíba, SP <br> HFC","color":"red","cidade":"Santana de Parnaíba","longitude":"-46.922215","latitude":"-23.442514"},{"tecnologia":"HFC","uf":"SP","name":"Santo André, SP <br> HFC","color":"red","cidade":"Santo André","longitude":"-46.543154","latitude":"-23.67373"},{"tecnologia":"HFC","uf":"SP","name":"São Bernardo do Campo, SP <br> HFC","color":"red","cidade":"São Bernardo do Campo","longitude":"-46.564617","latitude":"-23.691412"},{"tecnologia":"HFC","uf":"SP","name":"São Caetano do Sul, SP <br> HFC","color":"red","cidade":"São Caetano do Sul","longitude":"-46.554797","latitude":"-23.62287"},{"tecnologia":"HFC","uf":"SP","name":"São Paulo, SP <br> HFC","color":"red","cidade":"São Paulo","longitude":"-46.63952","latitude":"-23.532905"},{"tecnologia":"HFC","uf":"SP","name":"Sertãozinho, SP <br> HFC","color":"red","cidade":"Sertãozinho","longitude":"-47.987496","latitude":"-21.131596"},{"tecnologia":"HFC","uf":"SP","name":"Suzano, SP <br> HFC","color":"red","cidade":"Suzano","longitude":"-46.311181","latitude":"-23.544828"},{"tecnologia":"HFC","uf":"SP","name":"Taboão da Serra, SP <br> HFC","color":"red","cidade":"Taboão da Serra","longitude":"-46.752637","latitude":"-23.601867"},{"tecnologia":"HFC","uf":"SP","name":"Tietê, SP <br> HFC","color":"red","cidade":"Tietê","longitude":"-47.716378","latitude":"-23.110098"},{"tecnologia":"HFC","uf":"SP","name":"Vargem Grande Paulista, SP <br> HFC","color":"red","cidade":"Vargem Grande Paulista","longitude":"-47.022038","latitude":"-23.599338"},{"tecnologia":"HFC","uf":"SP","name":"Votorantim, SP <br> HFC","color":"red","cidade":"Votorantim","longitude":"-47.438753","latitude":"-23.54459"}]
