[{"name":"Mogi das Cruzes, SP <br> Sobreposição HFC e GPON","color":"yellow","longitude":"-46.18541","latitude":"-23.52082"},{"name":"Palmas, TO <br> Sobreposição HFC e GPON","color":"yellow","longitude":"-48.355751","latitude":"-10.239973"},{"name":"Rio Branco, AC <br> Sobreposição HFC e GPON","color":"yellow","longitude":"-67.824348","latitude":"-9.97499"},{"name":"Maceió, AL <br> Sobreposição HFC e GPON","color":"yellow","longitude":"-35.73496","latitude":"-9.665985"},{"name":"Manaus, AM <br> Sobreposição HFC e GPON","color":"yellow","longitude":"-60.02123","latitude":"-3.118662"},{"name":"Lauro de Freitas, BA <br> Sobreposição HFC e GPON","color":"yellow","longitude":"-38.321008","latitude":"-12.8978"},{"name":"Salvador, BA <br> Sobreposição HFC e GPON","color":"yellow","longitude":"-38.501068","latitude":"-12.97178"},{"name":"Vitória da Conquista, BA <br> Sobreposição HFC e GPON","color":"yellow","longitude":"-40.844159","latitude":"-14.861466"},{"name":"Fortaleza, CE <br> Sobreposição HFC e GPON","color":"yellow","longitude":"-38.542298","latitude":"-3.716638"},{"name":"Brasília, DF <br> Sobreposição HFC e GPON","color":"yellow","longitude":"-47.929657","latitude":"-15.779522"},{"name":"Cachoeiro de Itapemirim, ES <br> Sobreposição HFC e GPON","color":"yellow","longitude":"-41.119829","latitude":"-20.846212"},{"name":"Cariacica, ES <br> Sobreposição HFC e GPON","color":"yellow","longitude":"-40.416549","latitude":"-20.263202"},{"name":"Serra, ES <br> Sobreposição HFC e GPON","color":"yellow","longitude":"-40.307408","latitude":"-20.121032"},{"name":"Vila Velha, ES <br> Sobreposição HFC e GPON","color":"yellow","longitude":"-40.287458","latitude":"-20.341705"},{"name":"Vitória, ES <br> Sobreposição HFC e GPON","color":"yellow","longitude":"-40.312806","latitude":"-20.315472"},{"name":"Anápolis, GO <br> Sobreposição HFC e GPON","color":"yellow","longitude":"-48.952958","latitude":"-16.328095"},{"name":"Goiânia, GO <br> Sobreposição HFC e GPON","color":"yellow","longitude":"-49.264346","latitude":"-16.686439"},{"name":"São Luís, MA <br> Sobreposição HFC e GPON","color":"yellow","longitude":"-44.282513","latitude":"-2.538742"},{"name":"Belo Horizonte, MG <br> Sobreposição HFC e GPON","color":"yellow","longitude":"-43.926572","latitude":"-19.910183"},{"name":"Contagem, MG <br> Sobreposição HFC e GPON","color":"yellow","longitude":"-44.05392","latitude":"-19.932079"},{"name":"Governador Valadares, MG <br> Sobreposição HFC e GPON","color":"yellow","longitude":"-41.95553","latitude":"-18.854452"},{"name":"Ipatinga, MG <br> Sobreposição HFC e GPON","color":"yellow","longitude":"-42.547612","latitude":"-19.470275"},{"name":"Juiz de Fora, MG <br> Sobreposição HFC e GPON","color":"yellow","longitude":"-43.339759","latitude":"-21.75952"},{"name":"Nova Lima, MG <br> Sobreposição HFC e GPON","color":"yellow","longitude":"-43.850854","latitude":"-19.975763"},{"name":"Uberaba, MG <br> Sobreposição HFC e GPON","color":"yellow","longitude":"-47.938073","latitude":"-19.747205"},{"name":"Uberlândia, MG <br> Sobreposição HFC e GPON","color":"yellow","longitude":"-48.274934","latitude":"-18.914142"},{"name":"Campo Grande, MS <br> Sobreposição HFC e GPON","color":"yellow","longitude":"-54.629463","latitude":"-20.448589"},{"name":"Dourados, MS <br> Sobreposição HFC e GPON","color":"yellow","longitude":"-54.812043","latitude":"-22.223099"},{"name":"Cuiabá, MT <br> Sobreposição HFC e GPON","color":"yellow","longitude":"-56.097397","latitude":"-15.600979"},{"name":"Ananindeua, PA <br> Sobreposição HFC e GPON","color":"yellow","longitude":"-48.374298","latitude":"-1.363914"},{"name":"Belém, PA <br> Sobreposição HFC e GPON","color":"yellow","longitude":"-48.489756","latitude":"-1.455396"},{"name":"João Pessoa, PB <br> Sobreposição HFC e GPON","color":"yellow","longitude":"-34.864121","latitude":"-7.11509"},{"name":"Caruaru, PE <br> Sobreposição HFC e GPON","color":"yellow","longitude":"-35.969863","latitude":"-8.284547"},{"name":"Jaboatão Dos Guararapes, PE <br> Sobreposição HFC e GPON","color":"yellow","longitude":"-35.014959","latitude":"-8.112982"},{"name":"Olinda, PE <br> Sobreposição HFC e GPON","color":"yellow","longitude":"-34.854504","latitude":"-8.010166"},{"name":"Paulista, PE <br> Sobreposição HFC e GPON","color":"yellow","longitude":"-34.868407","latitude":"-7.934007"},{"name":"Recife, PE <br> Sobreposição HFC e GPON","color":"yellow","longitude":"-34.877065","latitude":"-8.046658"},{"name":"Teresina, PI <br> Sobreposição HFC e GPON","color":"yellow","longitude":"-42.803364","latitude":"-5.091944"},{"name":"Campo Largo, PR <br> Sobreposição HFC e GPON","color":"yellow","longitude":"-49.529026","latitude":"-25.452535"},{"name":"Curitiba, PR <br> Sobreposição HFC e GPON","color":"yellow","longitude":"-49.264622","latitude":"-25.419547"},{"name":"Guarapuava, PR <br> Sobreposição HFC e GPON","color":"yellow","longitude":"-51.462317","latitude":"-25.390237"},{"name":"Londrina, PR <br> Sobreposição HFC e GPON","color":"yellow","longitude":"-51.1691","latitude":"-23.303975"},{"name":"Ponta Grossa, PR <br> Sobreposição HFC e GPON","color":"yellow","longitude":"-50.166787","latitude":"-25.091622"},{"name":"Barra Mansa, RJ <br> Sobreposição HFC e GPON","color":"yellow","longitude":"-44.175241","latitude":"-22.548084"},{"name":"Macaé, RJ <br> Sobreposição HFC e GPON","color":"yellow","longitude":"-41.784828","latitude":"-22.376807"},{"name":"Niterói, RJ <br> Sobreposição HFC e GPON","color":"yellow","longitude":"-43.103367","latitude":"-22.88321"},{"name":"Resende, RJ <br> Sobreposição HFC e GPON","color":"yellow","longitude":"-44.45091","latitude":"-22.470473"},{"name":"Rio de Janeiro, RJ <br> Sobreposição HFC e GPON","color":"yellow","longitude":"-43.200295","latitude":"-22.912897"},{"name":"Natal, RN <br> Sobreposição HFC e GPON","color":"yellow","longitude":"-35.198604","latitude":"-5.793567"},{"name":"Parnamirim, RN <br> Sobreposição HFC e GPON","color":"yellow","longitude":"-35.271","latitude":"-5.911156"},{"name":"Porto Velho, RO <br> Sobreposição HFC e GPON","color":"yellow","longitude":"-63.899902","latitude":"-8.760772"},{"name":"Bagé, RS <br> Sobreposição HFC e GPON","color":"yellow","longitude":"-54.09992","latitude":"-31.32965"},{"name":"Bento Gonçalves, RS <br> Sobreposição HFC e GPON","color":"yellow","longitude":"-51.516476","latitude":"-29.166212"},{"name":"Cachoeirinha, RS <br> Sobreposição HFC e GPON","color":"yellow","longitude":"-51.101606","latitude":"-29.947222"},{"name":"Campo Bom, RS <br> Sobreposição HFC e GPON","color":"yellow","longitude":"-51.060601","latitude":"-29.674694"},{"name":"Capão da Canoa, RS <br> Sobreposição HFC e GPON","color":"yellow","longitude":"-50.028243","latitude":"-29.764242"},{"name":"Caxias do Sul, RS <br> Sobreposição HFC e GPON","color":"yellow","longitude":"-51.179161","latitude":"-29.162905"},{"name":"Erechim, RS <br> Sobreposição HFC e GPON","color":"yellow","longitude":"-52.26969","latitude":"-27.63638"},{"name":"Farroupilha, RS <br> Sobreposição HFC e GPON","color":"yellow","longitude":"-51.341853","latitude":"-29.222689"},{"name":"Gravataí, RS <br> Sobreposição HFC e GPON","color":"yellow","longitude":"-50.986891","latitude":"-29.941319"},{"name":"Novo Hamburgo, RS <br> Sobreposição HFC e GPON","color":"yellow","longitude":"-51.132828","latitude":"-29.687548"},{"name":"Passo Fundo, RS <br> Sobreposição HFC e GPON","color":"yellow","longitude":"-52.409112","latitude":"-28.257564"},{"name":"Pelotas, RS <br> Sobreposição HFC e GPON","color":"yellow","longitude":"-52.337058","latitude":"-31.764898"},{"name":"Porto Alegre, RS <br> Sobreposição HFC e GPON","color":"yellow","longitude":"-51.206533","latitude":"-30.031771"},{"name":"Rio Grande, RS <br> Sobreposição HFC e GPON","color":"yellow","longitude":"-52.10705","latitude":"-32.034875"},{"name":"Santa Cruz do Sul, RS <br> Sobreposição HFC e GPON","color":"yellow","longitude":"-52.434318","latitude":"-29.722021"},{"name":"Santa Maria, RS <br> Sobreposição HFC e GPON","color":"yellow","longitude":"-53.814946","latitude":"-29.686817"},{"name":"São Leopoldo, RS <br> Sobreposição HFC e GPON","color":"yellow","longitude":"-51.149773","latitude":"-29.754494"},{"name":"Viamão, RS <br> Sobreposição HFC e GPON","color":"yellow","longitude":"-51.019435","latitude":"-30.081899"},{"name":"Balneário Camboriú, SC <br> Sobreposição HFC e GPON","color":"yellow","longitude":"-48.635152","latitude":"-26.992594"},{"name":"Blumenau, SC <br> Sobreposição HFC e GPON","color":"yellow","longitude":"-49.070904","latitude":"-26.915501"},{"name":"Brusque, SC <br> Sobreposição HFC e GPON","color":"yellow","longitude":"-48.910663","latitude":"-27.097706"},{"name":"Chapecó, SC <br> Sobreposição HFC e GPON","color":"yellow","longitude":"-52.61519","latitude":"-27.100448"},{"name":"Florianópolis, SC <br> Sobreposição HFC e GPON","color":"yellow","longitude":"-48.547696","latitude":"-27.594486"},{"name":"Itajaí, SC <br> Sobreposição HFC e GPON","color":"yellow","longitude":"-48.670475","latitude":"-26.910097"},{"name":"Itapema, SC <br> Sobreposição HFC e GPON","color":"yellow","longitude":"-48.616038","latitude":"-27.08607"},{"name":"Joinville, SC <br> Sobreposição HFC e GPON","color":"yellow","longitude":"-48.848675","latitude":"-26.304497"},{"name":"Palhoça, SC <br> Sobreposição HFC e GPON","color":"yellow","longitude":"-48.669661","latitude":"-27.645518"},{"name":"São José, SC <br> Sobreposição HFC e GPON","color":"yellow","longitude":"-48.636607","latitude":"-27.613577"},{"name":"Aracaju, SE <br> Sobreposição HFC e GPON","color":"yellow","longitude":"-37.06766","latitude":"-10.909133"},{"name":"Americana, SP <br> Sobreposição HFC e GPON","color":"yellow","longitude":"-47.333119","latitude":"-22.73736"},{"name":"Araçatuba, SP <br> Sobreposição HFC e GPON","color":"yellow","longitude":"-50.440106","latitude":"-21.207648"},{"name":"Araraquara, SP <br> Sobreposição HFC e GPON","color":"yellow","longitude":"-48.178014","latitude":"-21.784511"},{"name":"Atibaia, SP <br> Sobreposição HFC e GPON","color":"yellow","longitude":"-46.556262","latitude":"-23.117059"},{"name":"Bertioga, SP <br> Sobreposição HFC e GPON","color":"yellow","longitude":"-46.139586","latitude":"-23.848568"},{"name":"Bragança Paulista, SP <br> Sobreposição HFC e GPON","color":"yellow","longitude":"-46.54188","latitude":"-22.952681"},{"name":"Caçapava, SP <br> Sobreposição HFC e GPON","color":"yellow","longitude":"-45.707645","latitude":"-23.099204"},{"name":"Campinas, SP <br> Sobreposição HFC e GPON","color":"yellow","longitude":"-47.06595","latitude":"-22.905346"},{"name":"Cruzeiro, SP <br> Sobreposição HFC e GPON","color":"yellow","longitude":"-44.96896","latitude":"-22.572764"},{"name":"Diadema, SP <br> Sobreposição HFC e GPON","color":"yellow","longitude":"-46.62052","latitude":"-23.681347"},{"name":"Franca, SP <br> Sobreposição HFC e GPON","color":"yellow","longitude":"-47.403861","latitude":"-20.53523"},{"name":"Guaratinguetá, SP <br> Sobreposição HFC e GPON","color":"yellow","longitude":"-45.193788","latitude":"-22.807534"},{"name":"Guarujá, SP <br> Sobreposição HFC e GPON","color":"yellow","longitude":"-46.257959","latitude":"-23.988798"},{"name":"Guarulhos, SP <br> Sobreposição HFC e GPON","color":"yellow","longitude":"-46.533347","latitude":"-23.453758"},{"name":"Hortolândia, SP <br> Sobreposição HFC e GPON","color":"yellow","longitude":"-47.214259","latitude":"-22.852854"},{"name":"Indaiatuba, SP <br> Sobreposição HFC e GPON","color":"yellow","longitude":"-47.210093","latitude":"-23.081591"},{"name":"Itu, SP <br> Sobreposição HFC e GPON","color":"yellow","longitude":"-47.292688","latitude":"-23.254397"},{"name":"Jacareí, SP <br> Sobreposição HFC e GPON","color":"yellow","longitude":"-45.965814","latitude":"-23.29829"},{"name":"Jundiaí, SP <br> Sobreposição HFC e GPON","color":"yellow","longitude":"-46.897358","latitude":"-23.185218"},{"name":"Limeira, SP <br> Sobreposição HFC e GPON","color":"yellow","longitude":"-47.396987","latitude":"-22.56605"},{"name":"Marília, SP <br> Sobreposição HFC e GPON","color":"yellow","longitude":"-49.95006","latitude":"-22.217108"},{"name":"Osasco, SP <br> Sobreposição HFC e GPON","color":"yellow","longitude":"-46.791555","latitude":"-23.53239"},{"name":"Paulínia, SP <br> Sobreposição HFC e GPON","color":"yellow","longitude":"-47.148776","latitude":"-22.754178"},{"name":"Pindamonhangaba, SP <br> Sobreposição HFC e GPON","color":"yellow","longitude":"-45.461264","latitude":"-22.92463"},{"name":"Piracicaba, SP <br> Sobreposição HFC e GPON","color":"yellow","longitude":"-47.647612","latitude":"-22.733801"},{"name":"Praia Grande, SP <br> Sobreposição HFC e GPON","color":"yellow","longitude":"-46.412057","latitude":"-24.008378"},{"name":"Ribeirão Preto, SP <br> Sobreposição HFC e GPON","color":"yellow","longitude":"-47.809875","latitude":"-21.169923"},{"name":"Rio Claro, SP <br> Sobreposição HFC e GPON","color":"yellow","longitude":"-47.554632","latitude":"-22.398378"},{"name":"Santo André, SP <br> Sobreposição HFC e GPON","color":"yellow","longitude":"-46.543154","latitude":"-23.67373"},{"name":"Santos, SP <br> Sobreposição HFC e GPON","color":"yellow","longitude":"-46.335042","latitude":"-23.953543"},{"name":"São Bernardo do Campo, SP <br> Sobreposição HFC e GPON","color":"yellow","longitude":"-46.564617","latitude":"-23.691412"},{"name":"São Caetano do Sul, SP <br> Sobreposição HFC e GPON","color":"yellow","longitude":"-46.554797","latitude":"-23.62287"},{"name":"São José do Rio Preto, SP <br> Sobreposição HFC e GPON","color":"yellow","longitude":"-49.375767","latitude":"-20.811289"},{"name":"São José Dos Campos, SP <br> Sobreposição HFC e GPON","color":"yellow","longitude":"-45.884115","latitude":"-23.189554"},{"name":"São Paulo, SP <br> Sobreposição HFC e GPON","color":"yellow","longitude":"-46.63952","latitude":"-23.532905"},{"name":"Sorocaba, SP <br> Sobreposição HFC e GPON","color":"yellow","longitude":"-47.445073","latitude":"-23.496886"},{"name":"Sumaré, SP <br> Sobreposição HFC e GPON","color":"yellow","longitude":"-47.272823","latitude":"-22.820416"},{"name":"Valinhos, SP <br> Sobreposição HFC e GPON","color":"yellow","longitude":"-46.997367","latitude":"-22.969805"}]