[{"uf":"ERRO CADASTRO API AL","latitude":"-9.955423","tecnologia":"ERRO na consulta API","cidade":"Campo Grande","longitude":"-36.792608","color":"orange","name":"Campo Grande, ERRO CADASTRO API AL <br> ERRO na consulta API"},{"uf":"ERRO CADASTRO API MT","latitude":"-15.248331","tecnologia":"ERRO na consulta API","cidade":"Rio Branco","longitude":"-58.125892","color":"orange","name":"Rio Branco, ERRO CADASTRO API MT <br> ERRO na consulta API"},{"uf":"ERRO CADASTRO API PB","latitude":"-6.591381","tecnologia":"ERRO na consulta API","cidade":"Paulista","longitude":"-37.618548","color":"orange","name":"Paulista, ERRO CADASTRO API PB <br> ERRO na consulta API"},{"uf":"ERRO CADASTRO API PE","latitude":"-8.486685","tecnologia":"ERRO na consulta API","cidade":"Cachoeirinha","longitude":"-36.240182","color":"orange","name":"Cachoeirinha, ERRO CADASTRO API PE <br> ERRO na consulta API"},{"uf":"ERRO CADASTRO API PR","latitude":"-23.303975","tecnologia":"ERRO na consulta API","cidade":"Londrina","longitude":"-51.1691","color":"orange","name":"Londrina, ERRO CADASTRO API PR <br> ERRO na consulta API"},{"uf":"ERRO CADASTRO API RJ","latitude":"-22.720001","tecnologia":"ERRO na consulta API","cidade":"Rio Claro","longitude":"-44.141874","color":"orange","name":"Rio Claro, ERRO CADASTRO API RJ <br> ERRO na consulta API"},{"uf":"ERRO CADASTRO API SC","latitude":"-29.191846","tecnologia":"ERRO na consulta API","cidade":"Praia Grande","longitude":"-49.952503","color":"orange","name":"Praia Grande, ERRO CADASTRO API SC <br> ERRO na consulta API"},{"uf":"ERRO CADASTRO API TO","latitude":"-12.478465","tecnologia":"ERRO na consulta API","cidade":"Alvorada","longitude":"-49.124926","color":"orange","name":"Alvorada, ERRO CADASTRO API TO <br> ERRO na consulta API"},{"uf":"ERRO CADASTRO API TO","latitude":"-6.115596","tecnologia":"ERRO na consulta API","cidade":"Cachoeirinha","longitude":"-47.923399","color":"orange","name":"Cachoeirinha, ERRO CADASTRO API TO <br> ERRO na consulta API"}]
