[{"color":"green","cidade":"Arapiraca","tecnologia":"GPON","latitude":"-9.754866","uf":"AL","longitude":"-36.661471","name":"Arapiraca, AL <br> GPON"},{"color":"green","cidade":"Trindade","tecnologia":"GPON","latitude":"-16.651708","uf":"GO","longitude":"-49.492667","name":"Trindade, GO <br> GPON"},{"color":"green","cidade":"Araxá","tecnologia":"GPON","latitude":"-19.590176","uf":"MG","longitude":"-46.943804","name":"Araxá, MG <br> GPON"},{"color":"green","cidade":"Itajubá","tecnologia":"GPON","latitude":"-22.422481","uf":"MG","longitude":"-45.459818","name":"Itajubá, MG <br> GPON"},{"color":"green","cidade":"Paraíba Do Sul","tecnologia":"GPON","latitude":"-22.158462","uf":"RJ","longitude":"-43.304004","name":"Paraíba Do Sul, RJ <br> GPON"},{"color":"green","cidade":"Ji-Paraná","tecnologia":"GPON","latitude":"-10.877741","uf":"RO","longitude":"-61.932152","name":"Ji-Paraná, RO <br> GPON"},{"color":"green","cidade":"Camaquã","tecnologia":"GPON","latitude":"-30.848897","uf":"RS","longitude":"-51.80431","name":"Camaquã, RS <br> GPON"},{"color":"green","cidade":"Dois Irmãos","tecnologia":"GPON","latitude":"-29.58356","uf":"RS","longitude":"-51.089776","name":"Dois Irmãos, RS <br> GPON"},{"color":"green","cidade":"Marau","tecnologia":"GPON","latitude":"-28.449754","uf":"RS","longitude":"-52.198625","name":"Marau, RS <br> GPON"},{"color":"green","cidade":"Vacaria","tecnologia":"GPON","latitude":"-28.507868","uf":"RS","longitude":"-50.941791","name":"Vacaria, RS <br> GPON"},{"color":"green","cidade":"Içara","tecnologia":"GPON","latitude":"-28.713206","uf":"SC","longitude":"-49.308654","name":"Içara, SC <br> GPON"},{"color":"green","cidade":"Agudos","tecnologia":"GPON","latitude":"-22.469433","uf":"SP","longitude":"-48.98632","name":"Agudos, SP <br> GPON"},{"color":"green","cidade":"Casa Branca","tecnologia":"GPON","latitude":"-21.77081","uf":"SP","longitude":"-47.085245","name":"Casa Branca, SP <br> GPON"},{"color":"green","cidade":"Ibaté","tecnologia":"GPON","latitude":"-21.958358","uf":"SP","longitude":"-47.988211","name":"Ibaté, SP <br> GPON"},{"color":"green","cidade":"Jaguariúna","tecnologia":"GPON","latitude":"-22.70374","uf":"SP","longitude":"-46.985062","name":"Jaguariúna, SP <br> GPON"},{"color":"green","cidade":"Piedade","tecnologia":"GPON","latitude":"-23.713941","uf":"SP","longitude":"-47.425572","name":"Piedade, SP <br> GPON"},{"color":"green","cidade":"Santa Cruz das Palmeiras","tecnologia":"GPON","latitude":"-21.823475","uf":"SP","longitude":"-47.248023","name":"Santa Cruz das Palmeiras, SP <br> GPON"},{"color":"green","cidade":"Tambaú","tecnologia":"GPON","latitude":"-21.70292","uf":"SP","longitude":"-47.270344","name":"Tambaú, SP <br> GPON"},{"color":"green","cidade":"Araguaína","tecnologia":"GPON","latitude":"-7.192375","uf":"TO","longitude":"-48.204402","name":"Araguaína, TO <br> GPON"},{"color":"green","cidade":"Gurupi","tecnologia":"GPON","latitude":"-11.72794","uf":"TO","longitude":"-49.068046","name":"Gurupi, TO <br> GPON"},{"color":"green","cidade":"Caieiras","tecnologia":"GPON","latitude":"-23.360729","uf":"SP","longitude":"-46.73974","name":"Caieiras, SP <br> GPON"},{"color":"green","cidade":"Itupeva","tecnologia":"GPON","latitude":"-23.152635","uf":"SP","longitude":"-47.059262","name":"Itupeva, SP <br> GPON"},{"color":"green","cidade":"Mairinque","tecnologia":"GPON","latitude":"-23.539822","uf":"SP","longitude":"-47.184995","name":"Mairinque, SP <br> GPON"}]
